[
  {
    "name": "Sunshine Promo USA Inc",
    "description": "Advertising Agencies",
    "phone": "(850) 683-3733",
    "address": " 1580 Texas Pkwy  Crestview, FL 32536",
    "location": "Baker"
  },
  {
    "name": "Margie's Sew Much Fun",
    "description": "Advertising Agencies",
    "phone": "(850) 682-6920",
    "address": " 2014 Lacey Ln  Crestview, FL 32536",
    "location": "Baker"
  },
  {
    "name": "DAL Consulting",
    "description": "Advertising Agencies",
    "phone": "(850) 682-7053",
    "address": " 1060 Northview Dr  Crestview, FL 32536",
    "location": "Baker"
  },
  {
    "name": "O'Connor Dawn Inc",
    "description": "Advertising Agencies",
    "phone": "(850) 682-0605",
    "address": " 3541 Buckhorn Dr  Crestview, FL 32539",
    "location": "Baker"
  },
  {
    "name": "Emerald Coast Signs",
    "description": "Signs",
    "phone": "(850) 398-1712",
    "address": " 745 N Ferdon Blvd  Crestview, FL 32536",
    "location": "Baker"
  },
  {
    "name": "Finishline Signs & Graphics",
    "description": "T-Shirts",
    "phone": "(850) 582-2356",
    "address": " 5817 Reinke Dr  Crestview, FL 32539",
    "location": "Baker"
  },
  {
    "name": "Work at Home Jobs and Opportunities",
    "description": "Internet Marketing & Advertising",
    "phone": "(850) 225-6278",
    "address": " 118 Laurel Oak Ter  Crestview, FL 32536",
    "location": "Baker"
  },
  {
    "name": "Smart Innovations",
    "description": "Internet Marketing & Advertising",
    "phone": "(334) 730-3389",
    "address": " 4830 Young Rd  Crestview, FL 32539",
    "location": "Baker"
  },
  {
    "name": "A-1 Signs & Banners",
    "description": "Signs",
    "phone": "(850) 682-2820",
    "address": " 355 Church St  Crestview, FL 32539",
    "location": "Baker"
  },
  {
    "name": "Obj Signs",
    "description": "Signs",
    "phone": "(850) 689-1771",
    "address": " 5440 E Brook Dr  Crestview, FL 32539",
    "location": "Baker"
  },
  {
    "name": "Signs 2 Go",
    "description": "Signs",
    "phone": "(850) 398-5555",
    "address": " 729 Ashley Dr  Crestview, FL 32536",
    "location": "Baker"
  },
  {
    "name": "Your 1 Stop Mail Service",
    "description": "Mail & Shipping Services",
    "phone": "(850) 689-2006",
    "address": " 2260 S Ferdon Blvd  Crestview, FL 32536",
    "location": "Baker"
  },
  {
    "name": "Ecomasterboards.com",
    "description": "Internet Marketing & Advertising",
    "phone": "(813) 777-6661",
    "address": " 5715 Highway 85 N  Crestview, FL 32536",
    "location": "Baker"
  },
  {
    "name": "Irving Gil Designs",
    "description": "Web Site Design & Services",
    "phone": "(210) 204-8883",
    "address": " 315 Hudson Dr  Crestview, FL 32539",
    "location": "Baker"
  },
  {
    "name": "Williams Sign Company",
    "description": "Advertising Specialties",
    "phone": "(850) 331-3045",
    "address": " 745 N Ferdon Blvd  Crestview, FL 32536",
    "location": "Baker"
  },
  {
    "name": "Signs Galore",
    "description": "Signs",
    "phone": "(850) 683-8010",
    "address": " 111 Hammock St  Crestview, FL 32536",
    "location": "Baker"
  },
  {
    "name": "Trophy Center Inc",
    "description": "Advertising Agencies",
    "phone": "(850) 862-8413",
    "address": " 529 Eglin Pkwy NE  Fort Walton Beach, FL 32547",
    "location": "Baker"
  },
  {
    "name": "Boomer Aviation Inc",
    "description": "Advertising Agencies",
    "phone": "(850) 244-1313",
    "address": " 40 Lincoln Dr NW  Fort Walton Beach, FL 32547",
    "location": "Baker"
  },
  {
    "name": "Copy Systems Business Center",
    "description": "Advertising Agencies",
    "phone": "(850) 279-9100",
    "address": " 4821 Us Hwy 98 W  Santa Rosa Beach, FL 32459",
    "location": "Baker"
  }
]
