[
  {
    "name": "Mywidgyhub",
    "description": "Advertising Agencies",
    "phone": "(813) 682-9464",
    "address": " 10927 Keys Gate Dr  Riverview, FL 33579",
    "location": "Bay"
  },
  {
    "name": "Phoenix Advertising",
    "description": "Advertising Agencies",
    "phone": "(813) 642-0002",
    "address": " 11542 Sumner Rd  Wimauma, FL 33598",
    "location": "Bay"
  },
  {
    "name": "Small Business Advisor",
    "description": "Advertising Agencies",
    "phone": "(813) 672-1052",
    "address": " 10321 Avelar Ridge Dr  Riverview, FL 33578",
    "location": "Bay"
  },
  {
    "name": "Fullest Extent Media",
    "description": "Marketing Programs & Services",
    "phone": "(813) 658-8234",
    "address": " 13194 Us Highway 301 S Ste 143  Riverview, FL 33578",
    "location": "Bay"
  },
  {
    "name": "CMK Web Solutions",
    "description": "Internet Marketing & Advertising",
    "phone": "(302) 217-9633",
    "address": " 13420 Beechberry Dr  Riverview, FL 33579",
    "location": "Bay"
  },
  {
    "name": "Travel Blog Success LLC",
    "description": "Internet Marketing & Advertising",
    "phone": "(813) 419-6005",
    "address": " 16263 Diamond Bay Dr  Wimauma, FL 33598",
    "location": "Bay"
  },
  {
    "name": "Only195.com",
    "description": "Internet Marketing & Advertising",
    "phone": "(813) 421-0698",
    "address": " 13194 Us Highway 301 S  Riverview, FL 33578",
    "location": "Bay"
  },
  {
    "name": "Laser Sharp Sign Design",
    "description": "Advertising Specialties",
    "phone": "(813) 445-7300",
    "address": " 10609 Deepbrook Dr  Riverview, FL 33569",
    "location": "Bay"
  },
  {
    "name": "Solar Designs",
    "description": "Auto Repair & Service",
    "phone": "(813) 922-0532",
    "address": " 103 W College Ave  Ruskin, FL 33570",
    "location": "Bay"
  },
  {
    "name": "Joda Digital Marketing & Pub",
    "description": "Advertising Agencies",
    "phone": "(855) 522-5632",
    "address": " 2733 Brookville Dr  Valrico, FL 33596",
    "location": "Bay"
  },
  {
    "name": "Meticulous Jess Marketing Agency",
    "description": "Advertising Agencies",
    "phone": "(813) 822-9884",
    "address": " 10668 New East Bay Rd  Gibsonton, FL 33534",
    "location": "Bay"
  },
  {
    "name": "Indivo",
    "description": "Advertising Agencies",
    "phone": "(877) 446-3486",
    "address": " 235 Apollo Beach Blvd Ste 256  Apollo Beach, FL 33572",
    "location": "Bay"
  },
  {
    "name": "Resseguie Advertising",
    "description": "Advertising Agencies",
    "phone": "(813) 642-0606",
    "address": " 2203 N Creek Ct  Sun City Center, FL 33573",
    "location": "Bay"
  },
  {
    "name": "Smedley Creative Graphic Design",
    "description": "Advertising Agencies",
    "phone": "(813) 431-1029",
    "address": " 4618 River Close Blvd  Valrico, FL 33596",
    "location": "Bay"
  },
  {
    "name": "Swim Digital Group",
    "description": "Advertising Agencies",
    "phone": "(813) 225-1010",
    "address": " 10810 Boyette Rd  Riverview, FL 33569",
    "location": "Bay"
  },
  {
    "name": "Tone & Assoc",
    "description": "Advertising Agencies",
    "phone": "(813) 689-2292",
    "address": " 2104 Crooked Creek Way  Valrico, FL 33596",
    "location": "Bay"
  },
  {
    "name": "Ad Mechanics",
    "description": "Advertising Agencies",
    "phone": "(404) 312-8935",
    "address": " 5002 Muir Way  Lithia, FL 33547",
    "location": "Bay"
  },
  {
    "name": "Apollo Digital Marketing",
    "description": "Advertising Agencies",
    "phone": "(813) 540-2447",
    "address": " 6560 Simone Shores Cir  Apollo Beach, FL 33572",
    "location": "Bay"
  },
  {
    "name": "Freight Management Service",
    "description": "Advertising Agencies",
    "phone": "(813) 677-6004",
    "address": " 7423 US Highway 301 S  Riverview, FL 33578",
    "location": "Bay"
  },
  {
    "name": "Francis J Riva Jr",
    "description": "Advertising Agencies",
    "phone": "(813) 661-5090",
    "address": " 3911 Saddle Ridge St  Valrico, FL 33596",
    "location": "Bay"
  },
  {
    "name": "Raoust & Partners",
    "description": "Advertising Agencies",
    "phone": "(813) 661-5900",
    "address": " 3111 Bent Creek Dr  Valrico, FL 33596",
    "location": "Bay"
  },
  {
    "name": "Federation For Natural Resource Conservation",
    "description": "Advertising Agencies",
    "phone": "(813) 654-4636",
    "address": " 1706 S Kings Ave  Brandon, FL 33511",
    "location": "Bay"
  },
  {
    "name": "A Game Consulting Intl",
    "description": "Advertising Agencies",
    "phone": "(813) 657-3719",
    "address": " 3920 Valrico Grove Dr  Valrico, FL 33594",
    "location": "Bay"
  },
  {
    "name": "Top Charter Fishing Network, Inc.",
    "description": "Advertising Agencies",
    "phone": "(949) 292-8747",
    "address": " 1045 Apollo Beach Blvd  Apollo Beach, FL 33572",
    "location": "Bay"
  },
  {
    "name": "Phoenix Advertising Graphics",
    "description": "Advertising Agencies",
    "phone": "(813) 642-0002",
    "address": " 6101 Adamsville Rd  Gibsonton, FL 33534",
    "location": "Bay"
  },
  {
    "name": "OptiPro SEO",
    "description": "Advertising Agencies",
    "phone": "(813) 317-6521",
    "address": " 7307 Guilford Pine Ln  Apollo Beach, FL 33572",
    "location": "Bay"
  },
  {
    "name": "Superbolt Studios",
    "description": "Advertising Agencies",
    "phone": "(813) 203-4624",
    "address": " 9648 US Hwy 301 S. #217  Riverview, FL 33569",
    "location": "Bay"
  },
  {
    "name": "Emu Web Marketing",
    "description": "Advertising Agencies",
    "phone": "(813) 402-0217",
    "address": " 2929 Minuteman Ln  Brandon, FL 33511",
    "location": "Bay"
  },
  {
    "name": "Merchantside",
    "description": "Advertising Agencies",
    "phone": "(813) 602-1308",
    "address": " 650 E Bloomingdale Ave  Brandon, FL 33511",
    "location": "Bay"
  },
  {
    "name": "Distinctive Impressions Advertising & Promotions",
    "description": "Advertising Agencies",
    "phone": "(813) 672-2573",
    "address": " 11705 Boyette Rd # 414  Riverview, FL 33569",
    "location": "Bay"
  },
  {
    "name": "E&A Lounge Promotions",
    "description": "Advertising Agencies",
    "phone": "(863) 529-1120",
    "address": " 2412 Cedarcrest Pl  Valrico, FL 33596",
    "location": "Bay"
  },
  {
    "name": "TheBrandonDirectory.Com",
    "description": "Advertising Agencies",
    "phone": "(202) 738-1960",
    "address": " 905 Tuscanny St  Brandon, FL 33511",
    "location": "Bay"
  },
  {
    "name": "Russ Russ Productions",
    "description": "Advertising Agencies",
    "phone": "(813) 661-5736",
    "address": " 2104 Golf Manor Blvd  Valrico, FL 33596",
    "location": "Bay"
  },
  {
    "name": "Horse N Tack",
    "description": "Advertising Agencies",
    "phone": "(813) 685-9663",
    "address": " 7820 Lithia Pinecrest Rd  Lithia, FL 33547",
    "location": "Bay"
  },
  {
    "name": "Rocken Graphics",
    "description": "Advertising Agencies",
    "phone": "(813) 672-2189",
    "address": " 6915 Riverview Dr  Riverview, FL 33578",
    "location": "Bay"
  },
  {
    "name": "Postal Shop",
    "description": "Mail & Shipping Services",
    "phone": "(813) 661-5668",
    "address": " 5668 Fishhawk Crossing Blvd  Lithia, FL 33547",
    "location": "Bay"
  },
  {
    "name": "Lawnline Marketing",
    "description": "Internet Marketing & Advertising",
    "phone": "(813) 944-3400",
    "address": " 235 Apollo Beach Blvd # 128  Apollo Beach, FL 33572",
    "location": "Bay"
  },
  {
    "name": "Sign-stine Signs & Wrap Graphics",
    "description": "Searchlights & Floodlights",
    "phone": "(813) 626-7446",
    "address": " PO Box 964  Valrico, FL 33595",
    "location": "Bay"
  },
  {
    "name": "Graphesis Marketing & Design",
    "description": "Internet Marketing & Advertising",
    "phone": "(813) 468-4607",
    "address": " 2717 Briarpatch Dr  Valrico, FL 33596",
    "location": "Bay"
  },
  {
    "name": "Custom Wallart",
    "description": "Signs",
    "phone": "(813) 689-5400",
    "address": " 3113 Lithia Pinecrest Rd  Valrico, FL 33596",
    "location": "Bay"
  },
  {
    "name": "Market Area Reports",
    "description": "Direct Mail Advertising",
    "phone": "(813) 773-5671",
    "address": " 5315 Twin Creeks Dr  Valrico, FL 33596",
    "location": "Bay"
  },
  {
    "name": "Wolf Bot Ai",
    "description": "Internet Marketing & Advertising",
    "phone": "(855) 965-3268",
    "address": " 4846 Sun City Center Blvd  Sun City Center, FL 33573",
    "location": "Bay"
  },
  {
    "name": "Apotheca",
    "description": "Internet Marketing & Advertising",
    "phone": "(440) 701-6665",
    "address": " 16440 Bridgewalk Dr  Lithia, FL 33547",
    "location": "Bay"
  },
  {
    "name": "Tampa Bay Interactive",
    "description": "Internet Marketing & Advertising",
    "phone": "(813) 451-3681",
    "address": " Po Box 121  Lithia, FL 33547",
    "location": "Bay"
  },
  {
    "name": "Mackey Productions, LLC",
    "description": "Internet Marketing & Advertising",
    "phone": "(813) 699-0843",
    "address": " 5409 Lindburg St  Riverview, FL 33578",
    "location": "Bay"
  },
  {
    "name": "Mace Multimedia",
    "description": "Internet Marketing & Advertising",
    "phone": "(813) 704-0460",
    "address": " 10312 Bloomingdale Ave Ste 108-380  Riverview, FL 33578",
    "location": "Bay"
  },
  {
    "name": "Creative Web Actions",
    "description": "Web Site Design & Services",
    "phone": "(813) 856-3312",
    "address": " PO Box 746  Valrico, FL 33595",
    "location": "Bay"
  },
  {
    "name": "Scan Corp",
    "description": "Internet Marketing & Advertising",
    "phone": "(813) 653-2877",
    "address": " 910 Lithia Pinecrest Rd  Brandon, FL 33511",
    "location": "Bay"
  },
  {
    "name": "Quality Signs Tampa",
    "description": "Signs",
    "phone": "(813) 689-8671",
    "address": " 10312 Bloomingdale Ave  Riverview, FL 33578",
    "location": "Bay"
  },
  {
    "name": "Donnaspromoscom",
    "description": "Internet Marketing & Advertising",
    "phone": "(205) 980-6400",
    "address": " 9616 Birnamwood St  Riverview, FL 33569",
    "location": "Bay"
  },
  {
    "name": "Signs Now",
    "description": "Signs",
    "phone": "(813) 404-5267",
    "address": " 2012 Green Juniper Ln  Brandon, FL 33511",
    "location": "Bay"
  },
  {
    "name": "ADM2 Exhibits & Displays",
    "description": "Directory & Guide Advertising",
    "phone": "(844) 283-8582",
    "address": " 5690 W Crenshaw St  Tampa, FL 33634",
    "location": "Bay"
  },
  {
    "name": "Beth Wexler",
    "description": "Computer & Equipment Dealers",
    "phone": "(813) 435-9146",
    "address": " 7211 N Dale Mabry Hwy Ste 104  Tampa, FL 33614",
    "location": "Bay"
  },
  {
    "name": "Tampa Bay Times",
    "description": "Newspapers",
    "phone": "(656) 201-8700",
    "address": " 490 1st Ave S  St Petersburg, FL 33701",
    "location": "Bay"
  },
  {
    "name": "Advertizing Air Force",
    "description": "Advertising-Aerial",
    "phone": "(727) 823-0240",
    "address": " 341 8th Ave SE  Saint Petersburg, FL 33701",
    "location": "Bay"
  },
  {
    "name": "Directnet Advertisingnet Inc",
    "description": "Advertising Agencies",
    "phone": "(727) 567-6630",
    "address": " 9400 4th St N  Saint Petersburg, FL 33702",
    "location": "Bay"
  },
  {
    "name": "Emerald Coast Striping",
    "description": "Parking Lot Maintenance & Marking",
    "phone": "(813) 355-4974",
    "address": " 4826 Airport Rd  Zephyrhills, FL 33542",
    "location": "Bay"
  },
  {
    "name": "Owens Electric",
    "description": "Professional Engineers",
    "phone": "(941) 210-0205",
    "address": " 2242 Industrial Blvd Fl 34234  Sarasota, FL 34234",
    "location": "Bay"
  },
  {
    "name": "Interprint Web Printing",
    "description": "Catalog Designers & Compilers",
    "phone": "(727) 477-0424",
    "address": " 12350 US Highway 19 N  Clearwater, FL 33764",
    "location": "Bay"
  },
  {
    "name": "2SF Advertizing & Design",
    "description": "Graphic Designers",
    "phone": "(813) 416-0882",
    "address": " 4204 N Riverside Dr  Tampa, FL 33603",
    "location": "Bay"
  },
  {
    "name": "Signs Marketing & Advertisi",
    "description": "Signs",
    "phone": "(941) 727-2901",
    "address": " 5421 15th St E  Bradenton, FL 34203",
    "location": "Bay"
  }
]
