[
  {
    "name": "Rustic Shoppe",
    "description": "Signs",
    "phone": "(386) 249-9910",
    "address": " 27632 79th Rd  Branford, FL 32008",
    "location": "Bradford"
  },
  {
    "name": "Rise Above Seo",
    "description": "Advertising Agencies",
    "phone": "(800) 625-0012",
    "address": " 291 SW Fantasy Gln  Lake City, FL 32024",
    "location": "Bradford"
  },
  {
    "name": "Signco",
    "description": "Signs",
    "phone": "(386) 755-4704",
    "address": " 162 SW Spencer Ct  Lake City, FL 32024",
    "location": "Bradford"
  },
  {
    "name": "Medal Marketing",
    "description": "Internet Marketing & Advertising",
    "phone": "(386) 220-8929",
    "address": " 380 SW Twain Rd  Mayo, FL 32066",
    "location": "Bradford"
  },
  {
    "name": "H.D RURAL APPLIANCES SERVICE",
    "description": "Internet Marketing & Advertising",
    "phone": "(386) 365-7164",
    "address": " 13818 29th Rd  Lake City, FL 32024",
    "location": "Bradford"
  },
  {
    "name": "Speedy Signs",
    "description": "Signs",
    "phone": "(386) 755-2006",
    "address": " 494 SW Blaylock Ct  Lake City, FL 32024",
    "location": "Bradford"
  },
  {
    "name": "SpeedySigns.com",
    "description": "Paging & Signaling Equipment",
    "phone": "(904) 239-3661",
    "address": " 162 SW Spencer Ct  Lake City, FL 32024",
    "location": "Bradford"
  },
  {
    "name": "Do It Yourself Lettering Inc",
    "description": "Sign Lettering",
    "phone": "(386) 466-0100",
    "address": " 215 SW Windswept Gln  Lake City, FL 32024",
    "location": "Bradford"
  },
  {
    "name": "All Kinds of Design",
    "description": "Paint",
    "phone": "(386) 344-4997",
    "address": " 197 SW Joyful Loop  Lake City, FL 32024",
    "location": "Bradford"
  },
  {
    "name": "Flag signs",
    "description": "Signs",
    "phone": "(386) 438-5911",
    "address": " 513 SW Deputy J Davis Ln  Lake City, FL 32024",
    "location": "Bradford"
  },
  {
    "name": "Action Signs And Graphics",
    "description": "Steel Processing",
    "phone": "(386) 360-3028",
    "address": " 4180 S US Hwy 441  Lake City, FL 32025",
    "location": "Bradford"
  },
  {
    "name": "Charles Custom Memorials",
    "description": "Cemetery Equipment & Supplies",
    "phone": "(386) 487-2510",
    "address": " 561 NW Hilton Ave  Lake City, FL 32055",
    "location": "Bradford"
  },
  {
    "name": "Linton, Caleb",
    "description": "Advertising Agencies",
    "phone": "(386) 292-6882",
    "address": " 144 SW Waterford Ct  Lake City, FL 32025",
    "location": "Bradford"
  },
  {
    "name": "Image of July Morning Co",
    "description": "Advertising Agencies",
    "phone": "(386) 752-8088",
    "address": " 231 NW Burk Ave Ste 101  Lake City, FL 32055",
    "location": "Bradford"
  },
  {
    "name": "Hunter Printing Co",
    "description": "Stationery Stores",
    "phone": "(386) 752-2707",
    "address": " 1330 SW Main Blvd  Lake City, FL 32025",
    "location": "Bradford"
  },
  {
    "name": "Performance Tinting",
    "description": "Window Tinting",
    "phone": "(386) 758-8468",
    "address": " 112 E Duval St  Lake City, FL 32055",
    "location": "Bradford"
  },
  {
    "name": "C G T",
    "description": "Window Tinting",
    "phone": "(386) 758-7553",
    "address": " 643 W Duval St  Lake City, FL 32055",
    "location": "Bradford"
  },
  {
    "name": "Fla-Ga Signs",
    "description": "Signs",
    "phone": "(386) 438-5911",
    "address": " 356 NW Turner Ave  Lake City, FL 32055",
    "location": "Bradford"
  },
  {
    "name": "Capital Signs",
    "description": "Signs",
    "phone": "(386) 487-6482",
    "address": " 366 SW Knox St  Lake City, FL 32025",
    "location": "Bradford"
  },
  {
    "name": "Cady Promos, Inc.",
    "description": "T-Shirts",
    "phone": "(800) 234-5561",
    "address": " 2140 SW Main Blvd  Lake City, FL 32025",
    "location": "Bradford"
  },
  {
    "name": "Global Sign Images",
    "description": "Signs",
    "phone": "(386) 438-5717",
    "address": " 484 SW Commerce Dr Ste 130  Lake City, FL 32025",
    "location": "Bradford"
  },
  {
    "name": "Nation Signs",
    "description": "Signs",
    "phone": "(386) 752-4660",
    "address": " 471 SW State Road 247  Lake City, FL 32025",
    "location": "Bradford"
  },
  {
    "name": "Brushworks",
    "description": "Signs",
    "phone": "(386) 752-6722",
    "address": " 13324 S Us Highway 441  Lake City, FL 32025",
    "location": "Bradford"
  },
  {
    "name": "G & G Mailing Solutions",
    "description": "Direct Mail Advertising",
    "phone": "(386) 752-9468",
    "address": " 1192 SE State Road 238  Lake City, FL 32025",
    "location": "Bradford"
  },
  {
    "name": "Gino's-Gelato.com",
    "description": "Internet Marketing & Advertising",
    "phone": "(352) 275-4051",
    "address": " 20604 NW 250th St  High Springs, FL 32643",
    "location": "Bradford"
  },
  {
    "name": "Signcraft Brothers Inc",
    "description": "Signs",
    "phone": "(386) 755-4754",
    "address": " 590 SW Arlington Blvd  Lake City, FL 32025",
    "location": "Bradford"
  }
]
