[
  {
    "name": "Copeland, Jerry P",
    "description": "Advertising Agencies",
    "phone": "(321) 267-3972",
    "address": " 1514 Country Club Dr  Titusville, FL 32780",
    "location": "Brevard"
  },
  {
    "name": "Ad Astra Technology Inc",
    "description": "Advertising Agencies",
    "phone": "(321) 222-7872",
    "address": " 308 Cheney Hwy  Titusville, FL 32780",
    "location": "Brevard"
  },
  {
    "name": "Caimen Group Inc",
    "description": "Advertising Agencies",
    "phone": "(321) 225-8922",
    "address": " 350 N Washington Ave Ste L  Titusville, FL 32796",
    "location": "Brevard"
  },
  {
    "name": "Wolf Jessee Paquin Communications",
    "description": "Advertising Agencies",
    "phone": "(321) 633-8281",
    "address": " 1970 Michigan Ave  Cocoa, FL 32922",
    "location": "Brevard"
  },
  {
    "name": "Near My BNB",
    "description": "Advertising Agencies",
    "phone": "(321) 243-6589",
    "address": " 120 Venetian Way Ste 21  Merritt Island, FL 32953",
    "location": "Brevard"
  },
  {
    "name": "Digital Spark Marketing",
    "description": "Advertising Agencies",
    "phone": "(607) 725-8240",
    "address": " 213 Sykes Point Ln  Merritt Island, FL 32953",
    "location": "Brevard"
  },
  {
    "name": "Jack the SEO Guy",
    "description": "Advertising Agencies",
    "phone": "(321) 355-2250",
    "address": " 4416 Sherwood Forest Dr  Titusville, FL 32796",
    "location": "Brevard"
  },
  {
    "name": "Wolf Enterprises",
    "description": "Advertising Agencies",
    "phone": "(321) 449-1211",
    "address": " 2060 Leeward Ln  Merritt Island, FL 32953",
    "location": "Brevard"
  },
  {
    "name": "A Sign Co & Embroidery",
    "description": "Signs",
    "phone": "(321) 264-0077",
    "address": " 2400 S Hopkins Ave Ste L  Titusville, FL 32780",
    "location": "Brevard"
  },
  {
    "name": "Giant Advertising Balloons",
    "description": "Balloons-Advertising & Signage",
    "phone": "(321) 264-0610",
    "address": " 1691 S Washington Ave  Titusville, FL 32780",
    "location": "Brevard"
  },
  {
    "name": "Sign Language - Titusville Sign Company",
    "description": "Graphic Designers",
    "phone": "(321) 383-8649",
    "address": " 224 Country Club Dr  Titusville, FL 32780",
    "location": "Brevard"
  },
  {
    "name": "Prc Bulk Mail",
    "description": "Mail & Shipping Services",
    "phone": "(321) 268-8837",
    "address": " 118 Country Club Dr  Titusville, FL 32780",
    "location": "Brevard"
  },
  {
    "name": "Signspot",
    "description": "Signs",
    "phone": "(321) 383-0077",
    "address": " 4424 S Hopkins Ave  Titusville, FL 32780",
    "location": "Brevard"
  },
  {
    "name": "Dynamic Seven Inc",
    "description": "Signs",
    "phone": "(321) 383-6058",
    "address": " 3700 S Hopkins Ave  Titusville, FL 32780",
    "location": "Brevard"
  },
  {
    "name": "Postage Savers",
    "description": "Direct Mail Advertising",
    "phone": "(321) 383-8224",
    "address": " 11 Main St  Titusville, FL 32796",
    "location": "Brevard"
  },
  {
    "name": "Alive Advertising",
    "description": "Advertising Specialties",
    "phone": "(321) 613-8650",
    "address": " 1341 Cheney Hwy  Titusville, FL 32780",
    "location": "Brevard"
  },
  {
    "name": "The Print Alien",
    "description": "Internet Marketing & Advertising",
    "phone": "(321) 837-9569",
    "address": " 224 Cheney Hwy  Titusville, FL 32780",
    "location": "Brevard"
  },
  {
    "name": "Prc Bulkmail",
    "description": "Direct Mail Advertising",
    "phone": "(321) 268-8837",
    "address": " 4217 S Hopkins Ave  Titusville, FL 32780",
    "location": "Brevard"
  },
  {
    "name": "Graphic Press",
    "description": "Printing Services",
    "phone": "(321) 267-1111",
    "address": " 2214 Garden St Ste B  Titusville, FL 32796",
    "location": "Brevard"
  },
  {
    "name": "M 2 Designs & Signs",
    "description": "Signs",
    "phone": "(321) 567-3566",
    "address": " 2459 Cheney Hwy Ste 99  Titusville, FL 32780",
    "location": "Brevard"
  },
  {
    "name": "Bluetail Design Studios",
    "description": "Graphic Designers",
    "phone": "(321) 269-7108",
    "address": " 2459 Cheney Hwy  Titusville, FL 32780",
    "location": "Brevard"
  },
  {
    "name": "Reuben Marketing Services",
    "description": "Internet Marketing & Advertising",
    "phone": "(321) 593-0346",
    "address": " 4990 Sharlene Dr  Titusville, FL 32780",
    "location": "Brevard"
  },
  {
    "name": "GraphicXperts",
    "description": "Internet Marketing & Advertising",
    "phone": "(321) 328-0755",
    "address": " 215 N Hilltop Dr  Titusville, FL 32796",
    "location": "Brevard"
  },
  {
    "name": "Signs Alive",
    "description": "Signs",
    "phone": "(321) 431-7443",
    "address": " 3305 Daryl Ter  Titusville, FL 32796",
    "location": "Brevard"
  },
  {
    "name": "Direct Ads",
    "description": "Direct Mail Advertising",
    "phone": "(321) 268-3039",
    "address": " 520 Twin Lakes Dr  Titusville, FL 32780",
    "location": "Brevard"
  },
  {
    "name": "Melvin Signs South",
    "description": "Signs",
    "phone": "(321) 327-3214",
    "address": " 989 Macco Rd  Cocoa, FL 32927",
    "location": "Brevard"
  },
  {
    "name": "Advanced Graphics, Inc.",
    "description": "Signs",
    "phone": "(800) 927-8247",
    "address": " 342 Williams Point Blvd  Cocoa, FL 32927",
    "location": "Brevard"
  },
  {
    "name": "Outdoor Images Inc",
    "description": "Signs",
    "phone": "(321) 710-6166",
    "address": " 3175 Grissom Parkway  Cocoa, FL 32926",
    "location": "Brevard"
  },
  {
    "name": "Safari Media Direct",
    "description": "Advertising Specialties",
    "phone": "(321) 877-3863",
    "address": " 3670 N Highway 1  Cocoa, FL 32926",
    "location": "Brevard"
  },
  {
    "name": "Savings Safari",
    "description": "Direct Mail Advertising",
    "phone": "(321) 633-3060",
    "address": " 3670 N Highway 1  Cocoa, FL 32926",
    "location": "Brevard"
  },
  {
    "name": "Direct Graphix",
    "description": "Direct Mail Advertising",
    "phone": "(321) 633-3060",
    "address": " 3670 N Highway 1  Cocoa, FL 32926",
    "location": "Brevard"
  },
  {
    "name": "Onsite123.com",
    "description": "Internet Marketing & Advertising",
    "phone": "(321) 392-0697",
    "address": " 2552 Meadow Ln  Cocoa, FL 32926",
    "location": "Brevard"
  },
  {
    "name": "Accuprint Printing & Graphics",
    "description": "Signs",
    "phone": "(321) 428-0084",
    "address": " 2275 N Courtenay Pkwy Ste 3  Merritt Island, FL 32953",
    "location": "Brevard"
  }
]
