[
  {
    "name": "Interactive Resources",
    "description": "Advertising Agencies",
    "phone": "(407) 830-4068",
    "address": " 605 Tradewinds Dr  Deltona, FL 32738",
    "location": "Calhoun"
  },
  {
    "name": "L J Productions",
    "description": "Advertising Agencies",
    "phone": "(407) 443-1684",
    "address": " 255 Rosedale Dr  Deltona, FL 32738",
    "location": "Calhoun"
  },
  {
    "name": "Word of Mouth",
    "description": "Advertising Agencies",
    "phone": "(386) 532-3295",
    "address": " 1090 S Cooper Dr  Deltona, FL 32725",
    "location": "Calhoun"
  },
  {
    "name": "Gill Associates",
    "description": "Advertising Agencies",
    "phone": "(386) 574-2781",
    "address": " 469 Glen Haven Dr  Deltona, FL 32738",
    "location": "Calhoun"
  },
  {
    "name": "Dari",
    "description": "Advertising Agencies",
    "phone": "(407) 330-3167",
    "address": " PO Box 4363  Deltona, FL 32725",
    "location": "Calhoun"
  },
  {
    "name": "i4 Advertising Agency LLC",
    "description": "Advertising Agencies",
    "phone": "(407) 416-1515",
    "address": " 610 Deltona Blvd, Ste D  Deltona, FL 32725",
    "location": "Calhoun"
  },
  {
    "name": "Inplas Performance Solutions",
    "description": "Advertising Agencies",
    "phone": "(814) 460-2605",
    "address": " 4 Pine Meadow Ct  Debary, FL 32713",
    "location": "Calhoun"
  },
  {
    "name": "Robert Declara",
    "description": "Advertising Agencies",
    "phone": "(386) 668-1690",
    "address": " 203 Buena Vista St  Debary, FL 32713",
    "location": "Calhoun"
  },
  {
    "name": "J D Hill Inc",
    "description": "Advertising Agencies",
    "phone": "(386) 775-2398",
    "address": " 157 Brassington Dr  Debary, FL 32713",
    "location": "Calhoun"
  },
  {
    "name": "NCM Media Networks-Debary",
    "description": "Advertising Agencies",
    "phone": "(386) 668-6670",
    "address": " 50 Forest Eagle Ct  Debary, FL 32713",
    "location": "Calhoun"
  },
  {
    "name": "Floor Rivers Media",
    "description": "Advertising Agencies",
    "phone": "(407) 733-6984",
    "address": " 2020 Washington Ave  Sanford, FL 32771",
    "location": "Calhoun"
  },
  {
    "name": "Fenestra",
    "description": "Advertising Agencies",
    "phone": "(407) 436-2825",
    "address": " 134 Wilson Bay Ct  Sanford, FL 32771",
    "location": "Calhoun"
  },
  {
    "name": "Delta Connection Academy Inc",
    "description": "Advertising Agencies",
    "phone": "(407) 430-4100",
    "address": " 2700 Flightline Ave  Sanford, FL 32773",
    "location": "Calhoun"
  },
  {
    "name": "Maritime Drive",
    "description": "Advertising Agencies",
    "phone": "(407) 862-7363",
    "address": " 130 Maritime Dr  Sanford, FL 32771",
    "location": "Calhoun"
  },
  {
    "name": "Backseat Advertising",
    "description": "Advertising Agencies",
    "phone": "(407) 915-7006",
    "address": " 485 Specialty Pt  Sanford, FL 32771",
    "location": "Calhoun"
  },
  {
    "name": "AdWise Creative",
    "description": "Advertising Agencies",
    "phone": "(407) 734-3638",
    "address": " 1740 Cypress Ave  Orange City, FL 32763",
    "location": "Calhoun"
  },
  {
    "name": "Business Equipment Sales & Service",
    "description": "Advertising Agencies",
    "phone": "(386) 775-4124",
    "address": " 555 Werley Trl  Orange City, FL 32763",
    "location": "Calhoun"
  },
  {
    "name": "Interprecision Technology Inc",
    "description": "Advertising Agencies",
    "phone": "(407) 322-6328",
    "address": " 837 Pickfair Ter  Lake Mary, FL 32746",
    "location": "Calhoun"
  },
  {
    "name": "Evok Advertising",
    "description": "Advertising Agencies",
    "phone": "(407) 302-4416",
    "address": " 152 N 4th St  Lake Mary, FL 32746",
    "location": "Calhoun"
  },
  {
    "name": "Pennysaver",
    "description": "Advertising Agencies",
    "phone": "(386) 736-2880",
    "address": " 245 S Woodland Blvd  Deland, FL 32720",
    "location": "Calhoun"
  },
  {
    "name": "Adeo Media Group",
    "description": "Advertising Agencies",
    "phone": "(407) 833-9200",
    "address": " 737 Stirling Center Pl  Lake Mary, FL 32746",
    "location": "Calhoun"
  },
  {
    "name": "Mash & Lauter Marketing",
    "description": "Advertising Agencies",
    "phone": "(407) 205-8220",
    "address": " 1540 International Pkwy Ste 2000  Lake Mary, FL 32746",
    "location": "Calhoun"
  },
  {
    "name": "Checkout Locals",
    "description": "Advertising Agencies",
    "phone": "(407) 777-4506",
    "address": " 1540 International Pkwy Suite 2000  Lake Mary, FL 32746",
    "location": "Calhoun"
  },
  {
    "name": "Noor Inc",
    "description": "Advertising Agencies",
    "phone": "(407) 321-2313",
    "address": " 298 Main Rd  Lake Mary, FL 32746",
    "location": "Calhoun"
  },
  {
    "name": "Gcs Enterprise Inc",
    "description": "Advertising Agencies",
    "phone": "(407) 562-1859",
    "address": " 801 International Pkwy  Lake Mary, FL 32746",
    "location": "Calhoun"
  },
  {
    "name": "Fast Lane Promotions",
    "description": "Advertising Agencies",
    "phone": "(407) 328-7653",
    "address": " 270 Waymont Ct Ste 120  Lake Mary, FL 32746",
    "location": "Calhoun"
  },
  {
    "name": "Proforma A&G Marketing Group",
    "description": "Advertising Agencies",
    "phone": "(386) 626-9200",
    "address": " 255 Primera Blvd Ste 160  Lake Mary, FL 32746",
    "location": "Calhoun"
  },
  {
    "name": "Advertising Specialty Institute",
    "description": "Advertising Agencies",
    "phone": "(407) 430-3698",
    "address": " 4300 W Lake Mary Blvd  Lake Mary, FL 32746",
    "location": "Calhoun"
  },
  {
    "name": "Stephenson and Associates",
    "description": "Advertising Agencies",
    "phone": "(407) 833-3728",
    "address": " 250 International Pkwy Ste 108  Lake Mary, FL 32746",
    "location": "Calhoun"
  },
  {
    "name": "Halldale Media Inc",
    "description": "Advertising Agencies",
    "phone": "(407) 322-5605",
    "address": " 115 Timberlachen Cir  Lake Mary, FL 32746",
    "location": "Calhoun"
  },
  {
    "name": "Precisionplay Media",
    "description": "Advertising Agencies",
    "phone": "(407) 805-8800",
    "address": " 160 International Pkwy  Lake Mary, FL 32746",
    "location": "Calhoun"
  },
  {
    "name": "Clk Resources Inc",
    "description": "Advertising Agencies",
    "phone": "(407) 321-4833",
    "address": " 518 Whittingham Pl  Lake Mary, FL 32746",
    "location": "Calhoun"
  },
  {
    "name": "Asche Corp",
    "description": "Advertising Agencies",
    "phone": "(321) 200-0770",
    "address": " 1325 S International Pkwy  Lake Mary, FL 32746",
    "location": "Calhoun"
  },
  {
    "name": "Intersect Media Solutions",
    "description": "Advertising Agencies",
    "phone": "(866) 404-5913",
    "address": " 1025 Greenwood Blvd  Lake Mary, FL 32746",
    "location": "Calhoun"
  },
  {
    "name": "Greenwood Ventures",
    "description": "Advertising Agencies",
    "phone": "(407) 585-8800",
    "address": " 1025 Greenwood Blvd  Lake Mary, FL 32746",
    "location": "Calhoun"
  },
  {
    "name": "Lake Emma Corp Park",
    "description": "Advertising Agencies",
    "phone": "(407) 804-1586",
    "address": " 3200 Lake Emma Rd  Lake Mary, FL 32746",
    "location": "Calhoun"
  },
  {
    "name": "Epic Media",
    "description": "Advertising Agencies",
    "phone": "(407) 807-7287",
    "address": " 8718 Shimmering Pine Pl  Sanford, FL 32771",
    "location": "Calhoun"
  },
  {
    "name": "N2Nsites",
    "description": "Advertising Agencies",
    "phone": "(407) 732-7288",
    "address": " 8674 Crested Eagle Pl  Sanford, FL 32771",
    "location": "Calhoun"
  },
  {
    "name": "Custom Graphic Designs",
    "description": "Advertising Agencies",
    "phone": "(386) 229-3832",
    "address": " 4462 Highway 17  DeLand, FL 32720",
    "location": "Calhoun"
  },
  {
    "name": "A7 Advertising",
    "description": "Advertising Agencies",
    "phone": "(386) 453-1464",
    "address": " 603 Elkhorn Fern Ln  Deland, FL 32720",
    "location": "Calhoun"
  },
  {
    "name": "Websoftware",
    "description": "Advertising Agencies",
    "phone": "(386) 336-4227",
    "address": " 1608 W Minnesota Ave  Deland, FL 32720",
    "location": "Calhoun"
  },
  {
    "name": "Wallob",
    "description": "Advertising Agencies",
    "phone": "(336) 203-7932",
    "address": " 1420 E. Altamonte Drive  Altamonte Springs, FL 32714",
    "location": "Calhoun"
  },
  {
    "name": "Residex Branch 919",
    "description": "Advertising Agencies",
    "phone": "(407) 834-2202",
    "address": " 1620 Timocuan Way  Longwood, FL 32750",
    "location": "Calhoun"
  },
  {
    "name": "EZ Yield Com",
    "description": "Advertising Agencies",
    "phone": "(407) 629-0900",
    "address": " 125 Excelsior Pkwy Ste 101  Winter Springs, FL 32708",
    "location": "Calhoun"
  },
  {
    "name": "78 Madison",
    "description": "Advertising Agencies",
    "phone": "(407) 788-7070",
    "address": " 1401 Town Plaza Ct  Winter Springs, FL 32708",
    "location": "Calhoun"
  },
  {
    "name": "Calico Industries",
    "description": "Advertising Agencies",
    "phone": "(321) 207-7193",
    "address": " 1609 Cherrywood Ln  Longwood, FL 32750",
    "location": "Calhoun"
  },
  {
    "name": "J D A",
    "description": "Advertising Agencies",
    "phone": "(407) 942-0379",
    "address": " 1825 Duffy Ct  Lake Mary, FL 32746",
    "location": "Calhoun"
  },
  {
    "name": "Welcom Consulting Svc",
    "description": "Advertising Agencies",
    "phone": "(407) 696-7896",
    "address": " 673 Venture Ct  Winter Springs, FL 32708",
    "location": "Calhoun"
  },
  {
    "name": "Tru-Sun Media",
    "description": "Advertising Agencies",
    "phone": "(407) 388-1001",
    "address": " 1255 Belle Ave  Winter Springs, FL 32708",
    "location": "Calhoun"
  },
  {
    "name": "Serendipity Medical Management Inc",
    "description": "Advertising Agencies",
    "phone": "(407) 322-3525",
    "address": " 1601 Wildcat Ct  Winter Springs, FL 32708",
    "location": "Calhoun"
  },
  {
    "name": "Cuellar & Sachse",
    "description": "Advertising Agencies",
    "phone": "(407) 647-9292",
    "address": " 149 Shadow Trl  Longwood, FL 32750",
    "location": "Calhoun"
  },
  {
    "name": "Via Cindy",
    "description": "Advertising Agencies",
    "phone": "(407) 695-0183",
    "address": " 102 W Bahama Rd  Winter Springs, FL 32708",
    "location": "Calhoun"
  },
  {
    "name": "Solutions Etc Inc",
    "description": "Advertising Agencies",
    "phone": "(407) 366-4170",
    "address": " 1624 White Dove Dr  Winter Springs, FL 32708",
    "location": "Calhoun"
  },
  {
    "name": "Gilbert Manjura Marketing and Advertising",
    "description": "Advertising Agencies",
    "phone": "(407) 261-5739",
    "address": " 346 Freeman St  Longwood, FL 32750",
    "location": "Calhoun"
  },
  {
    "name": "Aedieno",
    "description": "Advertising Agencies",
    "phone": "(407) 265-8001",
    "address": " 250 W Church Ave Ste 200  Longwood, FL 32750",
    "location": "Calhoun"
  },
  {
    "name": "Cobia Marketing - Digital Marketing For Dentists",
    "description": "Advertising Agencies",
    "phone": "(407) 890-9966",
    "address": " 269 Aulin Ave Ste 1005  Oviedo, FL 32765",
    "location": "Calhoun"
  },
  {
    "name": "Neo Reach Inc",
    "description": "Advertising Agencies",
    "phone": "(321) 316-4999",
    "address": " 250 S Ronald Reagan Blvd  Longwood, FL 32750",
    "location": "Calhoun"
  },
  {
    "name": "Trombo's Printery Inc",
    "description": "Advertising Agencies",
    "phone": "(407) 332-8283",
    "address": " 705 W State Road 434  Longwood, FL 32750",
    "location": "Calhoun"
  },
  {
    "name": "DeFalco Advertising",
    "description": "Advertising Agencies",
    "phone": "(407) 551-0303",
    "address": " 1441 S Grant St  Longwood, FL 32750",
    "location": "Calhoun"
  },
  {
    "name": "Abx Enterprises",
    "description": "Advertising Agencies",
    "phone": "(407) 960-2510",
    "address": " 765 W State Road 434  Longwood, FL 32750",
    "location": "Calhoun"
  },
  {
    "name": "Maurya Software Consulting Inc",
    "description": "Advertising Agencies",
    "phone": "(407) 359-3529",
    "address": " 802 Kingsbridge Dr  Oviedo, FL 32765",
    "location": "Calhoun"
  },
  {
    "name": "Chassis-Craft",
    "description": "Advertising Agencies",
    "phone": "(407) 782-5799",
    "address": " 1120 N Black Acre Ct  Winter Springs, FL 32708",
    "location": "Calhoun"
  },
  {
    "name": "Rushing & Associates Design",
    "description": "Advertising Agencies",
    "phone": "(407) 679-4876",
    "address": " 4900 E Lake Dr  Winter Springs, FL 32708",
    "location": "Calhoun"
  },
  {
    "name": "Prime Media Now",
    "description": "Advertising Agencies",
    "phone": "(407) 331-7128",
    "address": " 1225 Bennett Dr  Longwood, FL 32750",
    "location": "Calhoun"
  },
  {
    "name": "Americomics",
    "description": "Advertising Agencies",
    "phone": "(407) 767-0199",
    "address": " 1225 Bennett Dr Unit 111  Longwood, FL 32750",
    "location": "Calhoun"
  },
  {
    "name": "Visualtize",
    "description": "Advertising Agencies",
    "phone": "(321) 972-3191",
    "address": " 329 Ringwood Cir  Winter Springs, FL 32708",
    "location": "Calhoun"
  },
  {
    "name": "Fax IT Advertising",
    "description": "Advertising Agencies",
    "phone": "(407) 339-4555",
    "address": " 1499 Robert St  Longwood, FL 32750",
    "location": "Calhoun"
  },
  {
    "name": "Rho Mar Marketing Inc",
    "description": "Advertising Agencies",
    "phone": "(407) 332-0926",
    "address": " PO Box 181504  Casselberry, FL 32718",
    "location": "Calhoun"
  },
  {
    "name": "Fresh Communications",
    "description": "Advertising Agencies",
    "phone": "(407) 998-5123",
    "address": " 1855 W State Road 434  Longwood, FL 32750",
    "location": "Calhoun"
  },
  {
    "name": "Mall Media Services, Inc.",
    "description": "Advertising Agencies",
    "phone": "(407) 443-2369",
    "address": " 412 E Citrus St  Altamonte Springs, FL 32701",
    "location": "Calhoun"
  },
  {
    "name": "Capital Advantage",
    "description": "Advertising Agencies",
    "phone": "(407) 261-9002",
    "address": " 498 Palm Springs Dr  Altamonte Springs, FL 32701",
    "location": "Calhoun"
  },
  {
    "name": "Righter Communications",
    "description": "Advertising Agencies",
    "phone": "(407) 261-9001",
    "address": " 498 Palm Springs Dr  Altamonte Springs, FL 32701",
    "location": "Calhoun"
  },
  {
    "name": "Push Button Productions",
    "description": "Advertising Agencies",
    "phone": "(888) 494-7874",
    "address": " 815 Orienta Ave Ste 1060  Altamonte Springs, FL 32701",
    "location": "Calhoun"
  },
  {
    "name": "BCV Deals",
    "description": "Advertising Agencies",
    "phone": "(407) 571-2980",
    "address": " 260 Maitland Ave  Altamonte Springs, FL 32701",
    "location": "Calhoun"
  },
  {
    "name": "Newton's Force",
    "description": "Advertising Agencies",
    "phone": "(407) 682-7896",
    "address": " 478 E Altamonte Dr  Altamonte Springs, FL 32701",
    "location": "Calhoun"
  },
  {
    "name": "Medtech Momentum",
    "description": "Advertising Agencies",
    "phone": "(407) 960-2994",
    "address": " 377 Maitland Ave  Altamonte Springs, FL 32701",
    "location": "Calhoun"
  },
  {
    "name": "Captree Advertising",
    "description": "Advertising Agencies",
    "phone": "(386) 871-2080",
    "address": " 555 Maribella Ct  New Smyrna Beach, FL 32168",
    "location": "Calhoun"
  },
  {
    "name": "Delisle & Associates",
    "description": "Advertising Agencies",
    "phone": "(407) 331-7705",
    "address": " 711 Ballard St  Altamonte Springs, FL 32701",
    "location": "Calhoun"
  },
  {
    "name": "Chameleon Web/Multimedia Design",
    "description": "Advertising Agencies",
    "phone": "(407) 616-2645",
    "address": " 315 Lakepointe Dr  Altamonte Springs, FL 32701",
    "location": "Calhoun"
  },
  {
    "name": "Yuppify",
    "description": "Advertising Agencies",
    "phone": "(407) 761-6952",
    "address": " 606 Lake Orienta Dr  Altamonte Springs, FL 32701",
    "location": "Calhoun"
  },
  {
    "name": "Community Outreach Involvement Inc.",
    "description": "Advertising Agencies",
    "phone": "(386) 753-5079",
    "address": " 314 Sunnyside Ln  Debary, FL 32713",
    "location": "Calhoun"
  },
  {
    "name": "Office Creations Desktop Publishing & Oc Photo Gifts & Home Decor",
    "description": "Advertising Agencies",
    "phone": "(540) 220-3505",
    "address": " 224 Hammock Oak Cir  Debary, FL 32713",
    "location": "Calhoun"
  },
  {
    "name": "R.T.P Marketing - Rock The Pavement Marketing",
    "description": "Advertising Agencies",
    "phone": "(386) 400-3986",
    "address": " 3072 Courtland Blvd  Deltona, FL 32738",
    "location": "Calhoun"
  },
  {
    "name": "Pro-Tech Printers Inc",
    "description": "Advertising Agencies",
    "phone": "(386) 774-6837",
    "address": " 1060 E Industrial Dr  Orange City, FL 32763",
    "location": "Calhoun"
  },
  {
    "name": "Relentless Media",
    "description": "Advertising Agencies",
    "phone": "(407) 252-3980",
    "address": " 1429 Dolgner Pl  Sanford, FL 32771",
    "location": "Calhoun"
  },
  {
    "name": "Cyber Marketing",
    "description": "Advertising Agencies",
    "phone": "(407) 324-9100",
    "address": " 2380 W 25th St  Sanford, FL 32771",
    "location": "Calhoun"
  },
  {
    "name": "SearchOutsidethebox.com Inc",
    "description": "Advertising Agencies",
    "phone": "(407) 562-6143",
    "address": " 1521 Little Gem Loop  Sanford, FL 32773",
    "location": "Calhoun"
  },
  {
    "name": "Sandara Saints",
    "description": "Advertising Agencies",
    "phone": "(407) 878-1695",
    "address": " 103 Lindsey Way  Sanford, FL 32771",
    "location": "Calhoun"
  },
  {
    "name": "SearchOutsidethebox",
    "description": "Advertising Agencies",
    "phone": "(407) 562-6143",
    "address": " 905 Pine Way  Sanford, FL 32773",
    "location": "Calhoun"
  },
  {
    "name": "Maus Media Group",
    "description": "Advertising Agencies",
    "phone": "(407) 302-5880",
    "address": " 1160 Rinehart Rd  Sanford, FL 32771",
    "location": "Calhoun"
  },
  {
    "name": "Online Tactix, LLC",
    "description": "Advertising Agencies",
    "phone": "(888) 541-4447",
    "address": " 5224 W State Road 46 # 131  Sanford, FL 32771",
    "location": "Calhoun"
  },
  {
    "name": "Out of the Blue Marketing Inc.",
    "description": "Advertising Agencies",
    "phone": "(863) 703-2583",
    "address": " 320 S Woodland Blvd  Deland, FL 32720",
    "location": "Calhoun"
  },
  {
    "name": "On Wax Dup Signs & Print",
    "description": "Advertising Agencies",
    "phone": "(386) 873-2919",
    "address": " 1540 S Spring Garden Ave  Deland, FL 32720",
    "location": "Calhoun"
  },
  {
    "name": "Snapt Inc",
    "description": "Advertising Agencies",
    "phone": "(386) 873-0173",
    "address": " 101 N Woodland Blvd Ste 500  Deland, FL 32720",
    "location": "Calhoun"
  },
  {
    "name": "The Logo Store",
    "description": "Advertising Agencies",
    "phone": "(386) 736-1342",
    "address": " 101 N Woodland Blvd  Deland, FL 32720",
    "location": "Calhoun"
  },
  {
    "name": "Crank Communications",
    "description": "Advertising Agencies",
    "phone": "(407) 830-7312",
    "address": " 1135 Townpark Ave Ste 2125  Lake Mary, FL 32746",
    "location": "Calhoun"
  },
  {
    "name": "Levitation Studio Inc.",
    "description": "Advertising Agencies",
    "phone": "(888) 514-8814",
    "address": " 1540 International Pkwy  Lake Mary, FL 32746",
    "location": "Calhoun"
  },
  {
    "name": "Proforma Nextgen Printing Plus",
    "description": "Advertising Agencies",
    "phone": "(407) 804-9444",
    "address": " 425 Cardinal Oaks Ct  Lake Mary, FL 32746",
    "location": "Calhoun"
  },
  {
    "name": "NG Production Films, Inc.",
    "description": "Advertising Agencies",
    "phone": "(877) 203-2895",
    "address": " 801 International Pkwy Ste 500  Lake Mary, FL 32746",
    "location": "Calhoun"
  },
  {
    "name": "Iceberg Advertising",
    "description": "Advertising Agencies",
    "phone": "(407) 486-8478",
    "address": " 3415 W Lake Mary Blvd  Lake Mary, FL 32746",
    "location": "Calhoun"
  },
  {
    "name": "JLS Automotive Marketing Inc.",
    "description": "Advertising Agencies",
    "phone": "(321) 363-0624",
    "address": " 799 Sherbourne Cir  Lake Mary, FL 32746",
    "location": "Calhoun"
  },
  {
    "name": "Marchand & Company - Marketing Media",
    "description": "Advertising Agencies",
    "phone": "(407) 444-2090",
    "address": " 4300 W Lake Mary Blvd  Lake Mary, FL 32746",
    "location": "Calhoun"
  },
  {
    "name": "Stephenson & Associates",
    "description": "Advertising Agencies",
    "phone": "(407) 833-3728",
    "address": " 255 Primera Blvd Ste 160  Lake Mary, FL 32746",
    "location": "Calhoun"
  },
  {
    "name": "Sun & Fun Media",
    "description": "Advertising Agencies",
    "phone": "(407) 328-0505",
    "address": " 1315 S International Pkwy Ste 1131  Lake Mary, FL 32746",
    "location": "Calhoun"
  },
  {
    "name": "Progressive Communications",
    "description": "Advertising Agencies",
    "phone": "(407) 732-4036",
    "address": " 1001 Sand Pond Rd  Lake Mary, FL 32746",
    "location": "Calhoun"
  },
  {
    "name": "Mr. Checkout Distributors",
    "description": "Advertising Agencies",
    "phone": "(407) 603-6557",
    "address": " 381 S Central Ave  Oviedo, FL 32765",
    "location": "Calhoun"
  },
  {
    "name": "A7 Multimedia",
    "description": "Advertising Agencies",
    "phone": "(386) 453-1464",
    "address": " 603 Elkhorn Fern Ln  DeLand, FL 32720",
    "location": "Calhoun"
  },
  {
    "name": "Pretty Awesome Web Design",
    "description": "Advertising Agencies",
    "phone": "(407) 587-0025",
    "address": " 123 N Boulevard Ct  Deland, FL 32720",
    "location": "Calhoun"
  },
  {
    "name": "Heritage First Capital",
    "description": "Advertising Agencies",
    "phone": "(407) 444-5959",
    "address": " 30 Skyline Dr # 201  Lake Mary, FL 32746",
    "location": "Calhoun"
  },
  {
    "name": "TJM Communications Inc",
    "description": "Advertising Agencies",
    "phone": "(407) 265-1823",
    "address": " 1312 Town Plaza Ct  Winter Springs, FL 32708",
    "location": "Calhoun"
  },
  {
    "name": "Clarity Creative Group",
    "description": "Advertising Agencies",
    "phone": "(407) 233-4464",
    "address": " 925 Florida 434  Winter Springs, FL 32708",
    "location": "Calhoun"
  },
  {
    "name": "Internet Performance Group",
    "description": "Advertising Agencies",
    "phone": "(877) 474-9997",
    "address": " 107 14th Ave  Longwood, FL 32750",
    "location": "Calhoun"
  },
  {
    "name": "Arcane Marketing",
    "description": "Advertising Agencies",
    "phone": "(208) 938-5988",
    "address": " 240 E Palmetto Ave Ste 100  Longwood, FL 32750",
    "location": "Calhoun"
  },
  {
    "name": "Wilcox & Associates, Inc.",
    "description": "Advertising Agencies",
    "phone": "(407) 830-4808",
    "address": " 258 Short Ave  Longwood, FL 32750",
    "location": "Calhoun"
  },
  {
    "name": "Flitehaus Inc",
    "description": "Advertising Agencies",
    "phone": "(407) 971-2244",
    "address": " 3000 Dovera Dr Ste 140  Oviedo, FL 32765",
    "location": "Calhoun"
  },
  {
    "name": "Digital Graphics Plus",
    "description": "Advertising Agencies",
    "phone": "(407) 869-0077",
    "address": " 205 National Pl  Longwood, FL 32750",
    "location": "Calhoun"
  },
  {
    "name": "H B Production Group",
    "description": "Advertising Agencies",
    "phone": "(407) 339-9070",
    "address": " 1225 Bennett Dr Unit 200  Longwood, FL 32750",
    "location": "Calhoun"
  },
  {
    "name": "H B Production Services Inc",
    "description": "Advertising Agencies",
    "phone": "(407) 339-9070",
    "address": " 1275 Bennett Dr  Longwood, FL 32750",
    "location": "Calhoun"
  },
  {
    "name": "In Motion Media Solutions",
    "description": "Advertising Agencies",
    "phone": "(407) 960-1839",
    "address": " 3352 S Us Highway 17/92  Casselberry, FL 32707",
    "location": "Calhoun"
  },
  {
    "name": "K2 Evolution",
    "description": "Advertising Agencies",
    "phone": "(321) 972-5915",
    "address": " 1355 Bennett Dr Unit 177  Longwood, FL 32750",
    "location": "Calhoun"
  },
  {
    "name": "J R Stacy & Associates",
    "description": "Advertising Agencies",
    "phone": "(407) 660-1919",
    "address": " 413 Ringwood Cir  Winter Springs, FL 32708",
    "location": "Calhoun"
  },
  {
    "name": "Lewellen Enterprises",
    "description": "Advertising Agencies",
    "phone": "(407) 478-1964",
    "address": " 927 Fern St  Altamonte Springs, FL 32701",
    "location": "Calhoun"
  },
  {
    "name": "My Website Spot - Casselberry Web Design & SEO",
    "description": "Advertising Agencies",
    "phone": "(407) 499-4008",
    "address": " 513 Elm Dr  Casselberry, FL 32707",
    "location": "Calhoun"
  },
  {
    "name": "Roar! Internet Marketing",
    "description": "Advertising Agencies",
    "phone": "(407) 786-7330",
    "address": " 307 Cranes Roost Blvd Ste 2020  Altamonte Springs, FL 32701",
    "location": "Calhoun"
  },
  {
    "name": "Am",
    "description": "Advertising Specialties",
    "phone": "(386) 574-9132",
    "address": " 1357 coronet dr  deltona, FL 32725",
    "location": "Calhoun"
  },
  {
    "name": "Rider Now Magazine",
    "description": "Advertising Specialties",
    "phone": "(352) 598-6222",
    "address": " 324 Old Mill Rd  Deltona, FL 32725",
    "location": "Calhoun"
  },
  {
    "name": "Iguana Signs",
    "description": "Signs",
    "phone": "(386) 574-1211",
    "address": " 954 Saxon Blvd  Deltona, FL 32725",
    "location": "Calhoun"
  },
  {
    "name": "Empower Network",
    "description": "Internet Marketing & Advertising",
    "phone": "(407) 620-5585",
    "address": " Po Box 390874  Deltona, FL 32739",
    "location": "Calhoun"
  },
  {
    "name": "Technigrafix Signs",
    "description": "Decals",
    "phone": "(407) 257-6502",
    "address": " 783 E Fairbairn Dr  Deltona, FL 32725",
    "location": "Calhoun"
  },
  {
    "name": "Wide Fusion",
    "description": "Internet Marketing & Advertising",
    "phone": "(386) 259-9645",
    "address": " 1200 Deltona Blvd  Deltona, FL 32725",
    "location": "Calhoun"
  },
  {
    "name": "Lighthouse Mailing Service Inc",
    "description": "Mail & Shipping Services",
    "phone": "(386) 456-0369",
    "address": " 726 N Firwood Dr  Deltona, FL 32725",
    "location": "Calhoun"
  },
  {
    "name": "Nationwide Small Business Resources",
    "description": "Web Site Design & Services",
    "phone": "(386) 516-3550",
    "address": " 2048 Howland Blvd  Deltona, FL 32738",
    "location": "Calhoun"
  },
  {
    "name": "Total Image Signs & Graphics, Inc.",
    "description": "Signs",
    "phone": "(407) 688-4321",
    "address": " 1400 San Carlos Ave  Deltona, FL 32738",
    "location": "Calhoun"
  },
  {
    "name": "BizCard Xpress",
    "description": "Business Cards",
    "phone": "(386) 218-5940",
    "address": " 1209 Saxon Blvd  Orange City, FL 32763",
    "location": "Calhoun"
  },
  {
    "name": "The Pennysaver",
    "description": "Direct Mail Advertising",
    "phone": "(386) 736-3587",
    "address": " 1109 Saxon Blvd  Orange City, FL 32763",
    "location": "Calhoun"
  },
  {
    "name": "Orlando Sentinel Advertising",
    "description": "Advertising Specialties",
    "phone": "(386) 851-7900",
    "address": " 2730 Enterprise Rd  Orange City, FL 32763",
    "location": "Calhoun"
  },
  {
    "name": "Dealzkingzdepot.com",
    "description": "Internet Marketing & Advertising",
    "phone": "(386) 244-9500",
    "address": " 401 E 1st St  Sanford, FL 32771",
    "location": "Calhoun"
  },
  {
    "name": "Sanitizersubscription.com",
    "description": "Internet Marketing & Advertising",
    "phone": "(407) 943-4909",
    "address": " 201 N Maple Ave  Sanford, FL 32771",
    "location": "Calhoun"
  },
  {
    "name": "Nostressbuyersforyourhouse.com",
    "description": "Internet Marketing & Advertising",
    "phone": "(386) 855-8740",
    "address": " 3150 Tiburon Ln  Deltona, FL 32738",
    "location": "Calhoun"
  },
  {
    "name": "Sticky Style Designs",
    "description": "Decals",
    "phone": "(386) 320-6423",
    "address": " 2074 Old Train Rd  Deltona, FL 32738",
    "location": "Calhoun"
  },
  {
    "name": "Johnson Marketing",
    "description": "Internet Marketing & Advertising",
    "phone": "(321) 209-5183",
    "address": " 3095 Tioga Ter  Deltona, FL 32738",
    "location": "Calhoun"
  },
  {
    "name": "Action Printers Of DeBary",
    "description": "Printers-Equipment & Supplies",
    "phone": "(386) 668-0404",
    "address": " 41 S Charles Richard Beall Blvd  Debary, FL 32713",
    "location": "Calhoun"
  },
  {
    "name": "Direct Sales Marketing of Florida, Inc.",
    "description": "Direct Mail Advertising",
    "phone": "(386) 228-0458",
    "address": " 1477 S Leavitt Ave  Orange City, FL 32763",
    "location": "Calhoun"
  },
  {
    "name": "Graphic Source of Central Florida",
    "description": "Digital Printing & Imaging",
    "phone": "(386) 668-0288",
    "address": " 637 S Charles Richard Beall Blvd Ste 3  Debary, FL 32713",
    "location": "Calhoun"
  },
  {
    "name": "White Sign Company, LLC",
    "description": "Signs",
    "phone": "(407) 878-3981",
    "address": " 909 S. Charles Richard Beall Blvd  Debary, FL 32713",
    "location": "Calhoun"
  },
  {
    "name": "Babcock Business Systems",
    "description": "Copy Machines Service & Repair",
    "phone": "(386) 775-7516",
    "address": " 105 Cedar Ave  Orange City, FL 32763",
    "location": "Calhoun"
  },
  {
    "name": "Great Impressions Signs & Printing",
    "description": "Signs",
    "phone": "(407) 647-5151",
    "address": " 205 Valencia Landing Dr  Orange City, FL 32763",
    "location": "Calhoun"
  },
  {
    "name": "Lighthouse Mailing Services Inc",
    "description": "Mail & Shipping Services",
    "phone": "(386) 456-0369",
    "address": " 200 E Graves Ave  Orange City, FL 32763",
    "location": "Calhoun"
  },
  {
    "name": "Imageworks",
    "description": "Signs",
    "phone": "(386) 775-0165",
    "address": " 306 N Volusia Ave  Orange City, FL 32763",
    "location": "Calhoun"
  },
  {
    "name": "Copy Cat Copy Centers",
    "description": "Internet Marketing & Advertising",
    "phone": "(386) 218-6878",
    "address": " 475 N Volusia Ave  Orange City, FL 32763",
    "location": "Calhoun"
  },
  {
    "name": "Dynamic Aspects Inc",
    "description": "Signs",
    "phone": "(407) 322-1923",
    "address": " 1490 Kastner Pl  Sanford, FL 32771",
    "location": "Calhoun"
  },
  {
    "name": "Creative Printing & Publishing",
    "description": "Marketing Programs & Services",
    "phone": "(407) 302-9147",
    "address": " 2300 Old Lake Mary Rd  Sanford, FL 32771",
    "location": "Calhoun"
  },
  {
    "name": "Todd's Graphics To Go",
    "description": "Graphic Designers",
    "phone": "(407) 322-2923",
    "address": " 505 S French Ave  Sanford, FL 32771",
    "location": "Calhoun"
  },
  {
    "name": "Devsyntech, Inc.",
    "description": "Internet Marketing & Advertising",
    "phone": "(321) 444-7737",
    "address": " 1405 S Locust Ave  Sanford, FL 32771",
    "location": "Calhoun"
  },
  {
    "name": "Apache Commander",
    "description": "Internet Marketing & Advertising",
    "phone": "(321) 262-6891",
    "address": " 2341 Church St  Sanford, FL 32771",
    "location": "Calhoun"
  },
  {
    "name": "Jayco Signs and Lighting",
    "description": "Signs",
    "phone": "(407) 915-7526",
    "address": " 3665 Naseem Ln  Sanford, FL 32771",
    "location": "Calhoun"
  },
  {
    "name": "Absolute Pro Solutions",
    "description": "Signs",
    "phone": "(407) 732-4973",
    "address": " 1119 E 25th St  Sanford, FL 32771",
    "location": "Calhoun"
  },
  {
    "name": "Velocity Signs",
    "description": "Signs",
    "phone": "(407) 732-6877",
    "address": " 2200 S French Ave  Sanford, FL 32771",
    "location": "Calhoun"
  },
  {
    "name": "A Complete Sign Service",
    "description": "Signs",
    "phone": "(407) 328-7714",
    "address": " 2530 Sanford Ave  Sanford, FL 32773",
    "location": "Calhoun"
  },
  {
    "name": "Logogram Inc",
    "description": "Marketing Consultants",
    "phone": "(407) 320-1117",
    "address": " 123 Commerce Way  Sanford, FL 32771",
    "location": "Calhoun"
  },
  {
    "name": "Diamonds Electric Sign & Repair",
    "description": "Signs",
    "phone": "(407) 657-6220",
    "address": " 324 Gordon St  Sanford, FL 32771",
    "location": "Calhoun"
  },
  {
    "name": "Affordable Discount Signs Inc.",
    "description": "Signs-Erectors & Hangers",
    "phone": "(407) 463-9334",
    "address": " 200 Woodmere Blvd  Sanford, FL 32773",
    "location": "Calhoun"
  },
  {
    "name": "Signarama Lake Mary, FL",
    "description": "Signs",
    "phone": "(407) 462-3500",
    "address": " 3875 Saint Johns Pkwy  Sanford, FL 32771",
    "location": "Calhoun"
  },
  {
    "name": "Signs Just for You",
    "description": "Advertising Specialties",
    "phone": "(407) 878-4211",
    "address": " 4009 W State Road 46  Sanford, FL 32771",
    "location": "Calhoun"
  },
  {
    "name": "Pinnacle Sign Works",
    "description": "Signs",
    "phone": "(407) 322-7733",
    "address": " 3977 Saint Johns Pkwy  Sanford, FL 32771",
    "location": "Calhoun"
  },
  {
    "name": "Onsite",
    "description": "Signs",
    "phone": "(904) 551-0504",
    "address": " 900 Central Park Dr  Sanford, FL 32771",
    "location": "Calhoun"
  },
  {
    "name": "Onsight Inc",
    "description": "Paging & Signaling Equipment",
    "phone": "(407) 830-8861",
    "address": " 900 Central Park Dr  Sanford, FL 32771",
    "location": "Calhoun"
  },
  {
    "name": "FASTSIGNS",
    "description": "Signs",
    "phone": "(407) 324-8338",
    "address": " 1265 Upsala Rd  Sanford, FL 32771",
    "location": "Calhoun"
  },
  {
    "name": "Mychildwins.com",
    "description": "Internet Marketing & Advertising",
    "phone": "(386) 628-0295",
    "address": " 1264 Upsala Rd  Sanford, FL 32771",
    "location": "Calhoun"
  },
  {
    "name": "Sentry Sign Installers",
    "description": "Signs",
    "phone": "(407) 324-9386",
    "address": " 261 Specialty Pt  Sanford, FL 32771",
    "location": "Calhoun"
  },
  {
    "name": "Country Wide Enterprises",
    "description": "Internet Marketing & Advertising",
    "phone": "(407) 302-1777",
    "address": " 707 E Airport Blvd  Sanford, FL 32773",
    "location": "Calhoun"
  },
  {
    "name": "Pinnacle Services",
    "description": "Signs",
    "phone": "(386) 748-2420",
    "address": " 1645 State Road 472  Deland, FL 32724",
    "location": "Calhoun"
  },
  {
    "name": "Do It Right Entertainment",
    "description": "Disc Jockeys",
    "phone": "(386) 320-3872",
    "address": " 144 Ancona ave  Debary, FL 32713",
    "location": "Calhoun"
  },
  {
    "name": "Plante Marketing",
    "description": "Coupon Advertising",
    "phone": "(386) 456-8225",
    "address": " 667 Jennings Ave  Lake Helen, FL 32744",
    "location": "Calhoun"
  },
  {
    "name": "Cannon Virtual Assistants",
    "description": "Internet Marketing & Advertising",
    "phone": "(386) 463-0700",
    "address": " 1452 9th ST  Orange City, FL 32763",
    "location": "Calhoun"
  },
  {
    "name": "Magic Brush Sign & Design",
    "description": "Advertising Specialties",
    "phone": "(386) 736-1142",
    "address": " 1190 Jackson Ranch Rd  Deland, FL 32724",
    "location": "Calhoun"
  },
  {
    "name": "Web Design Deland",
    "description": "Web Site Design & Services",
    "phone": "(386) 690-5581",
    "address": " 2170 Deerfoot Trl  Deland, FL 32720",
    "location": "Calhoun"
  },
  {
    "name": "BCXPromotional.com",
    "description": "Business Cards",
    "phone": "(407) 688-8902",
    "address": " 1744 Rinehart Rd  Sanford, FL 32771",
    "location": "Calhoun"
  },
  {
    "name": "Magic Sign",
    "description": "Signs",
    "phone": "(407) 324-4059",
    "address": " 4757 Orange Blvd  Sanford, FL 32771",
    "location": "Calhoun"
  },
  {
    "name": "Image360 Sanford Graphics, Signs and Displays",
    "description": "Signs",
    "phone": "(407) 732-4608",
    "address": " 1169 W Airport Blvd  Sanford, FL 32773",
    "location": "Calhoun"
  },
  {
    "name": "Media 1",
    "description": "Signs",
    "phone": "(407) 331-6161",
    "address": " 501 Cornwall Rd  Sanford, FL 32773",
    "location": "Calhoun"
  },
  {
    "name": "Traffic Signs Distribution",
    "description": "Signs",
    "phone": "(321) 332-1336",
    "address": " 3501 Sanford Ave  Sanford, FL 32773",
    "location": "Calhoun"
  },
  {
    "name": "P5 Systems",
    "description": "Internet Marketing & Advertising",
    "phone": "(407) 362-1933",
    "address": " 223 Brightview Dr  Lake Mary, FL 32746",
    "location": "Calhoun"
  },
  {
    "name": "FedEx Office Print & Ship Center",
    "description": "Copying & Duplicating Service",
    "phone": "(407) 323-6964",
    "address": " 1637 Rinehart Rd  Sanford, FL 32771",
    "location": "Calhoun"
  },
  {
    "name": "Divine Imaging",
    "description": "Web Site Hosting",
    "phone": "(407) 314-4469",
    "address": " 126 Lake Ada Cir  Sanford, FL 32773",
    "location": "Calhoun"
  },
  {
    "name": "Universal Signs And Graphics",
    "description": "Graphic Designers",
    "phone": "(407) 496-2034",
    "address": " 115 Exeter Ct  Sanford, FL 32773",
    "location": "Calhoun"
  },
  {
    "name": "Graphic Solutions",
    "description": "Computer Graphics",
    "phone": "(407) 323-5523",
    "address": " 370 Mohave Ter  Lake Mary, FL 32746",
    "location": "Calhoun"
  },
  {
    "name": "Cornerstone Publishing & Multi-Media",
    "description": "Advertising Specialties",
    "phone": "(704) 284-3103",
    "address": " 5386 Glenlake Pl  Sanford, FL 32771",
    "location": "Calhoun"
  },
  {
    "name": "One Source Branding & Media",
    "description": "Internet Marketing & Advertising",
    "phone": "(321) 441-3160",
    "address": " 187 E Crystal Lake Ave Unit 1005  Lake Mary, FL 32746",
    "location": "Calhoun"
  },
  {
    "name": "Save the Children Group",
    "description": "Advertising Specialties",
    "phone": "(321) 363-3755",
    "address": " 109 E Crystal Lake Ave  Lake Mary, FL 32746",
    "location": "Calhoun"
  },
  {
    "name": "Signarama",
    "description": "Signs",
    "phone": "(407) 462-3500",
    "address": " 101 N Country Club Rd  Lake Mary, FL 32746",
    "location": "Calhoun"
  },
  {
    "name": "Mobile Designs Inc",
    "description": "T-Shirts",
    "phone": "(386) 327-2159",
    "address": " 1607 S. State Road 15 A Suite 6  Deland, FL 32720",
    "location": "Calhoun"
  },
  {
    "name": "Mobile Designs Signs & Graphics",
    "description": "Truck Painting & Lettering",
    "phone": "(386) 734-3747",
    "address": " 1417 S Woodland Blvd  Deland, FL 32720",
    "location": "Calhoun"
  },
  {
    "name": "MBI Direct Mail, Inc.",
    "description": "Direct Mail Advertising",
    "phone": "(800) 359-4780",
    "address": " 710 W New Hampshire Ave  Deland, FL 32720",
    "location": "Calhoun"
  },
  {
    "name": "LookHowWeirdTheWarmIs.com",
    "description": "Internet Marketing & Advertising",
    "phone": "(386) 734-2691",
    "address": " 8 Villa Villar Ct  DeLand, FL 32724",
    "location": "Calhoun"
  },
  {
    "name": "Perfection Printing",
    "description": "Signs",
    "phone": "(386) 738-3186",
    "address": " 329 S Woodland Blvd  Deland, FL 32720",
    "location": "Calhoun"
  },
  {
    "name": "Kitching Internet Management Solutions",
    "description": "Internet Marketing & Advertising",
    "phone": "(386) 562-6009",
    "address": " 906 E Church St  Deland, FL 32724",
    "location": "Calhoun"
  },
  {
    "name": "Signal Media",
    "description": "Internet Marketing & Advertising",
    "phone": "(407) 476-9358",
    "address": " 117 W. Howry Avenue, Ste 2  DeLand, FL 32720",
    "location": "Calhoun"
  },
  {
    "name": "West Volusia Tourism & Advertising Au",
    "description": "Advertising Specialties",
    "phone": "(386) 734-0162",
    "address": " 116 W New York Ave  Deland, FL 32720",
    "location": "Calhoun"
  },
  {
    "name": "New York Ave",
    "description": "Internet Marketing & Advertising",
    "phone": "(386) 490-8900",
    "address": " 112 W Indiana Ave Ste 206  Deland, FL 32720",
    "location": "Calhoun"
  },
  {
    "name": "Universal Awning and Sign",
    "description": "Signs",
    "phone": "(407) 328-7781",
    "address": " 5890 Nolan Rd  Sanford, FL 32773",
    "location": "Calhoun"
  },
  {
    "name": "AlphaGraphics",
    "description": "Printing Services",
    "phone": "(407) 330-0245",
    "address": " 1061 S Sun Dr Ste 1033  Lake Mary, FL 32746",
    "location": "Calhoun"
  },
  {
    "name": "Casa Creacion",
    "description": "Direct Mail Advertising",
    "phone": "(407) 333-7117",
    "address": " 600 Rinehart Rd  Lake Mary, FL 32746",
    "location": "Calhoun"
  },
  {
    "name": "Tonic Enterprises",
    "description": "Web Site Design & Services",
    "phone": "(407) 917-7211",
    "address": " 1540 International Pkwy Ste 2000  Lake Mary, FL 32746",
    "location": "Calhoun"
  },
  {
    "name": "Promoted to Succeed",
    "description": "Advertising Specialties",
    "phone": "(407) 430-6044",
    "address": " 1540 International Pkwy  Lake Mary, FL 32746",
    "location": "Calhoun"
  },
  {
    "name": "Marketleverage Interactive Advertising",
    "description": "Advertising Specialties",
    "phone": "(407) 268-7648",
    "address": " 1515 International Pkwy  Lake Mary, FL 32746",
    "location": "Calhoun"
  },
  {
    "name": "Radio Health LLC",
    "description": "Tile-Contractors & Dealers",
    "phone": "(407) 219-9494",
    "address": " 1035 Primera Blvd Ste 1041  Lake Mary, FL 32746",
    "location": "Calhoun"
  },
  {
    "name": "Axel & Associates",
    "description": "Internet Marketing & Advertising",
    "phone": "(866) 328-4329",
    "address": " 175 Middle St Unit 1201  Lake Mary, FL 32746",
    "location": "Calhoun"
  },
  {
    "name": "Everybody's Business Etc",
    "description": "Direct Mail Advertising",
    "phone": "(407) 323-2655",
    "address": " 205 Waymont Ct  Lake Mary, FL 32746",
    "location": "Calhoun"
  },
  {
    "name": "W G M Signs",
    "description": "Advertising Specialties",
    "phone": "(321) 363-3763",
    "address": " 2360 Northumbria Dr  Sanford, FL 32771",
    "location": "Calhoun"
  },
  {
    "name": "Collect-Us.com",
    "description": "Internet Marketing & Advertising",
    "phone": "(407) 328-7669",
    "address": " 559 S Country Club Rd  Lake Mary, FL 32746",
    "location": "Calhoun"
  },
  {
    "name": "Signage Plus",
    "description": "Signs",
    "phone": "(407) 549-2531",
    "address": " 5473 Benchmark Ln  Sanford, FL 32773",
    "location": "Calhoun"
  },
  {
    "name": "CBS Outdoor",
    "description": "Signs",
    "phone": "(407) 330-0339",
    "address": " 2687 S Design Ct  Sanford, FL 32773",
    "location": "Calhoun"
  },
  {
    "name": "Orlando SEO Consultant",
    "description": "Internet Products & Services",
    "phone": "(407) 314-6357",
    "address": " 365 Crest St  Sanford, FL 32771",
    "location": "Calhoun"
  },
  {
    "name": "Essential Edge Marketing",
    "description": "Advertising Specialties",
    "phone": "(407) 252-9555",
    "address": " 4044 W Lake Mary Blvd  Lake Mary, FL 32746",
    "location": "Calhoun"
  },
  {
    "name": "Certnutri.com",
    "description": "Internet Marketing & Advertising",
    "phone": "(407) 781-8069",
    "address": " 255 Primera Blvd  Lake Mary, FL 32746",
    "location": "Calhoun"
  },
  {
    "name": "Here To Help Marketing",
    "description": "Marketing Consultants",
    "phone": "(407) 391-5422",
    "address": " 255 Primera Blvd Suite 160  Lake Mary, FL 32746",
    "location": "Calhoun"
  },
  {
    "name": "Ratchet Guys Signs LLC",
    "description": "Signs-Maintenance & Repair",
    "phone": "(407) 285-3223",
    "address": " 786 Keeneland Pike  Lake Mary, FL 32746",
    "location": "Calhoun"
  },
  {
    "name": "Advertising Networks of Florida",
    "description": "Advertising-Shoppers Publications",
    "phone": "(866) 742-1373",
    "address": " 610 Crescent Executive Ct Ste 112  Lake Mary, FL 32746",
    "location": "Calhoun"
  },
  {
    "name": "Design Studio Vega",
    "description": "Internet Marketing & Advertising",
    "phone": "(321) 578-9277",
    "address": " 1275 Glencrest Dr  Lake MAry, FL 32746",
    "location": "Calhoun"
  },
  {
    "name": "Blue Skies Advertising Inc",
    "description": "Advertising Specialties",
    "phone": "(407) 687-2961",
    "address": " 204 Teakwood Ct  Lake Mary, FL 32746",
    "location": "Calhoun"
  },
  {
    "name": "Flagnations",
    "description": "Signs",
    "phone": "(407) 349-5990",
    "address": " PO Box 1453  Geneva, FL 32732",
    "location": "Calhoun"
  },
  {
    "name": "Marselle Sign and Graphics",
    "description": "Signs",
    "phone": "(407) 327-7878",
    "address": " 110 State Road 419  Winter Springs, FL 32708",
    "location": "Calhoun"
  },
  {
    "name": "Fausnight Signs",
    "description": "Signs",
    "phone": "(407) 331-4422",
    "address": " 869 Waterway Pl  Longwood, FL 32750",
    "location": "Calhoun"
  },
  {
    "name": "Electronic Sign Systems",
    "description": "Signs",
    "phone": "(321) 231-2015",
    "address": " 845 Waterway Pl  Longwood, FL 32750",
    "location": "Calhoun"
  },
  {
    "name": "JJC Marketing Solutions",
    "description": "Marketing Programs & Services",
    "phone": "(321) 765-7710",
    "address": " 639 Marni Dr  Winter Springs, FL 32708",
    "location": "Calhoun"
  },
  {
    "name": "Advantage Signs & Advertising",
    "description": "Signs",
    "phone": "(407) 339-7446",
    "address": " 1983 Corporate Sq  Longwood, FL 32750",
    "location": "Calhoun"
  },
  {
    "name": "SEO Marketing Engine",
    "description": "Internet Marketing & Advertising",
    "phone": "(321) 282-2306",
    "address": " 2290 N Ronald Reagan Blvd Ste 120  Longwood, FL 32750",
    "location": "Calhoun"
  },
  {
    "name": "Orlando Laser Shop",
    "description": "Advertising Specialties",
    "phone": "(407) 960-5989",
    "address": " 2290 N Ronald Reagan Blvd  Longwood, FL 32750",
    "location": "Calhoun"
  },
  {
    "name": "Safety ER",
    "description": "Safety Equipment & Clothing",
    "phone": "(407) 339-8600",
    "address": " 1320 E Altamonte Dr  Altamonte Springs, FL 32701",
    "location": "Calhoun"
  },
  {
    "name": "International Signs & Lighting",
    "description": "Signs",
    "phone": "(407) 332-9663",
    "address": " 714 Commerce Cir  Longwood, FL 32750",
    "location": "Calhoun"
  },
  {
    "name": "Alchemy Sewing & Custom Embroidery",
    "description": "Embroidery",
    "phone": "(386) 734-4448",
    "address": " 1741 Langley Ave  Deland, FL 32724",
    "location": "Calhoun"
  },
  {
    "name": "Express Printing Sign Co",
    "description": "Advertising Specialties",
    "phone": "(386) 734-8388",
    "address": " 869 W New York Ave  Deland, FL 32720",
    "location": "Calhoun"
  },
  {
    "name": "Signco Architectural Corp",
    "description": "Signs",
    "phone": "(386) 740-8344",
    "address": " 360 N Delaware Ave  Deland, FL 32720",
    "location": "Calhoun"
  },
  {
    "name": "Tinker Graphics & Marketing",
    "description": "Internet Marketing & Advertising",
    "phone": "(386) 734-3475",
    "address": " 112A W New York Ave  DeLand, FL 32720",
    "location": "Calhoun"
  },
  {
    "name": "Quality QuickPrint",
    "description": "Printing Services",
    "phone": "(386) 736-1353",
    "address": " 1441 N Amelia Ave  Deland, FL 32724",
    "location": "Calhoun"
  },
  {
    "name": "Morris Sign Company",
    "description": "Signs",
    "phone": "(386) 736-1600",
    "address": " 1380 Saratoga St  Deland, FL 32724",
    "location": "Calhoun"
  },
  {
    "name": "Daniels Wholesale Sign",
    "description": "Signs",
    "phone": "(386) 738-7168",
    "address": " 1857 Patterson Ave  Deland, FL 32724",
    "location": "Calhoun"
  },
  {
    "name": "StartYourBrandNow.com",
    "description": "Internet Marketing & Advertising",
    "phone": "(386) 222-6484",
    "address": " 1702 N Woodland Blvd  Deland, FL 32724",
    "location": "Calhoun"
  },
  {
    "name": "Virtual Stacks Systems",
    "description": "Web Site Design & Services",
    "phone": "(407) 544-3201",
    "address": " 650 Technology Park  Lake Mary, FL 32746",
    "location": "Calhoun"
  },
  {
    "name": "Decal Accents",
    "description": "Signs",
    "phone": "(407) 451-0287",
    "address": " 1743 Rutledge Rd  Longwood, FL 32779",
    "location": "Calhoun"
  },
  {
    "name": "AGIL Enterprises",
    "description": "Internet Marketing & Advertising",
    "phone": "(407) 233-5083",
    "address": " 745 W State Road 434  Longwood, FL 32750",
    "location": "Calhoun"
  },
  {
    "name": "PRO Image Signs and Graph",
    "description": "Signs",
    "phone": "(407) 519-4065",
    "address": " 180 E State Road 46  Geneva, FL 32732",
    "location": "Calhoun"
  },
  {
    "name": "Wgm Signs",
    "description": "Signs",
    "phone": "(407) 549-3988",
    "address": " 108 Commerce St Ste 103  Lake Mary, FL 32746",
    "location": "Calhoun"
  },
  {
    "name": "Bbjcloud.com",
    "description": "Internet Marketing & Advertising",
    "phone": "(407) 574-6986",
    "address": " 111 Commerce St  Lake Mary, FL 32746",
    "location": "Calhoun"
  },
  {
    "name": "Wholesale Sign Builders Inc",
    "description": "Signs",
    "phone": "(407) 831-3344",
    "address": " 490 Bay Meadow Rd  Longwood, FL 32750",
    "location": "Calhoun"
  },
  {
    "name": "Signature Data 1",
    "description": "Direct Mail Advertising",
    "phone": "(321) 696-1152",
    "address": " 412 Courtney Springs Cir  Winter Springs, FL 32708",
    "location": "Calhoun"
  },
  {
    "name": "Gotcha Graphics Inc",
    "description": "Signs",
    "phone": "(407) 839-8800",
    "address": " 1636 N Ronald Reagan Blvd  Longwood, FL 32750",
    "location": "Calhoun"
  },
  {
    "name": "Harmony Business Services",
    "description": "Business Cards",
    "phone": "(407) 967-6738",
    "address": " 314 Kirkcaldy Dr  Winter Springs, FL 32708",
    "location": "Calhoun"
  },
  {
    "name": "Ezyield.Com Inc",
    "description": "Internet Marketing & Advertising",
    "phone": "(407) 629-0900",
    "address": " 209 N Moss Rd  Winter Springs, FL 32708",
    "location": "Calhoun"
  },
  {
    "name": "Hit Or Click Marketing",
    "description": "Internet Marketing & Advertising",
    "phone": "(407) 326-8188",
    "address": " 3190 Howard Ave  Oviedo, FL 32765",
    "location": "Calhoun"
  },
  {
    "name": "The Sign King Inc",
    "description": "Signs",
    "phone": "(407) 830-7443",
    "address": " 726 N Us Highway 17 92  Longwood, FL 32750",
    "location": "Calhoun"
  },
  {
    "name": "Greyson Corp",
    "description": "Signs",
    "phone": "(407) 830-9433",
    "address": " 726 N Us Highway 17 92  Longwood, FL 32750",
    "location": "Calhoun"
  },
  {
    "name": "Sir Speedy",
    "description": "Printing Services-Commercial",
    "phone": "(407) 260-1199",
    "address": " 131 Applewood Dr Ste 140  Longwood, FL 32750",
    "location": "Calhoun"
  },
  {
    "name": "Diversified Signs",
    "description": "Signs",
    "phone": "(407) 760-0484",
    "address": " 381 N Jungle Rd  Geneva, FL 32732",
    "location": "Calhoun"
  },
  {
    "name": "Kw Signs & Graphics",
    "description": "Signs",
    "phone": "(407) 332-6528",
    "address": " 710 Commerce Cir  Longwood, FL 32750",
    "location": "Calhoun"
  },
  {
    "name": "Innovative Signs Inc",
    "description": "Signs",
    "phone": "(407) 830-5155",
    "address": " 130 Bomar Ct  Longwood, FL 32750",
    "location": "Calhoun"
  },
  {
    "name": "Cutting Edge Signs and Visuals",
    "description": "Signs",
    "phone": "(407) 541-0800",
    "address": " 1055 Nursery Rd Unit 105  Winter Springs, FL 32708",
    "location": "Calhoun"
  },
  {
    "name": "Big Cypress Golf Club",
    "description": "Signs",
    "phone": "(407) 695-4830",
    "address": " 900 W State Road 434  Winter Springs, FL 32708",
    "location": "Calhoun"
  },
  {
    "name": "Ips International Products SRCNG",
    "description": "Advertising Specialties",
    "phone": "(407) 365-8083",
    "address": " 354 Terrace Dr  Oviedo, FL 32765",
    "location": "Calhoun"
  },
  {
    "name": "Tuten Graphics",
    "description": "Signs",
    "phone": "(407) 830-8817",
    "address": " 1051 Vista Rd  Longwood, FL 32750",
    "location": "Calhoun"
  },
  {
    "name": "Your Brand Designs",
    "description": "Advertising-Promotional Products",
    "phone": "(407) 749-2167",
    "address": " 237 N Us Highway 17 92  Longwood, FL 32750",
    "location": "Calhoun"
  },
  {
    "name": "Community Fare",
    "description": "Direct Mail Advertising",
    "phone": "(407) 332-5373",
    "address": " 898 E Church Ave  Longwood, FL 32750",
    "location": "Calhoun"
  },
  {
    "name": "Seminole Work Opportunity Program",
    "description": "Mail & Shipping Services",
    "phone": "(407) 699-4419",
    "address": " 1095 Belle Ave  Winter Springs, FL 32708",
    "location": "Calhoun"
  },
  {
    "name": "Affordable Signs",
    "description": "Signs",
    "phone": "(407) 299-1288",
    "address": " 870 E State Road 434  Longwood, FL 32750",
    "location": "Calhoun"
  },
  {
    "name": "Twi Services Inc",
    "description": "Printing Services",
    "phone": "(407) 260-0565",
    "address": " 460 N Ronald Reagan Blvd Ste 142  Longwood, FL 32750",
    "location": "Calhoun"
  },
  {
    "name": "Affordable Discount Signs Inc",
    "description": "Signs",
    "phone": "(407) 463-9334",
    "address": " PO Box 520652  Longwood, FL 32752",
    "location": "Calhoun"
  },
  {
    "name": "The Sign Man",
    "description": "Signs",
    "phone": "(407) 365-3722",
    "address": " 160 E Broadway St  Oviedo, FL 32765",
    "location": "Calhoun"
  },
  {
    "name": "Pin Depot",
    "description": "Advertising Specialties",
    "phone": "(800) 803-2879",
    "address": " 2200 Winter Springs Blvd Ste 106-322  Oviedo, FL 32765",
    "location": "Calhoun"
  },
  {
    "name": "Horizon Signs",
    "description": "Signs",
    "phone": "(407) 341-8118",
    "address": " 208 Williams Rd  Winter Springs, FL 32708",
    "location": "Calhoun"
  },
  {
    "name": "The Redwood Agency, LLC",
    "description": "Internet Marketing & Advertising",
    "phone": "(407) 476-6136",
    "address": " 100 Sandy Oaks PL  Longwood, FL 32779",
    "location": "Calhoun"
  },
  {
    "name": "Gameday Graphix",
    "description": "Signs",
    "phone": "(407) 831-7446",
    "address": " 185 S Ronald Reagan Blvd  Longwood, FL 32750",
    "location": "Calhoun"
  },
  {
    "name": "Barden Circulation",
    "description": "Advertising Specialties",
    "phone": "(321) 972-9974",
    "address": " 250 S Ronald Reagan Blvd Ste 118  Longwood, FL 32750",
    "location": "Calhoun"
  },
  {
    "name": "Letra-Tek Inc",
    "description": "Signs",
    "phone": "(407) 331-3386",
    "address": " 278 Park Ave  Longwood, FL 32750",
    "location": "Calhoun"
  },
  {
    "name": "Ace Custom Signs Winter Park",
    "description": "Signs",
    "phone": "(321) 295-7453",
    "address": " 466 W State Road 434  Longwood, FL 32750",
    "location": "Calhoun"
  },
  {
    "name": "Visual",
    "description": "Signs",
    "phone": "(407) 278-3600",
    "address": " 451 Aulin Ave Ste B  Oviedo, FL 32765",
    "location": "Calhoun"
  },
  {
    "name": "ABX SIGNS",
    "description": "Digital Printing & Imaging",
    "phone": "(407) 960-2510",
    "address": " 745 W State Road 434 Ste K  Longwood, FL 32750",
    "location": "Calhoun"
  },
  {
    "name": "1 Stop Print Shop",
    "description": "Clothing Stores",
    "phone": "(407) 331-3211",
    "address": " 530 S Ronald Reagan Blvd  Longwood, FL 32750",
    "location": "Calhoun"
  },
  {
    "name": "Signworks Graphik & Design Inc",
    "description": "Signs",
    "phone": "(407) 359-7100",
    "address": " 550 Kane Ct Ste 200  Oviedo, FL 32765",
    "location": "Calhoun"
  },
  {
    "name": "Community Values Coupon Magazine",
    "description": "Direct Mail Advertising",
    "phone": "(407) 695-5813",
    "address": " 4905 Petra Ct  Winter Springs, FL 32708",
    "location": "Calhoun"
  },
  {
    "name": "Gallagher Promotional Products",
    "description": "Advertising-Promotional Products",
    "phone": "(407) 788-0818",
    "address": " 655 Florida Central Pkwy  Longwood, FL 32750",
    "location": "Calhoun"
  },
  {
    "name": "Gallagher Promotional PRO",
    "description": "Advertising Specialties",
    "phone": "(407) 332-6826",
    "address": " 659 Florida Central Pkwy  Longwood, FL 32750",
    "location": "Calhoun"
  },
  {
    "name": "Rogers Signs",
    "description": "Signs",
    "phone": "(407) 331-1038",
    "address": " 230 W Marvin Ave Ste 100  Longwood, FL 32750",
    "location": "Calhoun"
  },
  {
    "name": "DG Productions",
    "description": "Advertising Specialties",
    "phone": "(407) 331-1066",
    "address": " 160 Hope St  Longwood, FL 32750",
    "location": "Calhoun"
  },
  {
    "name": "Ali Rand Websites",
    "description": "Web Site Design & Services",
    "phone": "(786) 294-2633",
    "address": " 410 Augustine Ct  Oviedo, FL 32765",
    "location": "Calhoun"
  },
  {
    "name": "Acculetters",
    "description": "Signs",
    "phone": "(407) 660-2228",
    "address": " 722 Savage Ct  Longwood, FL 32750",
    "location": "Calhoun"
  },
  {
    "name": "Signs Xpress",
    "description": "Advertising Specialties",
    "phone": "(407) 767-6355",
    "address": " 1018 W State Road 434  Longwood, FL 32750",
    "location": "Calhoun"
  },
  {
    "name": "Summit Marketing - Timeshare Rental & Sales",
    "description": "Internet Marketing & Advertising",
    "phone": "(855) 602-7991",
    "address": " 416 Commerce Way Ste 140  Longwood, FL 32750",
    "location": "Calhoun"
  },
  {
    "name": "Advance Signs & Printing LLC",
    "description": "Print Advertising",
    "phone": "(407) 442-3033",
    "address": " 1155 W State Road 434 Ste 159  Longwood, FL 32750",
    "location": "Calhoun"
  },
  {
    "name": "Big C's Signs",
    "description": "Signs",
    "phone": "(407) 497-8981",
    "address": " 815 Eyrie Dr  Oviedo, FL 32765",
    "location": "Calhoun"
  },
  {
    "name": "Creative Sign Designs",
    "description": "Signs",
    "phone": "(800) 804-4809",
    "address": " 285 National Pl  Longwood, FL 32750",
    "location": "Calhoun"
  },
  {
    "name": "Match-Up Promotions",
    "description": "Advertising-Promotional Products",
    "phone": "(800) 815-3093",
    "address": " 975 Florida Central Pkwy Ste 1900  Longwood, FL 32750",
    "location": "Calhoun"
  },
  {
    "name": "Signs-O-Sourus",
    "description": "Signs",
    "phone": "(407) 677-8965",
    "address": " 3008 S US Highway 17/92  Casselberry, FL 32707",
    "location": "Calhoun"
  },
  {
    "name": "Sign-o-saurus, Inc",
    "description": "Signs",
    "phone": "(407) 413-2033",
    "address": " 3008 S Us Highway 17/92  Casselberry, FL 32707",
    "location": "Calhoun"
  },
  {
    "name": "A M Pro Lighting & Signs Inc",
    "description": "Signs",
    "phone": "(407) 706-0312",
    "address": " 1115 Vidina Pl  Oviedo, FL 32765",
    "location": "Calhoun"
  },
  {
    "name": "Cuspro, Inc.",
    "description": "Specialty Bags",
    "phone": "(407) 278-8980",
    "address": " PO Box 621239  Oviedo, FL 32762",
    "location": "Calhoun"
  },
  {
    "name": "Florida Sign Source",
    "description": "Signs",
    "phone": "(407) 316-9992",
    "address": " 1355 Bennett Dr  Longwood, FL 32750",
    "location": "Calhoun"
  },
  {
    "name": "Futura Design Inc",
    "description": "Signs",
    "phone": "(407) 699-3031",
    "address": " 327 Goosecreek Dr  Winter Springs, FL 32708",
    "location": "Calhoun"
  },
  {
    "name": "community business directory inc",
    "description": "Advertising Specialties",
    "phone": "(407) 439-4495",
    "address": " 344 Ringwood Cir  winter springs, FL 32708",
    "location": "Calhoun"
  },
  {
    "name": "Xtract Design",
    "description": "Computer Graphics",
    "phone": "(407) 718-8030",
    "address": " 1205 La Mesa Ave  Winter Springs, FL 32708",
    "location": "Calhoun"
  },
  {
    "name": "Andytolbert.com",
    "description": "Internet Marketing & Advertising",
    "phone": "(407) 328-0970",
    "address": " 1499 W State Road 434  Longwood, FL 32750",
    "location": "Calhoun"
  },
  {
    "name": "Philip Del Mare Inc",
    "description": "Signs",
    "phone": "(386) 428-1022",
    "address": " 391 County Road 415  New Smyrna Beach, FL 32168",
    "location": "Calhoun"
  },
  {
    "name": "Slick Signs",
    "description": "Signs",
    "phone": "(407) 331-4334",
    "address": " 331 Oleander Way  Casselberry, FL 32707",
    "location": "Calhoun"
  },
  {
    "name": "Stellar Sign & Design",
    "description": "Signs",
    "phone": "(407) 660-3174",
    "address": " 331 Oleander Way  Casselberry, FL 32707",
    "location": "Calhoun"
  },
  {
    "name": "Platinum Signs And Design",
    "description": "Signs",
    "phone": "(407) 971-3640",
    "address": " 352 W Melody Ln  Casselberry, FL 32707",
    "location": "Calhoun"
  },
  {
    "name": "Florida Transcor, Inc.",
    "description": "Traffic Signs & Signals",
    "phone": "(321) 304-2447",
    "address": " 325 Commercial St  Casselberry, FL 32707",
    "location": "Calhoun"
  },
  {
    "name": "Apartment Postcards, Inc.",
    "description": "Direct Mail Advertising",
    "phone": "(800) 973-3317",
    "address": " 1942 W County Road 419 Ste 1010  Chuluota, FL 32766",
    "location": "Calhoun"
  },
  {
    "name": "Signal Out Door Advertising",
    "description": "Advertising Specialties",
    "phone": "(407) 856-7079",
    "address": " 101 Sunnytown Rd Ste 312  Casselberry, FL 32707",
    "location": "Calhoun"
  },
  {
    "name": "American Sign & Printing",
    "description": "Signs",
    "phone": "(407) 260-0034",
    "address": " 5580 S Us Highway 17/92  Casselberry, FL 32707",
    "location": "Calhoun"
  },
  {
    "name": "Sowers Web Technologies",
    "description": "Web Site Design & Services",
    "phone": "(407) 900-5069",
    "address": " 450 Ridgewood St  Altamonte Springs, FL 32701",
    "location": "Calhoun"
  },
  {
    "name": "United Trophy",
    "description": "Trophies, Plaques & Medals",
    "phone": "(407) 834-9812",
    "address": " 345 State Road 436  Fern Park, FL 32730",
    "location": "Calhoun"
  },
  {
    "name": "C & S Signs",
    "description": "Signs-Maintenance & Repair",
    "phone": "(407) 331-5299",
    "address": " 970 Shallowford St  Altamonte Springs, FL 32701",
    "location": "Calhoun"
  },
  {
    "name": "Imagine Signs and Graphics",
    "description": "Graphic Designers",
    "phone": "(407) 205-7544",
    "address": " 1140 E Altamonte Dr Unit 150353  Altamonte Springs, FL 32715",
    "location": "Calhoun"
  },
  {
    "name": "Drmohasaoji.com",
    "description": "Internet Marketing & Advertising",
    "phone": "(407) 432-1056",
    "address": " 290 Hibiscus Rd  Casselberry, FL 32707",
    "location": "Calhoun"
  },
  {
    "name": "Zoomania1",
    "description": "Internet Marketing & Advertising",
    "phone": "(407) 451-2880",
    "address": " 433 E Highland St  Altamonte Springs, FL 32701",
    "location": "Calhoun"
  },
  {
    "name": "Gillman Advertising Specialties",
    "description": "Advertising Specialties",
    "phone": "(407) 331-5111",
    "address": " 498 Palm Springs Dr Ste 350  Altamonte Springs, FL 32701",
    "location": "Calhoun"
  },
  {
    "name": "Best of Orlando",
    "description": "Direct Mail Advertising",
    "phone": "(407) 571-2980",
    "address": " 260 Maitland Ave  Altamonte Springs, FL 32701",
    "location": "Calhoun"
  },
  {
    "name": "Jigwiz Media",
    "description": "Internet Marketing & Advertising",
    "phone": "(800) 961-8330",
    "address": " 260 Maitland Ave Ste 2500  Altamonte Springs, FL 32701",
    "location": "Calhoun"
  },
  {
    "name": "Memory Lanes",
    "description": "Advertising Specialties",
    "phone": "(407) 339-7771",
    "address": " Alt Spg  Altamonte Springs, FL 32701",
    "location": "Calhoun"
  },
  {
    "name": "Treefrog Cinegraphix",
    "description": "Signs",
    "phone": "(407) 637-2079",
    "address": " 478 E Altamonte Dr Ste 108 PMB 150  Altamonte Springs, FL 32701",
    "location": "Calhoun"
  },
  {
    "name": "KOBALT MEDIA",
    "description": "Internet Directories",
    "phone": "(407) 579-5095",
    "address": " 285 Uptown Blvd  Altamonte Springs, FL 32701",
    "location": "Calhoun"
  }
]
