[
  {
    "name": "SP Web Solution(USA)",
    "description": "Internet Marketing & Advertising",
    "phone": "(800) 781-1130",
    "address": " Po Box 32686  Reddick, FL 32686",
    "location": "Citrus"
  },
  {
    "name": "Alpha2omega Business",
    "description": "Internet Marketing & Advertising",
    "phone": "(786) 205-4613",
    "address": " NORTH-CENTRAL Fl  Ocala, FL 34480",
    "location": "Citrus"
  },
  {
    "name": "WJ Distribution",
    "description": "Advertising Specialties",
    "phone": "(352) 591-2266",
    "address": " 15398 NW 44th Avenue Rd  Reddick, FL 32686",
    "location": "Citrus"
  },
  {
    "name": "Lamar Outdoor Advertising",
    "description": "Advertising Agencies",
    "phone": "(352) 351-2345",
    "address": " 2065 NW 57th St  Ocala, FL 34475",
    "location": "Citrus"
  },
  {
    "name": "Bruce Merton Consulting",
    "description": "Advertising Agencies",
    "phone": "(352) 427-6247",
    "address": " 1402 NE 51st Loop  Ocala, FL 34479",
    "location": "Citrus"
  },
  {
    "name": "Drawn By The Light Inc",
    "description": "Advertising Agencies",
    "phone": "(352) 694-2178",
    "address": " 3215 NE 49th St  Ocala, FL 34479",
    "location": "Citrus"
  },
  {
    "name": "William B Faircloth Advg",
    "description": "Advertising Agencies",
    "phone": "(352) 351-8319",
    "address": " 5187 NW 62nd Pl  Ocala, FL 34482",
    "location": "Citrus"
  },
  {
    "name": "Capstone Enterprises Inc",
    "description": "Advertising Agencies",
    "phone": "(352) 622-3311",
    "address": " 3170 NW 100th St  Ocala, FL 34475",
    "location": "Citrus"
  },
  {
    "name": "Redesigned Web",
    "description": "Advertising Agencies",
    "phone": "(352) 282-2615",
    "address": " 3760 NE 28th Ter  Ocala, FL 34479",
    "location": "Citrus"
  },
  {
    "name": "PMS Signs",
    "description": "Signs",
    "phone": "(352) 572-7906",
    "address": " 7999 NW 60th Ave  Ocala, FL 34482",
    "location": "Citrus"
  },
  {
    "name": "Restaurantsinocala.com",
    "description": "Internet Marketing & Advertising",
    "phone": "(352) 481-2114",
    "address": " 15008 SE Us Highway 301  Hawthorne, FL 32640",
    "location": "Citrus"
  },
  {
    "name": "Ocala OnLine Business Solutions",
    "description": "Internet Marketing & Advertising",
    "phone": "(352) 207-2463",
    "address": " 4445 NE 3rd Ct  Ocala, FL 34479",
    "location": "Citrus"
  },
  {
    "name": "Gene Glover Signs",
    "description": "Signs",
    "phone": "(352) 804-2778",
    "address": " 12830 NW Highway 225A  Reddick, FL 32686",
    "location": "Citrus"
  },
  {
    "name": "Signsfast Of Ocala",
    "description": "Signs",
    "phone": "(352) 433-2722",
    "address": " 4722 NW Gainesville Rd  Ocala, FL 34475",
    "location": "Citrus"
  },
  {
    "name": "PIP Printing",
    "description": "Advertising Agencies",
    "phone": "(352) 352-1132",
    "address": " 11 Southwest 1st Avenue  Ocala, FL 34471",
    "location": "Citrus"
  },
  {
    "name": "Pete Peterson Signs Inc",
    "description": "Signs",
    "phone": "(352) 625-2307",
    "address": " 11094 NE Highway 314  Silver Springs, FL 34488",
    "location": "Citrus"
  },
  {
    "name": "Jmaw Designs",
    "description": "Signs",
    "phone": "(386) 983-0378",
    "address": " 189 E Cowpen Lake Rd  Hawthorne, FL 32640",
    "location": "Citrus"
  }
]
