[
  {
    "name": "Trm",
    "description": "Advertising Agencies",
    "phone": "(904) 282-8604",
    "address": " 2816 Henley Rd  Green Cove Springs, FL 32043",
    "location": "Clay"
  },
  {
    "name": "Cook Enterprises Inc",
    "description": "Advertising Agencies",
    "phone": "(904) 215-5660",
    "address": " 4711 US Highway 17  Fleming Island, FL 32003",
    "location": "Clay"
  },
  {
    "name": "St Brendan's Isle Inc",
    "description": "Courier & Delivery Service",
    "phone": "(904) 284-1200",
    "address": " 1501 County Road 315  Green Cove Springs, FL 32043",
    "location": "Clay"
  },
  {
    "name": "Darla J Mayo Signs & Designs",
    "description": "Advertising Specialties",
    "phone": "(904) 626-3064",
    "address": " 3514 Citation Dr  Green Cove Springs, FL 32043",
    "location": "Clay"
  },
  {
    "name": "Tape Technologies Inc",
    "description": "Signs",
    "phone": "(904) 284-0284",
    "address": " 1272 Harbor Rd  Green Cove Springs, FL 32043",
    "location": "Clay"
  },
  {
    "name": "Fable Heart Media",
    "description": "Advertising Agencies",
    "phone": "(904) 479-1472",
    "address": " 255 Rivertown Shops Dr Ste 102 PMB 126  Saint Johns, FL 32259",
    "location": "Clay"
  },
  {
    "name": "Jet Micro",
    "description": "Advertising Agencies",
    "phone": "(904) 213-8770",
    "address": " 2384 Country Side Dr  Orange Park, FL 32003",
    "location": "Clay"
  },
  {
    "name": "Northfloridayardsalecom",
    "description": "Advertising Agencies",
    "phone": "(904) 705-9581",
    "address": " 1963 Belhaven Dr  Orange Park, FL 32065",
    "location": "Clay"
  },
  {
    "name": "Lucas Design & Advertising",
    "description": "Advertising Agencies",
    "phone": "(770) 664-1316",
    "address": " 1870 Green Springs Cir  Fleming Island, FL 32003",
    "location": "Clay"
  },
  {
    "name": "Pathways Developmental Learning",
    "description": "Advertising Agencies",
    "phone": "(904) 278-9700",
    "address": " 1330 Brookgreen Way  Fleming Island, FL 32003",
    "location": "Clay"
  },
  {
    "name": "R Elliott Estey Inc",
    "description": "Advertising Agencies",
    "phone": "(904) 282-7780",
    "address": " 4000 Lazy Acres Rd  Middleburg, FL 32068",
    "location": "Clay"
  },
  {
    "name": "Creative Ad Design Inc",
    "description": "Advertising Agencies",
    "phone": "(904) 696-2391",
    "address": " 627 Rothmoor Ln  Saint Johns, FL 32259",
    "location": "Clay"
  },
  {
    "name": "Motionbuzz Web Design and Marketing",
    "description": "Advertising Agencies",
    "phone": "(904) 213-9415",
    "address": " 752 Blanding Blvd Ste 105  Orange Park, FL 32065",
    "location": "Clay"
  },
  {
    "name": "Fleming Signs & Graphics",
    "description": "Advertising Agencies",
    "phone": "(904) 214-3265",
    "address": " 4289 County Road 218  Middleburg, FL 32068",
    "location": "Clay"
  },
  {
    "name": "Revision Marketing LLC",
    "description": "Advertising Agencies",
    "phone": "(904) 214-4929",
    "address": " 4058 Everett Ave  Middleburg, FL 32068",
    "location": "Clay"
  },
  {
    "name": "Alphabet Signs",
    "description": "Signs",
    "phone": "(904) 272-0262",
    "address": " 1268 Blanding Blvd  Orange Park, FL 32065",
    "location": "Clay"
  },
  {
    "name": "Logo Depot",
    "description": "Garments-Printing & Lettering",
    "phone": "(904) 215-5646",
    "address": " 365 College Dr  Middleburg, FL 32068",
    "location": "Clay"
  },
  {
    "name": "Logo Xpress - (Logo Express)",
    "description": "Embroidery",
    "phone": "(904) 278-7774",
    "address": " 1831 Golden Eagle Way Ste 32  Fleming Island, FL 32003",
    "location": "Clay"
  },
  {
    "name": "Heritage Signs",
    "description": "Signs",
    "phone": "(904) 529-7446",
    "address": " 1282 Energy Cove Ct  Green Cove Springs, FL 32043",
    "location": "Clay"
  },
  {
    "name": "Victory Graphics Sign Co",
    "description": "Signs",
    "phone": "(904) 210-6579",
    "address": " 7146 Tarpon Ct  Fleming Island, FL 32003",
    "location": "Clay"
  },
  {
    "name": "Old Goat Custom Woods LLC",
    "description": "Woodworking",
    "phone": "(904) 228-1319",
    "address": " 4237-1 County Road 218  Middleburg, FL 32068",
    "location": "Clay"
  },
  {
    "name": "A-Pro Signs & Promo",
    "description": "Signs",
    "phone": "(904) 400-0882",
    "address": " 1232 Blanding Blvd Ste 2  Orange Park, FL 32065",
    "location": "Clay"
  },
  {
    "name": "Winning Concepts USA",
    "description": "Advertising-Promotional Products",
    "phone": "(904) 272-9784",
    "address": " 950 Blanding Blvd  Orange Park, FL 32065",
    "location": "Clay"
  },
  {
    "name": "Logo X-Press",
    "description": "Embroidery",
    "phone": "(904) 278-7774",
    "address": " 2245 Plantation Center Dr  Fleming Island, FL 32003",
    "location": "Clay"
  },
  {
    "name": "Fleming Signs and Graphics",
    "description": "Signs",
    "phone": "(904) 214-3265",
    "address": " 2494 Blanding Blvd Ste 10  Middleburg, FL 32068",
    "location": "Clay"
  },
  {
    "name": "Unlimited Signs",
    "description": "Signs",
    "phone": "(904) 282-5340",
    "address": " 4213 County Road 218  Middleburg, FL 32068",
    "location": "Clay"
  },
  {
    "name": "Grace Graphics",
    "description": "Graphic Designers",
    "phone": "(904) 291-3672",
    "address": " 4219 County Road 218  Middleburg, FL 32068",
    "location": "Clay"
  },
  {
    "name": "Grafiikka Signs Studios Inc",
    "description": "Signs",
    "phone": "(904) 276-0661",
    "address": " 931 Blanding Blvd  Orange Park, FL 32065",
    "location": "Clay"
  },
  {
    "name": "Cb Exchange",
    "description": "Direct Mail Advertising",
    "phone": "(904) 282-1560",
    "address": " 5629 Lake Meadow Rd  Middleburg, FL 32068",
    "location": "Clay"
  },
  {
    "name": "Lists",
    "description": "Mailing Lists",
    "phone": "(904) 660-0596",
    "address": " 1820 State Road 13 N  Saint Johns, FL 32259",
    "location": "Clay"
  },
  {
    "name": "Johnsati.com",
    "description": "Internet Marketing & Advertising",
    "phone": "(310) 299-0932",
    "address": " 4650 Javeline St  Middleburg, FL 32068",
    "location": "Clay"
  },
  {
    "name": "SearchXcel",
    "description": "Internet Marketing & Advertising",
    "phone": "(877) 400-0252",
    "address": " 1778 Fiddlers Ridge Dr  Fleming Island, FL 32003",
    "location": "Clay"
  },
  {
    "name": "web904.com, LLC",
    "description": "Internet Marketing & Advertising",
    "phone": "(904) 375-0194",
    "address": " 2752 Greenridge Rd  Orange Park, FL 32073",
    "location": "Clay"
  },
  {
    "name": "Walker Signs Inc",
    "description": "Signs",
    "phone": "(904) 885-6517",
    "address": " 3099 Apalachicola Blvd  Middleburg, FL 32068",
    "location": "Clay"
  },
  {
    "name": "Black Creek Customs",
    "description": "Sign Lettering",
    "phone": "(904) 351-8776",
    "address": " 2070 Palmetto St Ste 1  Middleburg, FL 32068",
    "location": "Clay"
  },
  {
    "name": "Florida Wholesale Neon",
    "description": "Signs",
    "phone": "(904) 278-2214",
    "address": " 2497 County Road 220  Middleburg, FL 32068",
    "location": "Clay"
  },
  {
    "name": "John Goble Signs",
    "description": "Signs",
    "phone": "(904) 278-2213",
    "address": " 2497 County Road 220  Middleburg, FL 32068",
    "location": "Clay"
  },
  {
    "name": "Sign Spinner Guys",
    "description": "Advertising Specialties",
    "phone": "(888) 985-0598",
    "address": " 1864 Inlet Cove Ct  Fleming Island, FL 32003",
    "location": "Clay"
  },
  {
    "name": "Rogers Pavement",
    "description": "Pavement & Floor Marking Services",
    "phone": "(904) 213-1080",
    "address": " 273 Jefferson Ave  Orange Park, FL 32065",
    "location": "Clay"
  },
  {
    "name": "Play to Win Sports Company Inc.",
    "description": "Embroidery",
    "phone": "(904) 735-2800",
    "address": " 331 Parkridge Ave  Orange Park, FL 32065",
    "location": "Clay"
  },
  {
    "name": "Embroider Me",
    "description": "Embroidery",
    "phone": "(904) 545-5671",
    "address": " 767 Blanding Blvd  Orange Park, FL 32065",
    "location": "Clay"
  },
  {
    "name": "Dogwood Signs",
    "description": "Advertising Specialties",
    "phone": "(904) 203-2636",
    "address": " 4886 County Road 218  Middleburg, FL 32068",
    "location": "Clay"
  },
  {
    "name": "Banners & Signs, etc.",
    "description": "Advertising Agencies",
    "phone": "(904) 272-3395",
    "address": " 1970 Solomon St  Orange Park, FL 32073",
    "location": "Clay"
  },
  {
    "name": "Viani Communications",
    "description": "Advertising Agencies",
    "phone": "(904) 688-0004",
    "address": " 2175 Kingsley Ave  Orange Park, FL 32073",
    "location": "Clay"
  },
  {
    "name": "Designasaur",
    "description": "Advertising Agencies",
    "phone": "(817) 442-5353",
    "address": " 320 Glenneyre Cir  Saint Augustine, FL 32092",
    "location": "Clay"
  },
  {
    "name": "Xsite Digital, Inc.",
    "description": "Advertising Agencies",
    "phone": "(904) 477-3667",
    "address": " 549 Dandelion Dr  Saint Johns, FL 32259",
    "location": "Clay"
  },
  {
    "name": "Chalmers Advertising & Design",
    "description": "Advertising Agencies",
    "phone": "(772) 334-7744",
    "address": " 188 Leese Dr  Saint Johns, FL 32259",
    "location": "Clay"
  },
  {
    "name": "Signal Staff",
    "description": "Advertising Agencies",
    "phone": "(904) 770-2185",
    "address": " 609 Grand Parke Dr  Saint Johns, FL 32259",
    "location": "Clay"
  },
  {
    "name": "Media Pros",
    "description": "Advertising Agencies",
    "phone": "(904) 217-7916",
    "address": " 297 Bell Branch Ln  Saint Johns, FL 32259",
    "location": "Clay"
  },
  {
    "name": "Centerstage Productions Video",
    "description": "Advertising Agencies",
    "phone": "(904) 996-0066",
    "address": " 505 Tupelo Trce  Saint Johns, FL 32259",
    "location": "Clay"
  },
  {
    "name": "Dm Mincey Marketing Inc",
    "description": "Advertising Agencies",
    "phone": "(904) 880-2720",
    "address": " 12422 Mesa Verde Trl  Jacksonville, FL 32223",
    "location": "Clay"
  },
  {
    "name": "Oscar Hinojosa Studios Inc",
    "description": "Advertising Agencies",
    "phone": "(904) 260-4348",
    "address": " 11352 Shady Brook Ln  Jacksonville, FL 32223",
    "location": "Clay"
  },
  {
    "name": "Spark Inc",
    "description": "Advertising Agencies",
    "phone": "(904) 732-4391",
    "address": " 11111 San Jose Blvd  Jacksonville, FL 32223",
    "location": "Clay"
  },
  {
    "name": "Shop Ameriprodcom",
    "description": "Advertising Agencies",
    "phone": "(904) 262-9004",
    "address": " 2950 Halcyon Ln Ste 503  Jacksonville, FL 32223",
    "location": "Clay"
  },
  {
    "name": "Andersen Advertising",
    "description": "Advertising Agencies",
    "phone": "(904) 859-8165",
    "address": " 3355 Claire Ln  Jacksonville, FL 32223",
    "location": "Clay"
  },
  {
    "name": "Pfc Church Consultants",
    "description": "Advertising Agencies",
    "phone": "(904) 268-8196",
    "address": " 5157 Breezeway Ct  Jacksonville, FL 32258",
    "location": "Clay"
  },
  {
    "name": "Hartmark Advertising Solutions",
    "description": "Advertising Agencies",
    "phone": "(904) 400-4223",
    "address": " 11933 Gran Crique Ct S  Jacksonville, FL 32223",
    "location": "Clay"
  },
  {
    "name": "SumitSEO",
    "description": "Advertising Agencies",
    "phone": "(904) 345-0944",
    "address": " 10503 San Jose Blvd Ste 4  Jacksonville, FL 32257",
    "location": "Clay"
  },
  {
    "name": "Merkley Marketing Group",
    "description": "Advertising Agencies",
    "phone": "(904) 217-3430",
    "address": " 704 Ginger Mill Dr.  St. Johns, FL 32259",
    "location": "Clay"
  },
  {
    "name": "3-D Courier Services, LLC",
    "description": "Advertising Agencies",
    "phone": "(904) 217-4572",
    "address": " 12443 San Jose Blvd Ste 802-e  Jacksonville, FL 32223",
    "location": "Clay"
  },
  {
    "name": "Sign Talk Graphix",
    "description": "Advertising Agencies",
    "phone": "(904) 737-9119",
    "address": " 12610 Cachet Dr  Jacksonville, FL 32223",
    "location": "Clay"
  },
  {
    "name": "DRIVEN2WIN",
    "description": "Advertising Agencies",
    "phone": "(904) 638-7200",
    "address": " 450 State Road 13 Ste 106  Saint Johns, FL 32259",
    "location": "Clay"
  },
  {
    "name": "Search Seek Destroy",
    "description": "Advertising Agencies",
    "phone": "(904) 469-7335",
    "address": " 11979 Colby Creek Dr  Jacksonville, FL 32258",
    "location": "Clay"
  },
  {
    "name": "Thunder Road Fx Inc",
    "description": "Advertising Agencies",
    "phone": "(904) 389-5656",
    "address": " 767 Turkey Point Dr  Orange Park, FL 32065",
    "location": "Clay"
  },
  {
    "name": "Web904.Com",
    "description": "Advertising Agencies",
    "phone": "(904) 505-0305",
    "address": " 1734 Kingsley Ave  Orange Park, FL 32073",
    "location": "Clay"
  },
  {
    "name": "Eric Kronfrost",
    "description": "Advertising Agencies",
    "phone": "(904) 527-1688",
    "address": " 3204 Wandering Oaks Dr  Orange Park, FL 32065",
    "location": "Clay"
  },
  {
    "name": "Rt Publishing",
    "description": "Advertising Agencies",
    "phone": "(904) 886-4919",
    "address": " 12443 San Jose Blvd Ste 403  Jacksonville, FL 32223",
    "location": "Clay"
  },
  {
    "name": "Corporate Concepts",
    "description": "Advertising Agencies",
    "phone": "(904) 880-8212",
    "address": " 3826 Olympic Ln  Jacksonville, FL 32223",
    "location": "Clay"
  },
  {
    "name": "Sir Speedy",
    "description": "Printing Services-Commercial",
    "phone": "(904) 269-5116",
    "address": " 1857 Wells Rd Ste 1-AB  Orange Park, FL 32073",
    "location": "Clay"
  },
  {
    "name": "Crown Trophy",
    "description": "Trophies, Plaques & Medals",
    "phone": "(904) 260-4871",
    "address": " 11792 San Jose Blvd  Jacksonville, FL 32223",
    "location": "Clay"
  },
  {
    "name": "Print-A-Shirt custom t-shirts of Jacksonville",
    "description": "T-Shirts",
    "phone": "(904) 297-8337",
    "address": " 726 State Road 13  Saint Johns, FL 32259",
    "location": "Clay"
  },
  {
    "name": "FedEx Office Print & Ship Center",
    "description": "Copying & Duplicating Service",
    "phone": "(904) 288-8380",
    "address": " 10400 San Jose Blvd Ste 7  Jacksonville, FL 32257",
    "location": "Clay"
  },
  {
    "name": "Custom Graphics and Sign Designs Inc",
    "description": "Signs",
    "phone": "(904) 264-7667",
    "address": " 230 Industrial Loop  Orange Park, FL 32073",
    "location": "Clay"
  },
  {
    "name": "American Database Marketing Inc",
    "description": "Mailing Lists",
    "phone": "(888) 565-7724",
    "address": " 12627 San Jose Blvd Ste 603  Jacksonville, FL 32223",
    "location": "Clay"
  },
  {
    "name": "Signarama",
    "description": "Signs",
    "phone": "(904) 272-8333",
    "address": " 175 Blanding Blvd  Orange Park, FL 32073",
    "location": "Clay"
  },
  {
    "name": "Signarama-Orange Park",
    "description": "Business Cards",
    "phone": "(904) 272-8333",
    "address": " 14 Blanding Blvd  Orange Park, FL 32073",
    "location": "Clay"
  },
  {
    "name": "BEST VIEW SIGNS INC",
    "description": "Signs",
    "phone": "(779) 435-9161",
    "address": " 1194 Eagle Bluff Ln  Saint Johns, FL 32259",
    "location": "Clay"
  },
  {
    "name": "Signs 'N Stuff",
    "description": "Signs",
    "phone": "(904) 272-2324",
    "address": " 410 Blanding Blvd  Orange Park, FL 32073",
    "location": "Clay"
  },
  {
    "name": "Howell Signs",
    "description": "Signs",
    "phone": "(904) 287-7549",
    "address": " 430 Fruit Cove Rd  Saint Johns, FL 32259",
    "location": "Clay"
  },
  {
    "name": "Sundancer Sign Graphics Inc",
    "description": "Signs",
    "phone": "(904) 287-4949",
    "address": " 1216 Creek Bend Rd  Saint Johns, FL 32259",
    "location": "Clay"
  },
  {
    "name": "River City Sign Company",
    "description": "Signs",
    "phone": "(904) 309-6410",
    "address": " 12025 San Jose Blvd Ste 3  Jacksonville, FL 32223",
    "location": "Clay"
  },
  {
    "name": "enCode",
    "description": "Incentive Programs",
    "phone": "(904) 501-3042",
    "address": " Po Box 600534  Jacksonville, FL 32260",
    "location": "Clay"
  },
  {
    "name": "Vizzitopia",
    "description": "Internet Marketing & Advertising",
    "phone": "(907) 217-3749",
    "address": " 12421 San Jose Blvd Ste 200g  Jacksonville, FL 32223",
    "location": "Clay"
  },
  {
    "name": "DarttSpark Marketing",
    "description": "Internet Marketing & Advertising",
    "phone": "(904) 567-7977",
    "address": " 12330 Valpariso Trl  Jacksonville, FL 32223",
    "location": "Clay"
  },
  {
    "name": "HFI Web Design",
    "description": "Internet Marketing & Advertising",
    "phone": "(904) 699-3429",
    "address": " 4514 Julington Creek Rd  Jacksonville, FL 32258",
    "location": "Clay"
  },
  {
    "name": "Daily Net Pay",
    "description": "Internet Marketing & Advertising",
    "phone": "(904) 887-8478",
    "address": " 3355 Claire Ln  Jacksonville, FL 32223",
    "location": "Clay"
  },
  {
    "name": "Signs and More",
    "description": "Advertising Specialties",
    "phone": "(904) 272-7446",
    "address": " 555 Blanding Blvd  Orange Park, FL 32073",
    "location": "Clay"
  },
  {
    "name": "Custom Graphics & Sign Designs Inc",
    "description": "Graphic Designers",
    "phone": "(904) 264-7667",
    "address": " 99 Industrial Loop N  Orange Park, FL 32073",
    "location": "Clay"
  },
  {
    "name": "Paypercallus",
    "description": "Advertising Specialties",
    "phone": "(630) 936-7112",
    "address": " 185 Celtic Wedding Dr  Jacksonville, FL 32259",
    "location": "Clay"
  },
  {
    "name": "Sumner Digital",
    "description": "Advertising Agencies",
    "phone": "(904) 239-8401",
    "address": " 11562 Derby Forest Dr  Jacksonville, FL 32258",
    "location": "Clay"
  },
  {
    "name": "LLF Incorporated",
    "description": "Advertising Specialties",
    "phone": "(904) 854-1415",
    "address": " 5570 Florida Mining Blvd S  Jacksonville, FL 32257",
    "location": "Clay"
  },
  {
    "name": "Chromatix Creative",
    "description": "Graphic Designers",
    "phone": "(904) 683-7938",
    "address": " 5771 Mining Ter Ste 201  Jacksonville, FL 32257",
    "location": "Clay"
  },
  {
    "name": "Daves Tops and Trim",
    "description": "Truck Equipment & Parts",
    "phone": "(386) 325-3313",
    "address": " 615 N Palm Ave  Palatka, FL 32177",
    "location": "Clay"
  },
  {
    "name": "Sunshine Trophies & Awards Inc",
    "description": "Trophies, Plaques & Medals",
    "phone": "(386) 328-4989",
    "address": " 239 N Highway 17  Palatka, FL 32177",
    "location": "Clay"
  },
  {
    "name": "Shark Signs of NE FL",
    "description": "Signs",
    "phone": "(904) 875-0448",
    "address": " 5317 Shen Ave  Jacksonville, FL 32205",
    "location": "Clay"
  },
  {
    "name": "B & S Signs",
    "description": "Crane Service",
    "phone": "(904) 587-1073",
    "address": " 2764 South Collins Avenue  St. Augustine, FL 32084",
    "location": "Clay"
  }
]
