[
  {
    "name": "Blackfrog Agency",
    "description": "Advertising Agencies",
    "phone": "(888) 799-6003",
    "address": " 2211 Noble Ct  Naples, FL 34110",
    "location": "Collier"
  },
  {
    "name": "Nancy Tuck",
    "description": "Advertising Agencies",
    "phone": "(239) 593-8646",
    "address": " 1590 Clermont Dr Unit 205  Naples, FL 34109",
    "location": "Collier"
  },
  {
    "name": "Effectv",
    "description": "Advertising Agencies",
    "phone": "(888) 877-9799",
    "address": " 999 Vanderbilt Beach Rd  Naples, FL 34108",
    "location": "Collier"
  },
  {
    "name": "Mediabrains Inc",
    "description": "Advertising Agencies",
    "phone": "(239) 594-3200",
    "address": " 999 Vanderbilt Beach Rd Ste 607  Naples, FL 34108",
    "location": "Collier"
  },
  {
    "name": "Scaleup Media",
    "description": "Advertising Agencies",
    "phone": "(239) 259-7474",
    "address": " 8805 Tamiami Trl N  Naples, FL 34108",
    "location": "Collier"
  },
  {
    "name": "Lokal-Naples FL",
    "description": "Advertising Agencies",
    "phone": "(239) 784-0939",
    "address": " 1085 Business Ln  Naples, FL 34110",
    "location": "Collier"
  },
  {
    "name": "Pop Advertising Partners",
    "description": "Advertising Agencies",
    "phone": "(908) 963-7766",
    "address": " 60 Emerald Woods Dr  Naples, FL 34108",
    "location": "Collier"
  },
  {
    "name": "Wilson Creative Group",
    "description": "Advertising Agencies",
    "phone": "(239) 597-9480",
    "address": " 2343 Vanderbilt Beach Rd  Naples, FL 34109",
    "location": "Collier"
  },
  {
    "name": "Gulf Media Advertising Agency",
    "description": "Advertising Agencies",
    "phone": "(239) 860-5300",
    "address": " 2430 Vanderbilt Beach Rd Ste 108-103  Naples, FL 34109",
    "location": "Collier"
  },
  {
    "name": "B2 Advertising",
    "description": "Advertising Agencies",
    "phone": "(239) 593-3600",
    "address": " 5675 Strand Ct  Naples, FL 34110",
    "location": "Collier"
  },
  {
    "name": "Spin Advertising",
    "description": "Advertising Agencies",
    "phone": "(734) 730-3374",
    "address": " 1360 Sweetwater Cv  Naples, FL 34110",
    "location": "Collier"
  },
  {
    "name": "FabLocal",
    "description": "Advertising Agencies",
    "phone": "(888) 945-5999",
    "address": " 6640 Willow Park Dr  Naples, FL 34109",
    "location": "Collier"
  },
  {
    "name": "Absher Design Group/Adg",
    "description": "Advertising Agencies",
    "phone": "(239) 596-4770",
    "address": " 5870 Spanish Oaks Ln  Naples, FL 34119",
    "location": "Collier"
  },
  {
    "name": "AdSource",
    "description": "Advertising Agencies",
    "phone": "(239) 495-0007",
    "address": " 1415 Panther Ln Suite 159  Naples, FL 34109",
    "location": "Collier"
  },
  {
    "name": "Ceeme",
    "description": "Advertising Agencies",
    "phone": "(239) 301-2847",
    "address": " 10928 K Nine Dr  Bonita Springs, FL 34135",
    "location": "Collier"
  },
  {
    "name": "American General Distributors",
    "description": "Advertising Agencies",
    "phone": "(239) 221-3650",
    "address": " 10351 Bonita Beach Rd SE  Bonita Springs, FL 34135",
    "location": "Collier"
  },
  {
    "name": "Extra Direct Inc",
    "description": "Advertising Agencies",
    "phone": "(239) 992-7038",
    "address": " 9220 Bonita Beach Rd SE  Bonita Springs, FL 34135",
    "location": "Collier"
  },
  {
    "name": "Progress Counseling",
    "description": "Advertising Agencies",
    "phone": "(239) 537-2236",
    "address": " 9200 Bonita Beach Rd SE  Bonita Springs, FL 34135",
    "location": "Collier"
  },
  {
    "name": "CHP Advertising",
    "description": "Advertising Agencies",
    "phone": "(239) 676-7658",
    "address": " 3860 Via Del Rey  Bonita Springs, FL 34134",
    "location": "Collier"
  },
  {
    "name": "A Flag It",
    "description": "Advertising Agencies",
    "phone": "(239) 396-4342",
    "address": " 27261 South Riverside Drive  Bonita Springs, FL 34135",
    "location": "Collier"
  },
  {
    "name": "Schlesinger Advertising",
    "description": "Advertising Agencies",
    "phone": "(239) 261-1146",
    "address": " 5203 Starfish Ave  Naples, FL 34103",
    "location": "Collier"
  },
  {
    "name": "The Drivers World",
    "description": "Advertising Agencies",
    "phone": "(630) 489-9339",
    "address": " 1766 Bald Eagle Dr  Naples, FL 34105",
    "location": "Collier"
  },
  {
    "name": "Cheetah Agency",
    "description": "Advertising Agencies",
    "phone": "(239) 329-0202",
    "address": " 4851 Tamiami Trl N  Naples, FL 34103",
    "location": "Collier"
  },
  {
    "name": "The Sailboat Agency",
    "description": "Advertising Agencies",
    "phone": "(239) 710-2197",
    "address": " 4850 Tamiami Trl N  Naples, FL 34103",
    "location": "Collier"
  },
  {
    "name": "Elephant Marketing & Media",
    "description": "Advertising Agencies",
    "phone": "(239) 449-6107",
    "address": " 3510 Kraft Rd Ste 200  Naples, FL 34105",
    "location": "Collier"
  },
  {
    "name": "Southern Rail MANAGEMENT",
    "description": "Advertising Agencies",
    "phone": "(239) 649-6922",
    "address": " 523 Turtle Hatch Ln  Naples, FL 34103",
    "location": "Collier"
  },
  {
    "name": "Life Christian Church",
    "description": "Advertising Agencies",
    "phone": "(239) 304-9255",
    "address": " 1005 Shady Rest Ln  Naples, FL 34103",
    "location": "Collier"
  },
  {
    "name": "Ad Designs of Naples Inc",
    "description": "Advertising Agencies",
    "phone": "(239) 263-2021",
    "address": " 838 Anchor Rode Dr  Naples, FL 34103",
    "location": "Collier"
  },
  {
    "name": "Billboards USA",
    "description": "Advertising Agencies",
    "phone": "(941) 629-1115",
    "address": " 6819 Del Mar Ter  Naples, FL 34105",
    "location": "Collier"
  },
  {
    "name": "Impact Marketing",
    "description": "Advertising Agencies",
    "phone": "(239) 304-2057",
    "address": " 2900 14th St N  Naples, FL 34103",
    "location": "Collier"
  },
  {
    "name": "Wise & Time Communications",
    "description": "Advertising Agencies",
    "phone": "(239) 495-6300",
    "address": " 28100 Bonita Grande Dr  Bonita Springs, FL 34135",
    "location": "Collier"
  },
  {
    "name": "Image Marketing Associates",
    "description": "Advertising Agencies",
    "phone": "(239) 949-3034",
    "address": " 3511 Bonita Bay Blvd  Bonita Springs, FL 34134",
    "location": "Collier"
  },
  {
    "name": "Cam-Bel Media Inc",
    "description": "Advertising Agencies",
    "phone": "(239) 390-3169",
    "address": " 8891 Brighton Ln  Bonita Springs, FL 34135",
    "location": "Collier"
  },
  {
    "name": "Cityilist",
    "description": "Advertising Agencies",
    "phone": "(239) 390-8239",
    "address": " 8891 Brighton Ln  Bonita Springs, FL 34135",
    "location": "Collier"
  },
  {
    "name": "Future Enterprises of SW Fla Inc",
    "description": "Advertising Agencies",
    "phone": "(239) 405-0464",
    "address": " PO Box 640  Bonita Springs, FL 34133",
    "location": "Collier"
  },
  {
    "name": "J L Consulting",
    "description": "Advertising Agencies",
    "phone": "(239) 992-7923",
    "address": " 9250 Cedar Creek Dr  Bonita Springs, FL 34135",
    "location": "Collier"
  },
  {
    "name": "Gravelin Consulting",
    "description": "Advertising Agencies",
    "phone": "(239) 908-7666",
    "address": " 15152 Estuary Cir  Bonita Springs, FL 34135",
    "location": "Collier"
  },
  {
    "name": "K C 54 Inc",
    "description": "Advertising Agencies",
    "phone": "(239) 495-5923",
    "address": " 26190 Mira Way  Bonita Springs, FL 34134",
    "location": "Collier"
  },
  {
    "name": "Technological Inc",
    "description": "Advertising Agencies",
    "phone": "(239) 436-7242",
    "address": " 5571 Hunter Blvd  Naples, FL 34116",
    "location": "Collier"
  },
  {
    "name": "Dave Horton Advertising",
    "description": "Advertising Agencies",
    "phone": "(239) 687-9499",
    "address": " 2128 55th St SW  Naples, FL 34116",
    "location": "Collier"
  },
  {
    "name": "Web Vocals Advertising Agency",
    "description": "Advertising Agencies",
    "phone": "(855) 977-8785",
    "address": " 4225 Heritage Cir  Naples, FL 34116",
    "location": "Collier"
  },
  {
    "name": "Boardroompr",
    "description": "Advertising Agencies",
    "phone": "(239) 360-9340",
    "address": " 3606 Enterprise Ave  Naples, FL 34104",
    "location": "Collier"
  },
  {
    "name": "Haute Image Internationale",
    "description": "Advertising Agencies",
    "phone": "(239) 692-9495",
    "address": " 1100 Commercial Blvd Ste 109  Naples, FL 34104",
    "location": "Collier"
  },
  {
    "name": "Concierge's Image",
    "description": "Advertising Agencies",
    "phone": "(239) 403-4080",
    "address": " 1100 Commercial Blvd  Naples, FL 34104",
    "location": "Collier"
  },
  {
    "name": "Mabrelia Inc",
    "description": "Advertising Agencies",
    "phone": "(239) 263-1291",
    "address": " 3673 Exchange Ave  Naples, FL 34104",
    "location": "Collier"
  },
  {
    "name": "Latino Advertising Inc",
    "description": "Advertising Agencies",
    "phone": "(239) 352-9972",
    "address": " 5424 27th Pl SW  Naples, FL 34116",
    "location": "Collier"
  },
  {
    "name": "Buttercup Studio",
    "description": "Advertising Agencies",
    "phone": "(239) 659-1032",
    "address": " 660 Tamiami Trl N  Naples, FL 34102",
    "location": "Collier"
  },
  {
    "name": "4 What Interactive",
    "description": "Advertising Agencies",
    "phone": "(239) 495-3010",
    "address": " 501 Goodlette-Frank Rd N  Naples, FL 34102",
    "location": "Collier"
  },
  {
    "name": "Wise and Time Advertising",
    "description": "Advertising Agencies",
    "phone": "(239) 495-6300",
    "address": " 25110 Bernwood Dr Unit 104  Bonita Springs, FL 34135",
    "location": "Collier"
  },
  {
    "name": "Siedhoff Consulting",
    "description": "Advertising Agencies",
    "phone": "(239) 992-6534",
    "address": " 25631 Citrus Blossom Dr  Bonita Springs, FL 34135",
    "location": "Collier"
  },
  {
    "name": "Lifestyle Community Resource Guide For Southwest Florida",
    "description": "Advertising Agencies",
    "phone": "(847) 903-0793",
    "address": " 24881 Pennyroyal Dr  Bonita Springs, FL 34134",
    "location": "Collier"
  },
  {
    "name": "SideBacon SEO Agency",
    "description": "Advertising Agencies",
    "phone": "(239) 744-2448",
    "address": " 24575 Red Robin Dr  Bonita Springs, FL 34135",
    "location": "Collier"
  },
  {
    "name": "Wright Group",
    "description": "Advertising Agencies",
    "phone": "(239) 436-1992",
    "address": " 1302 Noble Heron Way  Naples, FL 34105",
    "location": "Collier"
  },
  {
    "name": "ID Advertising and Marketing",
    "description": "Advertising Agencies",
    "phone": "(239) 417-0734",
    "address": " 255 Glen Eagle Cir  Naples, FL 34104",
    "location": "Collier"
  },
  {
    "name": "Streetwise Enterprises",
    "description": "Advertising Agencies",
    "phone": "(239) 775-9216",
    "address": " 1971 Holiday Ln  Naples, FL 34104",
    "location": "Collier"
  },
  {
    "name": "Budget Direct Ads",
    "description": "Advertising Agencies",
    "phone": "(239) 422-6468",
    "address": " 4511 32nd Ave SW  Naples, FL 34116",
    "location": "Collier"
  },
  {
    "name": "L+C Creative Group",
    "description": "Advertising Agencies",
    "phone": "(239) 228-7372",
    "address": " 849 7th Ave S  Naples, FL 34102",
    "location": "Collier"
  },
  {
    "name": "Media Display",
    "description": "Advertising Agencies",
    "phone": "(239) 530-7798",
    "address": " 2168 Tarpon Rd  Naples, FL 34102",
    "location": "Collier"
  },
  {
    "name": "Click Fraud Defender",
    "description": "Advertising Agencies",
    "phone": "(833) 343-3334",
    "address": " 23448 Olde Meadowbrook Cir  Estero, FL 34134",
    "location": "Collier"
  },
  {
    "name": "Lead Toro",
    "description": "Advertising Agencies",
    "phone": "(305) 901-5269",
    "address": " 23160 Fashion Dr Ste 229  Estero, FL 33928",
    "location": "Collier"
  },
  {
    "name": "National Cinemedia",
    "description": "Advertising Agencies",
    "phone": "(239) 948-5610",
    "address": " 22114 Seashore Cir  Estero, FL 33928",
    "location": "Collier"
  },
  {
    "name": "Ima Creative Inc",
    "description": "Advertising Agencies",
    "phone": "(239) 278-3034",
    "address": " PO Box 9  Estero, FL 33929",
    "location": "Collier"
  },
  {
    "name": "John Caskey Jr Ofc",
    "description": "Advertising Agencies",
    "phone": "(239) 732-7440",
    "address": " 2595 Tarpon Rd  Naples, FL 34102",
    "location": "Collier"
  },
  {
    "name": "Paul R Sheahan Co",
    "description": "Advertising Agencies",
    "phone": "(239) 732-1704",
    "address": " 3073 Van Buren Ave  Naples, FL 34112",
    "location": "Collier"
  },
  {
    "name": "Patricia McCann Advertising",
    "description": "Advertising Agencies",
    "phone": "(239) 465-8274",
    "address": " 3605 Boca Ciega Dr  Naples, FL 34112",
    "location": "Collier"
  },
  {
    "name": "Ad Depot",
    "description": "Advertising Agencies",
    "phone": "(239) 435-9410",
    "address": " 4670 Cardinal Way  Naples, FL 34112",
    "location": "Collier"
  },
  {
    "name": "SMS Consultants Inc",
    "description": "Advertising Agencies",
    "phone": "(239) 455-3831",
    "address": " 2819 Orange Grove Trl  Naples, FL 34120",
    "location": "Collier"
  },
  {
    "name": "44i, Inc.",
    "description": "Advertising Agencies",
    "phone": "(239) 940-5781",
    "address": " 7523 Moorgate Point Way  Naples, FL 34113",
    "location": "Collier"
  },
  {
    "name": "Magnolia Advertising Spec",
    "description": "Advertising Agencies",
    "phone": "(239) 775-7070",
    "address": " 5346 Sholtz St  Naples, FL 34113",
    "location": "Collier"
  },
  {
    "name": "Le Palavra Group",
    "description": "Advertising Agencies",
    "phone": "(239) 324-1084",
    "address": " 165 1st St  Naples, FL 34113",
    "location": "Collier"
  },
  {
    "name": "Valva George",
    "description": "Advertising Agencies",
    "phone": "(239) 774-2040",
    "address": " 770 Eagle Creek Dr  Naples, FL 34113",
    "location": "Collier"
  },
  {
    "name": "Leonard K Stark Consultant Service",
    "description": "Advertising Agencies",
    "phone": "(239) 793-4458",
    "address": " 511 Eagle Creek Dr  Naples, FL 34113",
    "location": "Collier"
  },
  {
    "name": "Wci Communities Limited",
    "description": "Advertising Agencies",
    "phone": "(239) 948-4218",
    "address": " 20916 Island Sound Cir  Estero, FL 33928",
    "location": "Collier"
  },
  {
    "name": "Atlantic1 Media",
    "description": "Advertising Agencies",
    "phone": "(239) 908-3866",
    "address": " 3793 Costa Maya Way  Estero, FL 33928",
    "location": "Collier"
  },
  {
    "name": "Creativenergy Design",
    "description": "Advertising Agencies",
    "phone": "(239) 303-4673",
    "address": " 20455 Ardore Ln  Estero, FL 33928",
    "location": "Collier"
  },
  {
    "name": "Infinity One Group",
    "description": "Advertising Agencies",
    "phone": "(239) 498-0400",
    "address": " 20408 Ardore Ln  Estero, FL 33928",
    "location": "Collier"
  },
  {
    "name": "Song and Film",
    "description": "Advertising Agencies",
    "phone": "(239) 267-1590",
    "address": " 8108 Sandpiper Rd  Fort Myers, FL 33967",
    "location": "Collier"
  },
  {
    "name": "Patricia J Walsh Td Inc",
    "description": "Advertising Agencies",
    "phone": "(239) 246-1434",
    "address": " 17388 Homewood Rd  Fort Myers, FL 33967",
    "location": "Collier"
  },
  {
    "name": "M C & R Marketing Enterprises",
    "description": "Advertising Agencies",
    "phone": "(239) 463-0328",
    "address": " 345 Donora Blvd  Fort Myers Beach, FL 33931",
    "location": "Collier"
  },
  {
    "name": "Cohen Creative Designs",
    "description": "Advertising Agencies",
    "phone": "(239) 288-6470",
    "address": " 7830 Drew Cir  Fort Myers, FL 33967",
    "location": "Collier"
  },
  {
    "name": "PRC Group",
    "description": "Advertising Agencies",
    "phone": "(239) 437-4370",
    "address": " 17743 Grande Bayou Ct  Fort Myers, FL 33908",
    "location": "Collier"
  },
  {
    "name": "Paradise Advertising and Design",
    "description": "Advertising Agencies",
    "phone": "(239) 233-8652",
    "address": " 1661 Estero Blvd  Fort Myers Beach, FL 33931",
    "location": "Collier"
  },
  {
    "name": "Driven By Design",
    "description": "Advertising Agencies",
    "phone": "(239) 225-6137",
    "address": " 8580 Sumner Ave  Fort Myers, FL 33908",
    "location": "Collier"
  },
  {
    "name": "Gulf Bay Advertising Agency",
    "description": "Advertising Agencies",
    "phone": "(239) 732-9400",
    "address": " 8156 Fiddlers Creek Pkwy  Naples, FL 34114",
    "location": "Collier"
  },
  {
    "name": "Valpak of Southwest Florida",
    "description": "Advertising Agencies",
    "phone": "(239) 594-3531",
    "address": " 10681 Airport-Pulling Rd Suite 21  Naples, FL 34109",
    "location": "Collier"
  },
  {
    "name": "Abovewater Public Relations",
    "description": "Advertising Agencies",
    "phone": "(239) 596-9149",
    "address": " 107 Madison Dr  Naples, FL 34110",
    "location": "Collier"
  },
  {
    "name": "Gulfshore Life Magazine",
    "description": "Advertising Agencies",
    "phone": "(239) 594-9980",
    "address": " 9051 Tamiami Trl N Ste 202  Naples, FL 34108",
    "location": "Collier"
  },
  {
    "name": "Mona Lisa Graphic Design",
    "description": "Advertising Agencies",
    "phone": "(239) 325-1860",
    "address": " 999 Vanderbilt Beach Rd Ste 200  Naples, FL 34108",
    "location": "Collier"
  },
  {
    "name": "ActiveData Digital Marketing",
    "description": "Advertising Agencies",
    "phone": "(239) 465-0310",
    "address": " 1004 Collier Center Way Ste 206  Naples, FL 34110",
    "location": "Collier"
  },
  {
    "name": "Astute Marketing and Consulting",
    "description": "Advertising Agencies",
    "phone": "(239) 284-2340",
    "address": " 2430 Vanderbilt Beach Rd  Naples, FL 34109",
    "location": "Collier"
  },
  {
    "name": "Glenn Torres | The Godfather Of Marketing",
    "description": "Advertising Agencies",
    "phone": "(239) 567-9937",
    "address": " 16230 Allura Cir  Naples, FL 34110",
    "location": "Collier"
  },
  {
    "name": "Tca Graphics Inc",
    "description": "Advertising Agencies",
    "phone": "(239) 325-9857",
    "address": " 6835 Lantana Bridge Rd  Naples, FL 34109",
    "location": "Collier"
  },
  {
    "name": "B-Squared Advertising",
    "description": "Advertising Agencies",
    "phone": "(239) 593-3600",
    "address": " 5675 Strand Ct  Naples, FL 34110",
    "location": "Collier"
  },
  {
    "name": "Industrial Distribution Resources",
    "description": "Advertising Agencies",
    "phone": "(239) 591-3777",
    "address": " 6609 Willow Park Dr  Naples, FL 34109",
    "location": "Collier"
  },
  {
    "name": "Smart Marketing",
    "description": "Advertising Agencies",
    "phone": "(239) 403-7755",
    "address": " 6240 Shirley St  Naples, FL 34109",
    "location": "Collier"
  },
  {
    "name": "Internet Marketing Logic",
    "description": "Advertising Agencies",
    "phone": "(239) 495-3940",
    "address": " 3301 Bonita Beach Rd Ste 308  Bonita Springs, FL 34134",
    "location": "Collier"
  },
  {
    "name": "Discount Emails USA",
    "description": "Advertising Agencies",
    "phone": "(239) 248-0049",
    "address": " 2290 Saturnia Grande Dr  Naples, FL 34119",
    "location": "Collier"
  },
  {
    "name": "Hanalex Corp",
    "description": "Advertising Agencies",
    "phone": "(239) 643-5545",
    "address": " 545 Wedgewood Way  Naples, FL 34119",
    "location": "Collier"
  },
  {
    "name": "B3 Marketing Naples Fl Office",
    "description": "Advertising Agencies",
    "phone": "(561) 405-1299",
    "address": " 7925 Preserve Cir Apt 328  Naples, FL 34119",
    "location": "Collier"
  },
  {
    "name": "Koller Marketing Group",
    "description": "Advertising Agencies",
    "phone": "(239) 293-4659",
    "address": " 8710 Ibis Cove Cir  Naples, FL 34119",
    "location": "Collier"
  },
  {
    "name": "DREAMFly Marketing",
    "description": "Advertising Agencies",
    "phone": "(239) 682-0082",
    "address": " 6145 Montelena Cir Apt 5102  Naples, FL 34119",
    "location": "Collier"
  },
  {
    "name": "Smart Markiting",
    "description": "Advertising Agencies",
    "phone": "(239) 403-7556",
    "address": " 3033 Riviera Dr  Naples, FL 34103",
    "location": "Collier"
  },
  {
    "name": "Guest Informant",
    "description": "Advertising Agencies",
    "phone": "(239) 434-8328",
    "address": " 2900 14th St N  Naples, FL 34103",
    "location": "Collier"
  },
  {
    "name": "W&T Communications",
    "description": "Advertising Agencies",
    "phone": "(239) 495-6300",
    "address": " 27499 Riverview Center Blvd Ste 105  Bonita Springs, FL 34134",
    "location": "Collier"
  },
  {
    "name": "Beedash",
    "description": "Advertising Agencies",
    "phone": "(239) 228-8837",
    "address": " 3521 Bonita Bay Blvd Ste 100  Bonita Springs, FL 34134",
    "location": "Collier"
  },
  {
    "name": "Whirlwind Media Service",
    "description": "Advertising Agencies",
    "phone": "(239) 390-3169",
    "address": " 8891 Brighton Ln  Bonita Springs, FL 34135",
    "location": "Collier"
  },
  {
    "name": "Arma Communications, Inc.",
    "description": "Advertising Agencies",
    "phone": "(239) 248-0460",
    "address": " 225 Banyan Blvd Ste 220  Naples, FL 34102",
    "location": "Collier"
  },
  {
    "name": "Avenue Visual",
    "description": "Advertising Agencies",
    "phone": "(239) 961-6810",
    "address": " 3606 Enterprise Ave Ste 307  Naples, FL 34104",
    "location": "Collier"
  },
  {
    "name": "Fiddler Productions Film Video",
    "description": "Advertising Agencies",
    "phone": "(239) 435-1818",
    "address": " 4707 Enterprise Ave  Naples, FL 34104",
    "location": "Collier"
  },
  {
    "name": "GpL Printing Company",
    "description": "Advertising Agencies",
    "phone": "(239) 331-9975",
    "address": " 1011 Radio Rd  Naples, FL 34104",
    "location": "Collier"
  },
  {
    "name": "Intech Printing & Direct Mail",
    "description": "Advertising Agencies",
    "phone": "(239) 643-3430",
    "address": " 4408 Corporate Sq  Naples, FL 34104",
    "location": "Collier"
  },
  {
    "name": "AdvMark Cross Media",
    "description": "Advertising Agencies",
    "phone": "(239) 273-6352",
    "address": " 8532 Via Lungomare Cir  Estero, FL 33928",
    "location": "Collier"
  },
  {
    "name": "Naples Digital Marketing Agency Fannit",
    "description": "Advertising Agencies",
    "phone": "(239) 345-3680",
    "address": " 811 Wilson Blvd S  Naples, FL 34117",
    "location": "Collier"
  },
  {
    "name": "Sunset Marketing",
    "description": "Advertising Agencies",
    "phone": "(727) 755-8239",
    "address": " 5972 cerromar dr  naples, FL 34112",
    "location": "Collier"
  },
  {
    "name": "Lasso Up",
    "description": "Advertising Agencies",
    "phone": "(888) 700-9412",
    "address": " 6229 Union Island Way  Naples, FL 34113",
    "location": "Collier"
  },
  {
    "name": "Maximum Potential Marketing",
    "description": "Advertising Agencies",
    "phone": "(239) 323-1885",
    "address": " 4570 20th St NE  Naples, FL 34120",
    "location": "Collier"
  },
  {
    "name": "Reverb Media Inc",
    "description": "Advertising Agencies",
    "phone": "(239) 919-3353",
    "address": " 930 Everglades Blvd S  Naples, FL 34117",
    "location": "Collier"
  },
  {
    "name": "Lake Michigan Marketing",
    "description": "Advertising Agencies",
    "phone": "(616) 884-0058",
    "address": " 20641 Rivers Frd  Estero, FL 33928",
    "location": "Collier"
  },
  {
    "name": "Powers Advertising",
    "description": "Advertising Agencies",
    "phone": "(239) 244-1767",
    "address": " 17502 Brentwood Ct  Fort Myers, FL 33967",
    "location": "Collier"
  },
  {
    "name": "Maven Promotions Inc",
    "description": "Advertising Agencies",
    "phone": "(239) 267-6397",
    "address": " 7328 Pebble Beach Rd  Fort Myers, FL 33967",
    "location": "Collier"
  },
  {
    "name": "Signs In One Day",
    "description": "Advertising Agencies",
    "phone": "(239) 267-5500",
    "address": " 17100 Phlox Dr  Fort Myers, FL 33967",
    "location": "Collier"
  },
  {
    "name": "Coral Canyon",
    "description": "Internet Marketing & Advertising",
    "phone": "(239) 571-7518",
    "address": " 164 Coral Vine Dr  Naples, FL 34110",
    "location": "Collier"
  },
  {
    "name": "Smiley Graphics & Promotions",
    "description": "Graphic Designers",
    "phone": "(239) 298-4691",
    "address": " 10611 Tamiami Trl N Ste A  Naples, FL 34108",
    "location": "Collier"
  },
  {
    "name": "Paulich Specialty Company Inc",
    "description": "Advertising Specialties",
    "phone": "(239) 597-4636",
    "address": " 9331 Tamiami Trl N  Naples, FL 34108",
    "location": "Collier"
  },
  {
    "name": "AVE MARIA WEB, LLC",
    "description": "Internet Marketing & Advertising",
    "phone": "(239) 675-3080",
    "address": " 9128 Strada Pl Ste 10115  Naples, FL 34108",
    "location": "Collier"
  },
  {
    "name": "Search Mavericks",
    "description": "Internet Marketing & Advertising",
    "phone": "(877) 388-1392",
    "address": " 9128 Strada Pl  Naples, FL 34108",
    "location": "Collier"
  },
  {
    "name": "Naples Herald Inc",
    "description": "Advertising Specialties",
    "phone": "(877) 498-4400",
    "address": " 9128 Strada Pl Ste 10115  Naples, FL 34108",
    "location": "Collier"
  },
  {
    "name": "KNUT",
    "description": "Internet Marketing & Advertising",
    "phone": "(239) 880-5688",
    "address": " 999 Vanderbilt Beach Rd Ste 200  Naples, FL 34108",
    "location": "Collier"
  },
  {
    "name": "Dragon Horse Ad Agency",
    "description": "Advertising Specialties",
    "phone": "(305) 306-3992",
    "address": " 999 Vanderbilt Beach Rd Ste 200  Naples, FL 34108",
    "location": "Collier"
  },
  {
    "name": "Spectrum Signworks",
    "description": "Signs",
    "phone": "(239) 908-0505",
    "address": " 1035 Collier Center Way Ste 5  Naples, FL 34110",
    "location": "Collier"
  },
  {
    "name": "Inline Printing L.L.C.",
    "description": "Print Advertising",
    "phone": "(239) 431-0747",
    "address": " 1085 Business Ln Ste 1  Naples, FL 34110",
    "location": "Collier"
  },
  {
    "name": "Access Marketing Services",
    "description": "Direct Mail Advertising",
    "phone": "(239) 254-0175",
    "address": " 1085 Business Ln Ste 4  Naples, FL 34110",
    "location": "Collier"
  },
  {
    "name": "Crowdreviews.com",
    "description": "Internet Marketing & Advertising",
    "phone": "(239) 234-1996",
    "address": " 9045 Strada Stell Ct  Naples, FL 34109",
    "location": "Collier"
  },
  {
    "name": "I M",
    "description": "Direct Mail Advertising",
    "phone": "(239) 596-1550",
    "address": " 9101 Vanderbilt Dr  Naples, FL 34108",
    "location": "Collier"
  },
  {
    "name": "Rusty Hat Enterprises",
    "description": "Internet Marketing & Advertising",
    "phone": "(239) 287-0193",
    "address": " 460 Launch Cir Apt 303  Naples, FL 34108",
    "location": "Collier"
  },
  {
    "name": "Vertigo Group USA",
    "description": "Signs",
    "phone": "(239) 465-4833",
    "address": " 410 Flagship Dr  Naples, FL 34108",
    "location": "Collier"
  },
  {
    "name": "FedEx Office Print & Ship Center",
    "description": "Copying & Duplicating Service",
    "phone": "(239) 566-7108",
    "address": " 2367 Vanderbilt Beach Rd Ste 801  Naples, FL 34109",
    "location": "Collier"
  },
  {
    "name": "Designs Signs & Woodwork",
    "description": "Signs",
    "phone": "(239) 597-6441",
    "address": " 1320 Rail Head Blvd  Naples, FL 34110",
    "location": "Collier"
  },
  {
    "name": "Hospital Marketing Solutions LLC",
    "description": "Internet Marketing & Advertising",
    "phone": "(239) 352-9242",
    "address": " 2430 Vanderbilt Beach Rd Ste 108  Naples, FL 34109",
    "location": "Collier"
  },
  {
    "name": "Laissez-Faire Media Group",
    "description": "Advertising-Broadcast & Film",
    "phone": "(239) 227-9537",
    "address": " 5633 Strand Blvd  Naples, FL 34110",
    "location": "Collier"
  },
  {
    "name": "FedEx Ship Center",
    "description": "Air Cargo & Package Express Service",
    "phone": "(800) 463-3339",
    "address": " 1485 Rail Head Blvd Ste 1  Naples, FL 34110",
    "location": "Collier"
  },
  {
    "name": "Bisnista Michelle Inc.",
    "description": "Business Coaches & Consultants",
    "phone": "(850) 966-3010",
    "address": " 5660 Strand Court #A204  Naples, FL 34110",
    "location": "Collier"
  },
  {
    "name": "DNA",
    "description": "Internet Marketing & Advertising",
    "phone": "(239) 592-4478",
    "address": " 2155 Malibu Lake Cir  Naples, FL 34119",
    "location": "Collier"
  },
  {
    "name": "Market This",
    "description": "Advertising Specialties",
    "phone": "(239) 431-6524",
    "address": " 864 Turtle Ct  Naples, FL 34108",
    "location": "Collier"
  },
  {
    "name": "Digital Marketing & Imaging",
    "description": "Marketing Consultants",
    "phone": "(239) 597-0002",
    "address": " 6729 Autumn Woods Blvd  Naples, FL 34109",
    "location": "Collier"
  },
  {
    "name": "BLU NEXT WEB",
    "description": "Web Site Design & Services",
    "phone": "(239) 287-8105",
    "address": " 2205 Arbour Walk Cir Apt 916  Naples, FL 34109",
    "location": "Collier"
  },
  {
    "name": "Nature Trade Ctr Inc",
    "description": "Advertising Specialties",
    "phone": "(239) 592-0753",
    "address": " 1915 Trade Center Way  Naples, FL 34109",
    "location": "Collier"
  },
  {
    "name": "Alpha Web Marketing, LLC",
    "description": "Internet Marketing & Advertising",
    "phone": "(239) 908-6884",
    "address": " 2055 Trade Center Way  Naples, FL 34109",
    "location": "Collier"
  },
  {
    "name": "Proforma Dynamic Image Solutions Ll C",
    "description": "Advertising Specialties",
    "phone": "(239) 592-0086",
    "address": " 2277 Trade Center Way  Naples, FL 34109",
    "location": "Collier"
  },
  {
    "name": "Artful Signs",
    "description": "Signs",
    "phone": "(239) 431-7356",
    "address": " 6345 Janes Ln  Naples, FL 34109",
    "location": "Collier"
  },
  {
    "name": "Collier Signs",
    "description": "Signs",
    "phone": "(239) 597-0390",
    "address": " 2298 J And C Blvd  Naples, FL 34109",
    "location": "Collier"
  },
  {
    "name": "Municipal Supply and Sign Co",
    "description": "Advertising Specialties",
    "phone": "(239) 631-5216",
    "address": " 6203 Janes Ln  Naples, FL 34109",
    "location": "Collier"
  },
  {
    "name": "Signpro Graphics",
    "description": "Signs",
    "phone": "(239) 597-0390",
    "address": " 6222 Lee Ann Ln  Naples, FL 34109",
    "location": "Collier"
  },
  {
    "name": "Naples Signs",
    "description": "Signs",
    "phone": "(239) 594-8494",
    "address": " 5935 Taylor Rd  Naples, FL 34109",
    "location": "Collier"
  },
  {
    "name": "Lykins Signtek Inc",
    "description": "Signs",
    "phone": "(239) 594-8494",
    "address": " 5935 Taylor Rd  Naples, FL 34109",
    "location": "Collier"
  },
  {
    "name": "O K Koral Marketing",
    "description": "Marketing Consultants",
    "phone": "(239) 250-0071",
    "address": " 11398 Phoenix Way  Naples, FL 34119",
    "location": "Collier"
  },
  {
    "name": "Triangle Systems Inc",
    "description": "Direct Mail Advertising",
    "phone": "(412) 937-9656",
    "address": " 5801 Pelican Bay Blvd  Naples, FL 34108",
    "location": "Collier"
  },
  {
    "name": "Awesome Signs of SWFL",
    "description": "Signs",
    "phone": "(239) 514-7446",
    "address": " 5430 Jaeger Rd Ste 103  Naples, FL 34109",
    "location": "Collier"
  },
  {
    "name": "I Center Advertising",
    "description": "Advertising Specialties",
    "phone": "(239) 593-6110",
    "address": " 1415 Panther Ln  Naples, FL 34109",
    "location": "Collier"
  },
  {
    "name": "Elektrosign",
    "description": "Advertising Specialties",
    "phone": "(239) 390-1579",
    "address": " 28910 Bermuda Pointe Cir  Bonita Springs, FL 34134",
    "location": "Collier"
  },
  {
    "name": "FASTSIGNS",
    "description": "Signs",
    "phone": "(239) 880-8858",
    "address": " 28440 Old 41 Rd  Bonita Springs, FL 34135",
    "location": "Collier"
  },
  {
    "name": "Artful Signs Inc",
    "description": "Signs",
    "phone": "(239) 221-7891",
    "address": " 28400 Old 41 Rd  Bonita Springs, FL 34135",
    "location": "Collier"
  },
  {
    "name": "Bonita Print Shop",
    "description": "Signs",
    "phone": "(239) 992-8522",
    "address": " 28200 Old 41 Rd Unit 206  Bonita Springs, FL 34135",
    "location": "Collier"
  },
  {
    "name": "Not Just Websites LLC",
    "description": "Web Site Design & Services",
    "phone": "(239) 878-9310",
    "address": " 28210 Old 41 Rd, Suite 301  Bonita Springs, FL 34135",
    "location": "Collier"
  },
  {
    "name": "Rgb Signs",
    "description": "Advertising Specialties",
    "phone": "(239) 495-9800",
    "address": " 10060 Bonita Beach Rd SE  Bonita Springs, FL 34135",
    "location": "Collier"
  },
  {
    "name": "Signarama",
    "description": "Signs",
    "phone": "(239) 319-5882",
    "address": " 8951 Bonita Beach Rd SE  Bonita Springs, FL 34135",
    "location": "Collier"
  },
  {
    "name": "Ernie's Signs",
    "description": "Signs",
    "phone": "(239) 992-0800",
    "address": " 3901 Bonita Beach Rd  Bonita Springs, FL 34134",
    "location": "Collier"
  },
  {
    "name": "Motor Club of America (MCA)",
    "description": "Internet Marketing & Advertising",
    "phone": "(850) 792-6622",
    "address": " Amanda Lane  Naples, FL 34109",
    "location": "Collier"
  },
  {
    "name": "PipelinePRO",
    "description": "Web Site Design & Services",
    "phone": "(877) 262-0120",
    "address": " 4850 Tamiami Trl N Unit 301  Naples, FL 34103",
    "location": "Collier"
  },
  {
    "name": "Trifecta Marketing",
    "description": "Direct Mail Advertising",
    "phone": "(239) 641-8633",
    "address": " 2224 Heritage Greens Dr  Naples, FL 34119",
    "location": "Collier"
  },
  {
    "name": "Watchdog City",
    "description": "Internet Marketing & Advertising",
    "phone": "(239) 449-8045",
    "address": " 4760 Tamiami Trl N Ste 1A  Naples, FL 34103",
    "location": "Collier"
  },
  {
    "name": "EyeMagination",
    "description": "Internet Marketing & Advertising",
    "phone": "(941) 375-0352",
    "address": " 1791 Morning Sun Ln  Naples, FL 34119",
    "location": "Collier"
  },
  {
    "name": "A Sound Choice Entertainment",
    "description": "Internet Marketing & Advertising",
    "phone": "(239) 352-9988",
    "address": " 14534 Indigo Lakes Cir  Naples, FL 34119",
    "location": "Collier"
  },
  {
    "name": "Surf Web Design & Internet Marketing",
    "description": "Internet Marketing & Advertising",
    "phone": "(239) 434-7095",
    "address": " 1049 Trail Terrace Dr  Naples, FL 34103",
    "location": "Collier"
  },
  {
    "name": "Cecil Copy Express",
    "description": "Copying & Duplicating Service",
    "phone": "(239) 353-4285",
    "address": " 13040 Livingston Rd Ste 14  Naples, FL 34105",
    "location": "Collier"
  },
  {
    "name": "www.insidetraveltoday.com",
    "description": "Internet Marketing & Advertising",
    "phone": "(239) 692-3355",
    "address": " 2697 Poinciana Dr  Naples, FL 34105",
    "location": "Collier"
  },
  {
    "name": "WBN Marketing",
    "description": "Internet Marketing & Advertising",
    "phone": "(239) 919-0933",
    "address": " 15275 Collier Blvd  Naples, FL 34119",
    "location": "Collier"
  },
  {
    "name": "Source Interlink Co",
    "description": "Direct Mail Advertising",
    "phone": "(239) 430-4510",
    "address": " 3401 Gulf Shore Blvd N  Naples, FL 34103",
    "location": "Collier"
  },
  {
    "name": "Beasley Broadcast Group Inc",
    "description": "Advertising-Broadcast & Film",
    "phone": "(239) 263-5000",
    "address": " 3033 Riviera Dr Ste 200  Naples, FL 34103",
    "location": "Collier"
  },
  {
    "name": "Totes of the Town LLC",
    "description": "Advertising-Promotional Products",
    "phone": "(239) 878-3357",
    "address": " 2900 14th St N  Naples, FL 34103",
    "location": "Collier"
  },
  {
    "name": "Internet Marketing Logic, Inc.",
    "description": "Internet Marketing & Advertising",
    "phone": "(239) 495-3940",
    "address": " 27499 Riverview Center Blvd  Bonita Springs, FL 34134",
    "location": "Collier"
  },
  {
    "name": "Signs on Demand",
    "description": "Signs",
    "phone": "(239) 494-1461",
    "address": " 28711 10 Sdiesel  Bonita Springs, FL 34135",
    "location": "Collier"
  },
  {
    "name": "Circle Consultants",
    "description": "Copy Writers",
    "phone": "(239) 244-1156",
    "address": " 26455 Old 41 Rd  Bonita Springs, FL 34135",
    "location": "Collier"
  },
  {
    "name": "WYN Media LLC",
    "description": "Internet Marketing & Advertising",
    "phone": "(239) 359-6255",
    "address": " 28150 Crest Preserve Circle  Bonita Springs, FL 34135",
    "location": "Collier"
  },
  {
    "name": "Signarama Bonita Springs, FL",
    "description": "Signs",
    "phone": "(239) 319-5882",
    "address": " 3181 N Bay Village Ct Unit 200  Bonita Springs, FL 34135",
    "location": "Collier"
  },
  {
    "name": "Michael Pilko Digital Media",
    "description": "Internet Marketing & Advertising",
    "phone": "(616) 402-9986",
    "address": " 28070 Sosta Ln  Bonita Springs, FL 34135",
    "location": "Collier"
  },
  {
    "name": "R G B Internet Systems",
    "description": "Internet Marketing & Advertising",
    "phone": "(239) 403-9966",
    "address": " 3050 Horseshoe Dr N Ste 200  Naples, FL 34104",
    "location": "Collier"
  },
  {
    "name": "Vu Studios",
    "description": "Internet Marketing & Advertising",
    "phone": "(239) 228-9300",
    "address": " 475 Tamiami Trl N  Naples, FL 34102",
    "location": "Collier"
  },
  {
    "name": "Naples Flags",
    "description": "Signs",
    "phone": "(239) 263-4337",
    "address": " 2335 Tamiami Trl N  Naples, FL 34103",
    "location": "Collier"
  },
  {
    "name": "Naples Engraving & Trophies",
    "description": "Trophies, Plaques & Medals",
    "phone": "(239) 263-4449",
    "address": " 2093 Tamiami Trl N  Naples, FL 34102",
    "location": "Collier"
  },
  {
    "name": "Mail Direct Services Inc",
    "description": "Direct Mail Advertising",
    "phone": "(239) 774-5224",
    "address": " 5571 Hunter Blvd  Naples, FL 34116",
    "location": "Collier"
  },
  {
    "name": "Ft Myers Savings Network",
    "description": "Internet Marketing & Advertising",
    "phone": "(941) 677-8658",
    "address": " 1185 14th Ave N  Naples, FL 34102",
    "location": "Collier"
  },
  {
    "name": "Hawkeye Sign Co",
    "description": "Signs",
    "phone": "(239) 643-4420",
    "address": " 3772 Arnold Ave  Naples, FL 34104",
    "location": "Collier"
  },
  {
    "name": "Diamond Concierge",
    "description": "Advertising Specialties",
    "phone": "(239) 302-6041",
    "address": " 2488 River Reach Dr  Naples, FL 34104",
    "location": "Collier"
  },
  {
    "name": "Signcraft Signs & Things",
    "description": "Signs-Maintenance & Repair",
    "phone": "(239) 643-4404",
    "address": " 3649 Progress Ave  Naples, FL 34104",
    "location": "Collier"
  },
  {
    "name": "The Neon Shop",
    "description": "Signs",
    "phone": "(239) 643-5065",
    "address": " 3649 Progress Ave  Naples, FL 34104",
    "location": "Collier"
  },
  {
    "name": "Signs Craft",
    "description": "Signs",
    "phone": "(239) 643-1777",
    "address": " 3649 Progress Ave  Naples, FL 34104",
    "location": "Collier"
  },
  {
    "name": "Visio Signs",
    "description": "Signs",
    "phone": "(239) 293-4441",
    "address": " 2805 S Horseshoe Dr  Naples, FL 34104",
    "location": "Collier"
  },
  {
    "name": "Signs By Tomorrow",
    "description": "Signs",
    "phone": "(239) 261-8970",
    "address": " 2805 Horseshoe Dr S Ste 5  Naples, FL 34104",
    "location": "Collier"
  },
  {
    "name": "Gator Graphix",
    "description": "Advertising Specialties",
    "phone": "(239) 643-4902",
    "address": " 4106 Progress Ave  Naples, FL 34104",
    "location": "Collier"
  },
  {
    "name": "Signs Now",
    "description": "Signs",
    "phone": "(239) 261-8970",
    "address": " 2960 Horseshoe Dr S Ste 200  Naples, FL 34104",
    "location": "Collier"
  },
  {
    "name": "Allegra Marketing Print Mail",
    "description": "Direct Mail Advertising",
    "phone": "(239) 643-2442",
    "address": " 3930 Domestic Ave  Naples, FL 34104",
    "location": "Collier"
  },
  {
    "name": "International Delivery Solutions",
    "description": "Mail & Shipping Services",
    "phone": "(877) 437-8722",
    "address": " 3508 Enterprise Ave Ste 100  Naples, FL 34104",
    "location": "Collier"
  },
  {
    "name": "Agingcare.com",
    "description": "Internet Marketing & Advertising",
    "phone": "(239) 594-3202",
    "address": " 720 Goodlette-Frank Rd N  Naples, FL 34102",
    "location": "Collier"
  },
  {
    "name": "Leed Signs",
    "description": "Signs",
    "phone": "(239) 262-0793",
    "address": " 4063 Enterprise Ave  Naples, FL 34104",
    "location": "Collier"
  },
  {
    "name": "Studio Design USA -Boat And Vehicle Wrap Specialist",
    "description": "Graphic Designers",
    "phone": "(239) 451-5142",
    "address": " 4110 Enterprise Ave Ste 211  Naples, FL 34104",
    "location": "Collier"
  },
  {
    "name": "Franken Signs",
    "description": "Signs",
    "phone": "(239) 692-8570",
    "address": " 4120 Enterprise Ave  Naples, FL 34104",
    "location": "Collier"
  },
  {
    "name": "iPrint Graphix Vehicle Wraps",
    "description": "Shirts-Custom Made",
    "phone": "(239) 963-9319",
    "address": " 4573 Enterprise Ave Ste 5  Naples, FL 34104",
    "location": "Collier"
  },
  {
    "name": "D&G Design Group Inc",
    "description": "Interior Designers & Decorators",
    "phone": "(239) 434-9669",
    "address": " 4584 Enterprise Ave Ste 3  Naples, FL 34104",
    "location": "Collier"
  },
  {
    "name": "Mega Graphx Inc",
    "description": "Signs",
    "phone": "(239) 304-8288",
    "address": " 4670 Enterprise Ave  Naples, FL 34104",
    "location": "Collier"
  },
  {
    "name": "Visual Concepts",
    "description": "Signs",
    "phone": "(239) 213-0399",
    "address": " 4730 Enterprise Ave Ste 306  Naples, FL 34104",
    "location": "Collier"
  },
  {
    "name": "Signs N Wraps",
    "description": "Signs",
    "phone": "(239) 228-7596",
    "address": " 4740 Enterprise Ave  Naples, FL 34104",
    "location": "Collier"
  },
  {
    "name": "LEED SIGNS Incorporated",
    "description": "Signs",
    "phone": "(239) 300-3807",
    "address": " 3673 Prospect Ave Ste C  Naples, FL 34104",
    "location": "Collier"
  },
  {
    "name": "Tintology Inc",
    "description": "Copying & Duplicating Service",
    "phone": "(239) 330-7921",
    "address": " 4766 Golden Gate Pkwy  Naples, FL 34116",
    "location": "Collier"
  },
  {
    "name": "American Led Technology",
    "description": "Signs",
    "phone": "(239) 234-6490",
    "address": " 3992 Prospect Ave  Naples, FL 34104",
    "location": "Collier"
  },
  {
    "name": "American Promotional Products",
    "description": "Advertising Specialties",
    "phone": "(239) 353-7731",
    "address": " 222 Industrial Blvd Ste 137  Naples, FL 34104",
    "location": "Collier"
  },
  {
    "name": "An Organized You",
    "description": "Data Processing Service",
    "phone": "(239) 248-6655",
    "address": " PO Box 9278  Naples, FL 34101",
    "location": "Collier"
  },
  {
    "name": "Errand Family",
    "description": "Internet Marketing & Advertising",
    "phone": "(239) 403-4003",
    "address": " 267 Airport Rd S  Naples, FL 34104",
    "location": "Collier"
  },
  {
    "name": "McBroom's Signs & Graphics",
    "description": "Signs",
    "phone": "(239) 949-9804",
    "address": " 25241 Bernwood Dr  Bonita Springs, FL 34135",
    "location": "Collier"
  },
  {
    "name": "Jgmapfj.com",
    "description": "Internet Marketing & Advertising",
    "phone": "(414) 666-2227",
    "address": " 26132 Fawnwood Ct  Bonita Springs, FL 34134",
    "location": "Collier"
  },
  {
    "name": "Yachtsign Inc",
    "description": "Signs",
    "phone": "(239) 992-8194",
    "address": " 25150 Bernwood Dr  Bonita Springs, FL 34135",
    "location": "Collier"
  },
  {
    "name": "Allovermedia Southwest Florida",
    "description": "Direct Mail Advertising",
    "phone": "(239) 495-0326",
    "address": " 12310 Isabella Dr  Bonita Springs, FL 34135",
    "location": "Collier"
  },
  {
    "name": "Social Media Marketing Mix",
    "description": "Internet Marketing & Advertising",
    "phone": "(239) 994-7825",
    "address": " 3333 Renaissance Blvd  Bonita Springs, FL 34134",
    "location": "Collier"
  },
  {
    "name": "First Page Google Rank",
    "description": "Internet Marketing & Advertising",
    "phone": "(239) 404-1200",
    "address": " 10020 Coconut Rd  Estero, FL 34135",
    "location": "Collier"
  },
  {
    "name": "Momentum",
    "description": "Marketing Programs & Services",
    "phone": "(239) 572-9613",
    "address": " 23421 Walden Center Dr, Suite 120  Bonita Springs, FL 34134",
    "location": "Collier"
  },
  {
    "name": "Make It Personal",
    "description": "Personal Services & Assistants",
    "phone": "(239) 234-5986",
    "address": " 3894 Mannix Dr Ste 216  Naples, FL 34114",
    "location": "Collier"
  },
  {
    "name": "Frankensigns",
    "description": "Sign Lettering",
    "phone": "(239) 692-8570",
    "address": " 2464 KIrkwood ave  Naples, FL 34112",
    "location": "Collier"
  },
  {
    "name": "Goldengirlssellflorida.com",
    "description": "Internet Marketing & Advertising",
    "phone": "(239) 641-9832",
    "address": " 5th Avenue 621 5th Ave S  Naples, FL 34102",
    "location": "Collier"
  },
  {
    "name": "Sign Up",
    "description": "Signs-Erectors & Hangers",
    "phone": "(239) 304-0025",
    "address": " 3575 19th Ave SW  Naples, FL 34117",
    "location": "Collier"
  },
  {
    "name": "Naples Print Source",
    "description": "Copying & Duplicating Service",
    "phone": "(239) 263-2500",
    "address": " 350 9th St S  Naples, FL 34102",
    "location": "Collier"
  },
  {
    "name": "Kwik Kopy",
    "description": "Copying & Duplicating Service",
    "phone": "(239) 263-2500",
    "address": " 350 9th St S  Naples, FL 34102",
    "location": "Collier"
  },
  {
    "name": "Municipal Supply and Signs Company",
    "description": "Signs",
    "phone": "(239) 262-4645",
    "address": " 1095 5th Ave S  Naples, FL 34102",
    "location": "Collier"
  },
  {
    "name": "Riptide SEO",
    "description": "Internet Marketing & Advertising",
    "phone": "(239) 330-3824",
    "address": " 780 5th Ave S Ste 200  Naples, FL 34102",
    "location": "Collier"
  },
  {
    "name": "Paradise",
    "description": "Advertising Specialties",
    "phone": "(239) 465-4972",
    "address": " 649 5th Ave S  Naples, FL 34102",
    "location": "Collier"
  },
  {
    "name": "Customer Finder Marketing",
    "description": "Internet Marketing & Advertising",
    "phone": "(727) 642-3315",
    "address": " 4001 Santa Barbara Blvd Ste 358  Naples, FL 34104",
    "location": "Collier"
  },
  {
    "name": "Sign of the Times",
    "description": "Signs",
    "phone": "(239) 825-9674",
    "address": " 2317 Davis Blvd  Naples, FL 34104",
    "location": "Collier"
  },
  {
    "name": "Naples Awards Inc",
    "description": "Trophies, Plaques & Medals",
    "phone": "(239) 774-2410",
    "address": " 2385 Davis Blvd  Naples, FL 34104",
    "location": "Collier"
  },
  {
    "name": "Diego Signs Inc",
    "description": "Truck Painting & Lettering",
    "phone": "(239) 435-1291",
    "address": " 2193 Kirkwood Ave  Naples, FL 34112",
    "location": "Collier"
  },
  {
    "name": "Coachbarreto.com",
    "description": "Internet Marketing & Advertising",
    "phone": "(239) 777-8453",
    "address": " 900 Broad Ave S  Naples, FL 34102",
    "location": "Collier"
  },
  {
    "name": "Hydroproducts Co",
    "description": "Advertising Specialties",
    "phone": "(239) 455-8351",
    "address": " 7185 Dennis Cir Apt 204  Naples, FL 34104",
    "location": "Collier"
  },
  {
    "name": "Lister-Kemp Advertising",
    "description": "Advertising Specialties",
    "phone": "(239) 455-0863",
    "address": " 95 17th St SW  Naples, FL 34117",
    "location": "Collier"
  },
  {
    "name": "Signs Donald",
    "description": "Advertising Specialties",
    "phone": "(239) 992-2772",
    "address": " 23411 Olde Meadowbrook Cir  Estero, FL 34134",
    "location": "Collier"
  },
  {
    "name": "Virtual Business Leader",
    "description": "Internet Marketing & Advertising",
    "phone": "(239) 494-5978",
    "address": " 23150 Fashion Dr Ste 232-k  Estero, FL 33928",
    "location": "Collier"
  },
  {
    "name": "Current House Productions",
    "description": "Internet Marketing & Advertising",
    "phone": "(239) 221-7947",
    "address": " 9820 Springlake Cir  Estero, FL 33928",
    "location": "Collier"
  },
  {
    "name": "L2 Productions",
    "description": "Internet Marketing & Advertising",
    "phone": "(239) 494-5251",
    "address": " 9410 Corkscrew Palms Cir  Estero, FL 33928",
    "location": "Collier"
  },
  {
    "name": "Brian Joseph Studios Naples Web Design",
    "description": "Web Site Design & Services",
    "phone": "(239) 280-1294",
    "address": " 1000 8th St NE  Naples, FL 34120",
    "location": "Collier"
  },
  {
    "name": "Johnthemasterbarber.com",
    "description": "Internet Marketing & Advertising",
    "phone": "(630) 202-3450",
    "address": " 101 Champagne Ct  Naples, FL 34112",
    "location": "Collier"
  },
  {
    "name": "Brandworx",
    "description": "Advertising-Promotional Products",
    "phone": "(239) 793-3441",
    "address": " 104 Bordeaux Cir  Naples, FL 34112",
    "location": "Collier"
  },
  {
    "name": "P I Electric",
    "description": "Electricians",
    "phone": "(239) 774-0900",
    "address": " 3615 Thomasson Dr  Naples, FL 34112",
    "location": "Collier"
  },
  {
    "name": "1800Towsafe.com",
    "description": "Internet Marketing & Advertising",
    "phone": "(239) 321-5514",
    "address": " 13260 Immokalee Rd  Naples, FL 34120",
    "location": "Collier"
  },
  {
    "name": "Naples Promo Deals",
    "description": "Advertising Specialties",
    "phone": "(239) 348-2699",
    "address": " 5683 Rattlesnake Hammock Rd  Naples, FL 34113",
    "location": "Collier"
  },
  {
    "name": "Simplybbguns.com",
    "description": "Internet Marketing & Advertising",
    "phone": "(239) 285-9201",
    "address": " 8595 Collier Blvd  Naples, FL 34114",
    "location": "Collier"
  },
  {
    "name": "Social Plug",
    "description": "Internet Marketing & Advertising",
    "phone": "(239) 877-4424",
    "address": " 2172 Vardin pl  Naples, FL 34120",
    "location": "Collier"
  },
  {
    "name": "Accent Signs",
    "description": "Signs",
    "phone": "(239) 643-6766",
    "address": " 930 16th St SE  Naples, FL 34117",
    "location": "Collier"
  },
  {
    "name": "Shirley Calhoon Advertising",
    "description": "Advertising Specialties",
    "phone": "(239) 774-7457",
    "address": " 8914 Shenendoah Cir  Naples, FL 34113",
    "location": "Collier"
  },
  {
    "name": "Patti Genko Marketing",
    "description": "Internet Marketing & Advertising",
    "phone": "(239) 449-6049",
    "address": " 8630 Mustang Dr  Naples, FL 34113",
    "location": "Collier"
  },
  {
    "name": "Myrebatingrealtor.com",
    "description": "Internet Marketing & Advertising",
    "phone": "(239) 218-9236",
    "address": " 21301 S Tamiami Trl  Estero, FL 33928",
    "location": "Collier"
  },
  {
    "name": "Samiah by Design",
    "description": "Animation Services",
    "phone": "(209) 920-9446",
    "address": " 20791 Three Oaks Pkwy  Estero, FL 33928",
    "location": "Collier"
  },
  {
    "name": "Tin Can Sally",
    "description": "Advertising Specialties",
    "phone": "(207) 651-6188",
    "address": " 18990 S Tamiami Trl  Fort Myers, FL 33908",
    "location": "Collier"
  },
  {
    "name": "Sabal Neon Signs",
    "description": "Signs",
    "phone": "(239) 994-6366",
    "address": " 18485 Sebring Rd  Fort Myers, FL 33967",
    "location": "Collier"
  },
  {
    "name": "Signs Now Fort Myers",
    "description": "Graphic Designers",
    "phone": "(239) 481-2220",
    "address": " 18070 S Tamiami Trl Ste 7  Fort Myers, FL 33908",
    "location": "Collier"
  },
  {
    "name": "Southwest Signs & Graphics Inc",
    "description": "Signs",
    "phone": "(239) 693-7888",
    "address": " 17311 Alico Center Rd  Fort Myers, FL 33967",
    "location": "Collier"
  },
  {
    "name": "The Sticker Lady",
    "description": "Signs",
    "phone": "(239) 437-3095",
    "address": " 17054 Alico Commerce Ct  Fort Myers, FL 33967",
    "location": "Collier"
  },
  {
    "name": "Sign Spinner Advertising",
    "description": "Advertising Specialties",
    "phone": "(239) 666-1830",
    "address": " 17010 Alico Commerce Ct  Fort Myers, FL 33967",
    "location": "Collier"
  },
  {
    "name": "Trutwin Industries",
    "description": "Signs",
    "phone": "(239) 489-4223",
    "address": " 8031 Mainline Pkwy  Fort Myers, FL 33912",
    "location": "Collier"
  },
  {
    "name": "US Sign & Mill Corp",
    "description": "Signs",
    "phone": "(239) 936-9154",
    "address": " 7981 Mainline Pkwy  Fort Myers, FL 33912",
    "location": "Collier"
  },
  {
    "name": "GLOBEFLASH INTERNET WEB DESIGN HOSTING",
    "description": "Internet Marketing & Advertising",
    "phone": "(239) 287-9519",
    "address": " 8325 Sumner Ave  Fort Myers, FL 33908",
    "location": "Collier"
  },
  {
    "name": "PKG-Guru.com",
    "description": "Internet Marketing & Advertising",
    "phone": "(239) 398-8211",
    "address": " 1231 Silver Lakes Blvd  Naples, FL 34114",
    "location": "Collier"
  }
]
