[
  {
    "name": "Fenestra",
    "description": "Advertising Agencies",
    "phone": "(407) 436-2825",
    "address": " 134 Wilson Bay Ct  Sanford, FL 32771",
    "location": "Dixie"
  },
  {
    "name": "Maritime Drive",
    "description": "Advertising Agencies",
    "phone": "(407) 862-7363",
    "address": " 130 Maritime Dr  Sanford, FL 32771",
    "location": "Dixie"
  },
  {
    "name": "Backseat Advertising",
    "description": "Advertising Agencies",
    "phone": "(407) 915-7006",
    "address": " 485 Specialty Pt  Sanford, FL 32771",
    "location": "Dixie"
  },
  {
    "name": "Floor Rivers Media",
    "description": "Advertising Agencies",
    "phone": "(407) 733-6984",
    "address": " 2020 Washington Ave  Sanford, FL 32771",
    "location": "Dixie"
  },
  {
    "name": "Delta Connection Academy Inc",
    "description": "Advertising Agencies",
    "phone": "(407) 430-4100",
    "address": " 2700 Flightline Ave  Sanford, FL 32773",
    "location": "Dixie"
  },
  {
    "name": "Evok Advertising",
    "description": "Advertising Agencies",
    "phone": "(407) 302-4416",
    "address": " 152 N 4th St  Lake Mary, FL 32746",
    "location": "Dixie"
  },
  {
    "name": "Interprecision Technology Inc",
    "description": "Advertising Agencies",
    "phone": "(407) 322-6328",
    "address": " 837 Pickfair Ter  Lake Mary, FL 32746",
    "location": "Dixie"
  },
  {
    "name": "Adeo Media Group",
    "description": "Advertising Agencies",
    "phone": "(407) 833-9200",
    "address": " 737 Stirling Center Pl  Lake Mary, FL 32746",
    "location": "Dixie"
  },
  {
    "name": "Noor Inc",
    "description": "Advertising Agencies",
    "phone": "(407) 321-2313",
    "address": " 298 Main Rd  Lake Mary, FL 32746",
    "location": "Dixie"
  },
  {
    "name": "Mash & Lauter Marketing",
    "description": "Advertising Agencies",
    "phone": "(407) 205-8220",
    "address": " 1540 International Pkwy Ste 2000  Lake Mary, FL 32746",
    "location": "Dixie"
  },
  {
    "name": "Checkout Locals",
    "description": "Advertising Agencies",
    "phone": "(407) 777-4506",
    "address": " 1540 International Pkwy Suite 2000  Lake Mary, FL 32746",
    "location": "Dixie"
  },
  {
    "name": "Fast Lane Promotions",
    "description": "Advertising Agencies",
    "phone": "(407) 328-7653",
    "address": " 270 Waymont Ct Ste 120  Lake Mary, FL 32746",
    "location": "Dixie"
  },
  {
    "name": "Gcs Enterprise Inc",
    "description": "Advertising Agencies",
    "phone": "(407) 562-1859",
    "address": " 801 International Pkwy  Lake Mary, FL 32746",
    "location": "Dixie"
  },
  {
    "name": "Advertising Specialty Institute",
    "description": "Advertising Agencies",
    "phone": "(407) 430-3698",
    "address": " 4300 W Lake Mary Blvd  Lake Mary, FL 32746",
    "location": "Dixie"
  },
  {
    "name": "Proforma A&G Marketing Group",
    "description": "Advertising Agencies",
    "phone": "(386) 626-9200",
    "address": " 255 Primera Blvd Ste 160  Lake Mary, FL 32746",
    "location": "Dixie"
  },
  {
    "name": "Stephenson and Associates",
    "description": "Advertising Agencies",
    "phone": "(407) 833-3728",
    "address": " 250 International Pkwy Ste 108  Lake Mary, FL 32746",
    "location": "Dixie"
  },
  {
    "name": "Halldale Media Inc",
    "description": "Advertising Agencies",
    "phone": "(407) 322-5605",
    "address": " 115 Timberlachen Cir  Lake Mary, FL 32746",
    "location": "Dixie"
  },
  {
    "name": "Clk Resources Inc",
    "description": "Advertising Agencies",
    "phone": "(407) 321-4833",
    "address": " 518 Whittingham Pl  Lake Mary, FL 32746",
    "location": "Dixie"
  },
  {
    "name": "Precisionplay Media",
    "description": "Advertising Agencies",
    "phone": "(407) 805-8800",
    "address": " 160 International Pkwy  Lake Mary, FL 32746",
    "location": "Dixie"
  },
  {
    "name": "Intersect Media Solutions",
    "description": "Advertising Agencies",
    "phone": "(866) 404-5913",
    "address": " 1025 Greenwood Blvd  Lake Mary, FL 32746",
    "location": "Dixie"
  },
  {
    "name": "Greenwood Ventures",
    "description": "Advertising Agencies",
    "phone": "(407) 585-8800",
    "address": " 1025 Greenwood Blvd  Lake Mary, FL 32746",
    "location": "Dixie"
  },
  {
    "name": "Asche Corp",
    "description": "Advertising Agencies",
    "phone": "(321) 200-0770",
    "address": " 1325 S International Pkwy  Lake Mary, FL 32746",
    "location": "Dixie"
  },
  {
    "name": "Lake Emma Corp Park",
    "description": "Advertising Agencies",
    "phone": "(407) 804-1586",
    "address": " 3200 Lake Emma Rd  Lake Mary, FL 32746",
    "location": "Dixie"
  },
  {
    "name": "J D A",
    "description": "Advertising Agencies",
    "phone": "(407) 942-0379",
    "address": " 1825 Duffy Ct  Lake Mary, FL 32746",
    "location": "Dixie"
  },
  {
    "name": "Robert Declara",
    "description": "Advertising Agencies",
    "phone": "(386) 668-1690",
    "address": " 203 Buena Vista St  Debary, FL 32713",
    "location": "Dixie"
  },
  {
    "name": "NCM Media Networks-Debary",
    "description": "Advertising Agencies",
    "phone": "(386) 668-6670",
    "address": " 50 Forest Eagle Ct  Debary, FL 32713",
    "location": "Dixie"
  },
  {
    "name": "i4 Advertising Agency LLC",
    "description": "Advertising Agencies",
    "phone": "(407) 416-1515",
    "address": " 610 Deltona Blvd, Ste D  Deltona, FL 32725",
    "location": "Dixie"
  },
  {
    "name": "Dari",
    "description": "Advertising Agencies",
    "phone": "(407) 330-3167",
    "address": " PO Box 4363  Deltona, FL 32725",
    "location": "Dixie"
  },
  {
    "name": "Residex Branch 919",
    "description": "Advertising Agencies",
    "phone": "(407) 834-2202",
    "address": " 1620 Timocuan Way  Longwood, FL 32750",
    "location": "Dixie"
  },
  {
    "name": "Calico Industries",
    "description": "Advertising Agencies",
    "phone": "(321) 207-7193",
    "address": " 1609 Cherrywood Ln  Longwood, FL 32750",
    "location": "Dixie"
  },
  {
    "name": "Epic Media",
    "description": "Advertising Agencies",
    "phone": "(407) 807-7287",
    "address": " 8718 Shimmering Pine Pl  Sanford, FL 32771",
    "location": "Dixie"
  },
  {
    "name": "N2Nsites",
    "description": "Advertising Agencies",
    "phone": "(407) 732-7288",
    "address": " 8674 Crested Eagle Pl  Sanford, FL 32771",
    "location": "Dixie"
  },
  {
    "name": "EZ Yield Com",
    "description": "Advertising Agencies",
    "phone": "(407) 629-0900",
    "address": " 125 Excelsior Pkwy Ste 101  Winter Springs, FL 32708",
    "location": "Dixie"
  },
  {
    "name": "Inplas Performance Solutions",
    "description": "Advertising Agencies",
    "phone": "(814) 460-2605",
    "address": " 4 Pine Meadow Ct  Debary, FL 32713",
    "location": "Dixie"
  },
  {
    "name": "Tru-Sun Media",
    "description": "Advertising Agencies",
    "phone": "(407) 388-1001",
    "address": " 1255 Belle Ave  Winter Springs, FL 32708",
    "location": "Dixie"
  },
  {
    "name": "Cuellar & Sachse",
    "description": "Advertising Agencies",
    "phone": "(407) 647-9292",
    "address": " 149 Shadow Trl  Longwood, FL 32750",
    "location": "Dixie"
  },
  {
    "name": "Gilbert Manjura Marketing and Advertising",
    "description": "Advertising Agencies",
    "phone": "(407) 261-5739",
    "address": " 346 Freeman St  Longwood, FL 32750",
    "location": "Dixie"
  },
  {
    "name": "Catalog Solutions",
    "description": "Advertising Agencies",
    "phone": "(386) 775-1070",
    "address": " 609 N Charles Richard Beall Blvd Ste 101  Debary, FL 32713",
    "location": "Dixie"
  },
  {
    "name": "J D Hill Inc",
    "description": "Advertising Agencies",
    "phone": "(386) 775-2398",
    "address": " 157 Brassington Dr  Debary, FL 32713",
    "location": "Dixie"
  },
  {
    "name": "78 Madison",
    "description": "Advertising Agencies",
    "phone": "(407) 788-7070",
    "address": " 1401 Town Plaza Ct  Winter Springs, FL 32708",
    "location": "Dixie"
  },
  {
    "name": "Interactive Resources",
    "description": "Advertising Agencies",
    "phone": "(407) 830-4068",
    "address": " 605 Tradewinds Dr  Deltona, FL 32738",
    "location": "Dixie"
  },
  {
    "name": "Aedieno",
    "description": "Advertising Agencies",
    "phone": "(407) 265-8001",
    "address": " 250 W Church Ave Ste 200  Longwood, FL 32750",
    "location": "Dixie"
  },
  {
    "name": "Via Cindy",
    "description": "Advertising Agencies",
    "phone": "(407) 695-0183",
    "address": " 102 W Bahama Rd  Winter Springs, FL 32708",
    "location": "Dixie"
  },
  {
    "name": "Welcom Consulting Svc",
    "description": "Advertising Agencies",
    "phone": "(407) 696-7896",
    "address": " 673 Venture Ct  Winter Springs, FL 32708",
    "location": "Dixie"
  },
  {
    "name": "Neo Reach Inc",
    "description": "Advertising Agencies",
    "phone": "(321) 316-4999",
    "address": " 250 S Ronald Reagan Blvd  Longwood, FL 32750",
    "location": "Dixie"
  },
  {
    "name": "Trombo's Printery Inc",
    "description": "Advertising Agencies",
    "phone": "(407) 332-8283",
    "address": " 705 W State Road 434  Longwood, FL 32750",
    "location": "Dixie"
  },
  {
    "name": "L J Productions",
    "description": "Advertising Agencies",
    "phone": "(407) 443-1684",
    "address": " 255 Rosedale Dr  Deltona, FL 32738",
    "location": "Dixie"
  },
  {
    "name": "Abx Enterprises",
    "description": "Advertising Agencies",
    "phone": "(407) 960-2510",
    "address": " 765 W State Road 434  Longwood, FL 32750",
    "location": "Dixie"
  },
  {
    "name": "DeFalco Advertising",
    "description": "Advertising Agencies",
    "phone": "(407) 551-0303",
    "address": " 1441 S Grant St  Longwood, FL 32750",
    "location": "Dixie"
  },
  {
    "name": "Word of Mouth",
    "description": "Advertising Agencies",
    "phone": "(386) 532-3295",
    "address": " 1090 S Cooper Dr  Deltona, FL 32725",
    "location": "Dixie"
  },
  {
    "name": "Prime Media Now",
    "description": "Advertising Agencies",
    "phone": "(407) 331-7128",
    "address": " 1225 Bennett Dr  Longwood, FL 32750",
    "location": "Dixie"
  },
  {
    "name": "Americomics",
    "description": "Advertising Agencies",
    "phone": "(407) 767-0199",
    "address": " 1225 Bennett Dr Unit 111  Longwood, FL 32750",
    "location": "Dixie"
  },
  {
    "name": "Gill Associates",
    "description": "Advertising Agencies",
    "phone": "(386) 574-2781",
    "address": " 469 Glen Haven Dr  Deltona, FL 32738",
    "location": "Dixie"
  },
  {
    "name": "Fax IT Advertising",
    "description": "Advertising Agencies",
    "phone": "(407) 339-4555",
    "address": " 1499 Robert St  Longwood, FL 32750",
    "location": "Dixie"
  },
  {
    "name": "Serendipity Medical Management Inc",
    "description": "Advertising Agencies",
    "phone": "(407) 322-3525",
    "address": " 1601 Wildcat Ct  Winter Springs, FL 32708",
    "location": "Dixie"
  },
  {
    "name": "Wallob",
    "description": "Advertising Agencies",
    "phone": "(336) 203-7932",
    "address": " 1420 E. Altamonte Drive  Altamonte Springs, FL 32714",
    "location": "Dixie"
  },
  {
    "name": "AdWise Creative",
    "description": "Advertising Agencies",
    "phone": "(407) 734-3638",
    "address": " 1740 Cypress Ave  Orange City, FL 32763",
    "location": "Dixie"
  },
  {
    "name": "Solutions Etc Inc",
    "description": "Advertising Agencies",
    "phone": "(407) 366-4170",
    "address": " 1624 White Dove Dr  Winter Springs, FL 32708",
    "location": "Dixie"
  },
  {
    "name": "Rushing & Associates Design",
    "description": "Advertising Agencies",
    "phone": "(407) 679-4876",
    "address": " 4900 E Lake Dr  Winter Springs, FL 32708",
    "location": "Dixie"
  },
  {
    "name": "Fresh Communications",
    "description": "Advertising Agencies",
    "phone": "(407) 998-5123",
    "address": " 1855 W State Road 434  Longwood, FL 32750",
    "location": "Dixie"
  },
  {
    "name": "Chassis-Craft",
    "description": "Advertising Agencies",
    "phone": "(407) 782-5799",
    "address": " 1120 N Black Acre Ct  Winter Springs, FL 32708",
    "location": "Dixie"
  },
  {
    "name": "Rho Mar Marketing Inc",
    "description": "Advertising Agencies",
    "phone": "(407) 332-0926",
    "address": " PO Box 181504  Casselberry, FL 32718",
    "location": "Dixie"
  },
  {
    "name": "Results Marketing",
    "description": "Advertising Agencies",
    "phone": "(407) 786-5660",
    "address": " 609 N Longview Pl  Longwood, FL 32779",
    "location": "Dixie"
  },
  {
    "name": "Visualtize",
    "description": "Advertising Agencies",
    "phone": "(321) 972-3191",
    "address": " 329 Ringwood Cir  Winter Springs, FL 32708",
    "location": "Dixie"
  },
  {
    "name": "Evaluvest Banch Ops Inc",
    "description": "Advertising Agencies",
    "phone": "(407) 865-7408",
    "address": " 1150 Douglas Ave Ste 1070  Altamonte Springs, FL 32714",
    "location": "Dixie"
  },
  {
    "name": "Product Marketing Group",
    "description": "Advertising Agencies",
    "phone": "(407) 774-6363",
    "address": " 978 Douglas Ave  Altamonte Springs, FL 32714",
    "location": "Dixie"
  },
  {
    "name": "Mall Media Services, Inc.",
    "description": "Advertising Agencies",
    "phone": "(407) 443-2369",
    "address": " 412 E Citrus St  Altamonte Springs, FL 32701",
    "location": "Dixie"
  },
  {
    "name": "Cobia Marketing - Digital Marketing For Dentists",
    "description": "Advertising Agencies",
    "phone": "(407) 890-9966",
    "address": " 269 Aulin Ave Ste 1005  Oviedo, FL 32765",
    "location": "Dixie"
  },
  {
    "name": "Homemag Orlando Samjay Media",
    "description": "Advertising Agencies",
    "phone": "(407) 865-7526",
    "address": " 187 Sabal Palm Dr  Longwood, FL 32779",
    "location": "Dixie"
  },
  {
    "name": "Capital Advantage",
    "description": "Advertising Agencies",
    "phone": "(407) 261-9002",
    "address": " 498 Palm Springs Dr  Altamonte Springs, FL 32701",
    "location": "Dixie"
  },
  {
    "name": "Righter Communications",
    "description": "Advertising Agencies",
    "phone": "(407) 261-9001",
    "address": " 498 Palm Springs Dr  Altamonte Springs, FL 32701",
    "location": "Dixie"
  },
  {
    "name": "JKR Advertising & Marketings",
    "description": "Advertising Agencies",
    "phone": "(321) 397-0777",
    "address": " 195 Wekiva Springs Rd  Longwood, FL 32779",
    "location": "Dixie"
  },
  {
    "name": "Charles Williams Business Group",
    "description": "Advertising Agencies",
    "phone": "(407) 764-8484",
    "address": " 407 Wekiva Springs Rd  Longwood, FL 32779",
    "location": "Dixie"
  },
  {
    "name": "Small Pond Media",
    "description": "Advertising Agencies",
    "phone": "(407) 951-8034",
    "address": " 126 Wilshire Blvd  Casselberry, FL 32707",
    "location": "Dixie"
  },
  {
    "name": "Push Button Productions",
    "description": "Advertising Agencies",
    "phone": "(888) 494-7874",
    "address": " 815 Orienta Ave Ste 1060  Altamonte Springs, FL 32701",
    "location": "Dixie"
  },
  {
    "name": "Newton's Force",
    "description": "Advertising Agencies",
    "phone": "(407) 682-7896",
    "address": " 478 E Altamonte Dr  Altamonte Springs, FL 32701",
    "location": "Dixie"
  },
  {
    "name": "BCV Deals",
    "description": "Advertising Agencies",
    "phone": "(407) 571-2980",
    "address": " 260 Maitland Ave  Altamonte Springs, FL 32701",
    "location": "Dixie"
  },
  {
    "name": "Genius Advertising & Marketing",
    "description": "Advertising Agencies",
    "phone": "(407) 682-3037",
    "address": " 864 Little Bend Rd  Altamonte Springs, FL 32714",
    "location": "Dixie"
  },
  {
    "name": "Medtech Momentum",
    "description": "Advertising Agencies",
    "phone": "(407) 960-2994",
    "address": " 377 Maitland Ave  Altamonte Springs, FL 32701",
    "location": "Dixie"
  },
  {
    "name": "Corporate Image Bureau",
    "description": "Advertising Agencies",
    "phone": "(407) 774-1529",
    "address": " 445 Douglas Ave  Altamonte Springs, FL 32714",
    "location": "Dixie"
  },
  {
    "name": "Premier Development Construction",
    "description": "Advertising Agencies",
    "phone": "(407) 401-2504",
    "address": " 385 Douglas Ave Ste 2250  Altamonte Springs, FL 32714",
    "location": "Dixie"
  },
  {
    "name": "Business Equipment Sales & Service",
    "description": "Advertising Agencies",
    "phone": "(386) 775-4124",
    "address": " 555 Werley Trl  Orange City, FL 32763",
    "location": "Dixie"
  },
  {
    "name": "Delisle & Associates",
    "description": "Advertising Agencies",
    "phone": "(407) 331-7705",
    "address": " 711 Ballard St  Altamonte Springs, FL 32701",
    "location": "Dixie"
  },
  {
    "name": "Monster Media",
    "description": "Advertising Agencies",
    "phone": "(407) 478-8163",
    "address": " 555 S Lake Destiny Dr Suite 100  Orlando, FL 32810",
    "location": "Dixie"
  },
  {
    "name": "MP advertising.com",
    "description": "Advertising Agencies",
    "phone": "(407) 324-3255",
    "address": " PO Box 3052 E. Jefferson Street  Orlando, FL 32802",
    "location": "Dixie"
  },
  {
    "name": "Higgins Marketing Group, Inc.",
    "description": "Advertising Agencies",
    "phone": "(407) 680-3735",
    "address": " 219 Duncan Trl  Longwood, FL 32779",
    "location": "Dixie"
  },
  {
    "name": "Brandcomet",
    "description": "Advertising Agencies",
    "phone": "(407) 622-1993",
    "address": " 465 S Orlando Ave  Maitland, FL 32751",
    "location": "Dixie"
  },
  {
    "name": "Conectar Agency Inc",
    "description": "Advertising Agencies",
    "phone": "(407) 801-0046",
    "address": " 1620 S Orlando Ave  Maitland, FL 32751",
    "location": "Dixie"
  },
  {
    "name": "Maurya Software Consulting Inc",
    "description": "Advertising Agencies",
    "phone": "(407) 359-3529",
    "address": " 802 Kingsbridge Dr  Oviedo, FL 32765",
    "location": "Dixie"
  },
  {
    "name": "Chameleon Web/Multimedia Design",
    "description": "Advertising Agencies",
    "phone": "(407) 616-2645",
    "address": " 315 Lakepointe Dr  Altamonte Springs, FL 32701",
    "location": "Dixie"
  },
  {
    "name": "Help 4 You America Inc",
    "description": "Advertising Agencies",
    "phone": "(407) 265-7248",
    "address": " 241 Obrien Rd  Fern Park, FL 32730",
    "location": "Dixie"
  },
  {
    "name": "M77 Media",
    "description": "Advertising Agencies",
    "phone": "(833) 992-1313",
    "address": " 217 N Westmonte Dr  Altamonte Springs, FL 32714",
    "location": "Dixie"
  },
  {
    "name": "Cmts",
    "description": "Advertising Agencies",
    "phone": "(904) 739-9804",
    "address": " 608 Maitland Ave  Altamonte Springs, FL 32701",
    "location": "Dixie"
  },
  {
    "name": "Interexpo Communications",
    "description": "Advertising Agencies",
    "phone": "(321) 214-0009",
    "address": " 3309 Bennington Ct  Winter Park, FL 32792",
    "location": "Dixie"
  },
  {
    "name": "CSI Promotions",
    "description": "Advertising Agencies",
    "phone": "(407) 468-5099",
    "address": " 479 Montgomery Pl  Altamonte Springs, FL 32714",
    "location": "Dixie"
  },
  {
    "name": "Jungle Network",
    "description": "Advertising Agencies",
    "phone": "(407) 389-2002",
    "address": " 479 Montgomery Pl  Altamonte Springs, FL 32714",
    "location": "Dixie"
  },
  {
    "name": "Gillman Advertising Specialties",
    "description": "Advertising Agencies",
    "phone": "(407) 331-5111",
    "address": " 657 Maitland Ave  Altamonte Springs, FL 32701",
    "location": "Dixie"
  },
  {
    "name": "Yuppify",
    "description": "Advertising Agencies",
    "phone": "(407) 761-6952",
    "address": " 606 Lake Orienta Dr  Altamonte Springs, FL 32701",
    "location": "Dixie"
  },
  {
    "name": "Technical Communications Group",
    "description": "Advertising Agencies",
    "phone": "(407) 831-2235",
    "address": " 403 Barclay Ave  Altamonte Springs, FL 32701",
    "location": "Dixie"
  },
  {
    "name": "Fat Free Media",
    "description": "Advertising Agencies",
    "phone": "(407) 786-8669",
    "address": " 932 Centre Cir  Altamonte Springs, FL 32714",
    "location": "Dixie"
  },
  {
    "name": "Rw Mindrup & Assoc",
    "description": "Advertising Agencies",
    "phone": "(407) 774-0672",
    "address": " 725 Little Wekiva Cir  Altamonte Springs, FL 32714",
    "location": "Dixie"
  },
  {
    "name": "TCS Media Inc",
    "description": "Advertising Agencies",
    "phone": "(407) 252-1026",
    "address": " 2688 Queen Mary Pl  Maitland, FL 32751",
    "location": "Dixie"
  },
  {
    "name": "Timeshare",
    "description": "Advertising Agencies",
    "phone": "(407) 831-0203",
    "address": " 1398 State Road 436  Casselberry, FL 32707",
    "location": "Dixie"
  },
  {
    "name": "AG Ad Agency",
    "description": "Advertising Agencies",
    "phone": "(407) 645-1950",
    "address": " 166 Lookout Pl Ste 101  Maitland, FL 32751",
    "location": "Dixie"
  },
  {
    "name": "Yard Media",
    "description": "Advertising Agencies",
    "phone": "(407) 657-1361",
    "address": " 1964 Howell Branch Rd Ste 202  Winter Park, FL 32792",
    "location": "Dixie"
  },
  {
    "name": "G A & Co",
    "description": "Advertising Agencies",
    "phone": "(407) 339-1736",
    "address": " 333 Croton Dr  Maitland, FL 32751",
    "location": "Dixie"
  },
  {
    "name": "Parallel Marketing Service",
    "description": "Advertising Agencies",
    "phone": "(407) 517-4835",
    "address": " 2670 Creekview Cir  Oviedo, FL 32765",
    "location": "Dixie"
  },
  {
    "name": "Gregory Lang Inc",
    "description": "Advertising Agencies",
    "phone": "(407) 740-0527",
    "address": " 1985 Howell Branch Rd  Maitland, FL 32751",
    "location": "Dixie"
  },
  {
    "name": "Patterson & Taylor Inc",
    "description": "Advertising Agencies",
    "phone": "(407) 339-0793",
    "address": " 145 S Orange Suite 8 Ave  Maitland, FL 32751",
    "location": "Dixie"
  },
  {
    "name": "Bernard Hodes Advertising Inc",
    "description": "Advertising Agencies",
    "phone": "(407) 740-5002",
    "address": " 1101 N Lake Destiny Rd Ste 300  Maitland, FL 32751",
    "location": "Dixie"
  },
  {
    "name": "Apex International Solutions",
    "description": "Advertising Agencies",
    "phone": "(407) 365-0587",
    "address": " 2945 Bayhead Run  Oviedo, FL 32765",
    "location": "Dixie"
  },
  {
    "name": "Think Agency",
    "description": "Advertising Agencies",
    "phone": "(407) 875-1999",
    "address": " 1001 N Lake Destiny Rd Ste 300  Maitland, FL 32751",
    "location": "Dixie"
  },
  {
    "name": "Dominion Enterprises",
    "description": "Advertising Agencies",
    "phone": "(407) 673-3466",
    "address": " 901 N Lake Destiny Rd  Maitland, FL 32751",
    "location": "Dixie"
  },
  {
    "name": "Rennew Media",
    "description": "Advertising Agencies",
    "phone": "(407) 900-7734",
    "address": " 151 N Maitland Ave  Maitland, FL 32751",
    "location": "Dixie"
  },
  {
    "name": "TKO-Terry/Kane Orlando Inc",
    "description": "Advertising Agencies",
    "phone": "(407) 649-8730",
    "address": " 1051 Winderley Pl  Maitland, FL 32751",
    "location": "Dixie"
  },
  {
    "name": "Florida Apartment Assn",
    "description": "Advertising Agencies",
    "phone": "(407) 647-8839",
    "address": " 875 Concourse Pkwy S  Maitland, FL 32751",
    "location": "Dixie"
  },
  {
    "name": "Jerry Defalco Advertising",
    "description": "Advertising Agencies",
    "phone": "(407) 661-3131",
    "address": " 1060 Maitland Center Commons Blvd Ste 410  Maitland, FL 32751",
    "location": "Dixie"
  },
  {
    "name": "Vergason Sojourner McWaters",
    "description": "Advertising Agencies",
    "phone": "(407) 673-4984",
    "address": " 5901 Brick Ct  Winter Park, FL 32792",
    "location": "Dixie"
  },
  {
    "name": "Wilcox & Associates Inc",
    "description": "Advertising Agencies",
    "phone": "(407) 629-6746",
    "address": " 540 S Maitland Ave  Maitland, FL 32751",
    "location": "Dixie"
  },
  {
    "name": "iHeartMedia",
    "description": "Advertising Agencies",
    "phone": "(407) 916-7800",
    "address": " 2500 Maitland Center Pkwy  Maitland, FL 32751",
    "location": "Dixie"
  },
  {
    "name": "US Associates Bright Hse Network",
    "description": "Advertising Agencies",
    "phone": "(407) 951-7254",
    "address": " 2600 Maitland Center Pkwy Ste 295  Maitland, FL 32751",
    "location": "Dixie"
  },
  {
    "name": "Grandesign Media Services",
    "description": "Advertising Agencies",
    "phone": "(407) 599-0759",
    "address": " 1951 Palmer Ave  Winter Park, FL 32792",
    "location": "Dixie"
  },
  {
    "name": "Morgan Mary",
    "description": "Advertising Agencies",
    "phone": "(407) 644-6277",
    "address": " 1630 Mayfield Ave  Winter Park, FL 32789",
    "location": "Dixie"
  },
  {
    "name": "Reliable Experts Consulting",
    "description": "Advertising Agencies",
    "phone": "(321) 206-8881",
    "address": " 1800 Pembrook Dr  Orlando, FL 32810",
    "location": "Dixie"
  },
  {
    "name": "Stadler-Green Advertising",
    "description": "Advertising Agencies",
    "phone": "(407) 667-4800",
    "address": " 1800 Pembrook Dr  Orlando, FL 32810",
    "location": "Dixie"
  },
  {
    "name": "Nscope Multimedia",
    "description": "Advertising Agencies",
    "phone": "(407) 704-3640",
    "address": " 877 Grand Regency Pointe Unit 105  Altamonte Springs, FL 32714",
    "location": "Dixie"
  },
  {
    "name": "National Ad Mark Corporation",
    "description": "Advertising Agencies",
    "phone": "(407) 660-6684",
    "address": " 101 Southhall Ln  Maitland, FL 32751",
    "location": "Dixie"
  },
  {
    "name": "The Ad Team",
    "description": "Advertising Agencies",
    "phone": "(407) 667-4708",
    "address": " 101 Southhall Ln  Maitland, FL 32751",
    "location": "Dixie"
  },
  {
    "name": "Comprehensive HR Solutions",
    "description": "Advertising Agencies",
    "phone": "(407) 578-8399",
    "address": " 696 Oak Hollow Way  Altamonte Springs, FL 32714",
    "location": "Dixie"
  },
  {
    "name": "Chance Advertising Agency",
    "description": "Advertising Agencies",
    "phone": "(321) 946-0666",
    "address": " 803 Trailwood Dr Suite 100  Apopka, FL 32712",
    "location": "Dixie"
  },
  {
    "name": "MLB Creative",
    "description": "Advertising Agencies",
    "phone": "(407) 645-4652",
    "address": " 1778 N Park Ave Ste 100  Maitland, FL 32751",
    "location": "Dixie"
  },
  {
    "name": "Grb Enterprises",
    "description": "Advertising Agencies",
    "phone": "(407) 644-1612",
    "address": " 1150 Grove St  Maitland, FL 32751",
    "location": "Dixie"
  },
  {
    "name": "Cutting Edge Communications",
    "description": "Advertising Agencies",
    "phone": "(407) 629-6366",
    "address": " 1300 Lyndale Blvd  Winter Park, FL 32789",
    "location": "Dixie"
  },
  {
    "name": "Judi Edwards Management Co",
    "description": "Advertising Agencies",
    "phone": "(407) 359-5797",
    "address": " 4250 Alafaya Trl  Oviedo, FL 32765",
    "location": "Dixie"
  },
  {
    "name": "Jane Newnum and Associates",
    "description": "Advertising Agencies",
    "phone": "(407) 647-0442",
    "address": " 2107 N Park Ave  Winter Park, FL 32789",
    "location": "Dixie"
  },
  {
    "name": "JKR Advertising & Marketing",
    "description": "Advertising Agencies",
    "phone": "(321) 397-0777",
    "address": " 298 S Lake Destiny Dr  Orlando, FL 32810",
    "location": "Dixie"
  },
  {
    "name": "Promo Only",
    "description": "Advertising Agencies",
    "phone": "(407) 838-2030",
    "address": " 257 S Lake Destiny Dr  Orlando, FL 32810",
    "location": "Dixie"
  },
  {
    "name": "Jvzoo",
    "description": "Advertising Agencies",
    "phone": "(406) 285-8966",
    "address": " 1945 W County Rd  Oviedo, FL 32766",
    "location": "Dixie"
  },
  {
    "name": "Corporate Relations Group Inc",
    "description": "Advertising Agencies",
    "phone": "(407) 628-5700",
    "address": " 2649 Pemberton Dr  Apopka, FL 32703",
    "location": "Dixie"
  },
  {
    "name": "Global Marketing Ent",
    "description": "Advertising Agencies",
    "phone": "(407) 298-2480",
    "address": " 5554 Burlwood Dr  Orlando, FL 32810",
    "location": "Dixie"
  },
  {
    "name": "Kreative Koncepts",
    "description": "Advertising Agencies",
    "phone": "(407) 889-8200",
    "address": " 1631 Rock Springs Rd  Apopka, FL 32712",
    "location": "Dixie"
  },
  {
    "name": "Freyer, Patricia",
    "description": "Advertising Agencies",
    "phone": "(407) 884-1684",
    "address": " 8 W Virgil St  Apopka, FL 32712",
    "location": "Dixie"
  },
  {
    "name": "Citrus Sign Studio",
    "description": "Advertising Agencies",
    "phone": "(321) 285-0730",
    "address": " 6110 Edgewater Dr Suite H  Orlando, FL 32810",
    "location": "Dixie"
  },
  {
    "name": "Switch Consulting Inc",
    "description": "Advertising Agencies",
    "phone": "(407) 252-4634",
    "address": " PO Box 677326  Orlando, FL 32867",
    "location": "Dixie"
  },
  {
    "name": "Ads",
    "description": "Advertising Agencies",
    "phone": "(407) 293-0293",
    "address": " 5722 N Pine Hills Rd  Orlando, FL 32810",
    "location": "Dixie"
  },
  {
    "name": "Innovative Advertising Inc",
    "description": "Advertising Agencies",
    "phone": "(407) 814-7800",
    "address": " 2436 Cedar Knoll Dr  Apopka, FL 32712",
    "location": "Dixie"
  },
  {
    "name": "Cyber Marketing",
    "description": "Advertising Agencies",
    "phone": "(407) 324-9100",
    "address": " 2380 W 25th St  Sanford, FL 32771",
    "location": "Dixie"
  },
  {
    "name": "Sandara Saints",
    "description": "Advertising Agencies",
    "phone": "(407) 878-1695",
    "address": " 103 Lindsey Way  Sanford, FL 32771",
    "location": "Dixie"
  },
  {
    "name": "Maus Media Group",
    "description": "Advertising Agencies",
    "phone": "(407) 302-5880",
    "address": " 1160 Rinehart Rd  Sanford, FL 32771",
    "location": "Dixie"
  },
  {
    "name": "Relentless Media",
    "description": "Advertising Agencies",
    "phone": "(407) 252-3980",
    "address": " 1429 Dolgner Pl  Sanford, FL 32771",
    "location": "Dixie"
  },
  {
    "name": "SearchOutsidethebox.com Inc",
    "description": "Advertising Agencies",
    "phone": "(407) 562-6143",
    "address": " 1521 Little Gem Loop  Sanford, FL 32773",
    "location": "Dixie"
  },
  {
    "name": "Online Tactix, LLC",
    "description": "Advertising Agencies",
    "phone": "(888) 541-4447",
    "address": " 5224 W State Road 46 # 131  Sanford, FL 32771",
    "location": "Dixie"
  },
  {
    "name": "SearchOutsidethebox",
    "description": "Advertising Agencies",
    "phone": "(407) 562-6143",
    "address": " 905 Pine Way  Sanford, FL 32773",
    "location": "Dixie"
  },
  {
    "name": "Proforma Nextgen Printing Plus",
    "description": "Advertising Agencies",
    "phone": "(407) 804-9444",
    "address": " 425 Cardinal Oaks Ct  Lake Mary, FL 32746",
    "location": "Dixie"
  },
  {
    "name": "Crank Communications",
    "description": "Advertising Agencies",
    "phone": "(407) 830-7312",
    "address": " 1135 Townpark Ave Ste 2125  Lake Mary, FL 32746",
    "location": "Dixie"
  },
  {
    "name": "Iceberg Advertising",
    "description": "Advertising Agencies",
    "phone": "(407) 486-8478",
    "address": " 3415 W Lake Mary Blvd  Lake Mary, FL 32746",
    "location": "Dixie"
  },
  {
    "name": "Levitation Studio Inc.",
    "description": "Advertising Agencies",
    "phone": "(888) 514-8814",
    "address": " 1540 International Pkwy  Lake Mary, FL 32746",
    "location": "Dixie"
  },
  {
    "name": "NG Production Films, Inc.",
    "description": "Advertising Agencies",
    "phone": "(877) 203-2895",
    "address": " 801 International Pkwy Ste 500  Lake Mary, FL 32746",
    "location": "Dixie"
  },
  {
    "name": "JLS Automotive Marketing Inc.",
    "description": "Advertising Agencies",
    "phone": "(321) 363-0624",
    "address": " 799 Sherbourne Cir  Lake Mary, FL 32746",
    "location": "Dixie"
  },
  {
    "name": "Marchand & Company - Marketing Media",
    "description": "Advertising Agencies",
    "phone": "(407) 444-2090",
    "address": " 4300 W Lake Mary Blvd  Lake Mary, FL 32746",
    "location": "Dixie"
  },
  {
    "name": "Stephenson & Associates",
    "description": "Advertising Agencies",
    "phone": "(407) 833-3728",
    "address": " 255 Primera Blvd Ste 160  Lake Mary, FL 32746",
    "location": "Dixie"
  },
  {
    "name": "Sun & Fun Media",
    "description": "Advertising Agencies",
    "phone": "(407) 328-0505",
    "address": " 1315 S International Pkwy Ste 1131  Lake Mary, FL 32746",
    "location": "Dixie"
  },
  {
    "name": "Progressive Communications",
    "description": "Advertising Agencies",
    "phone": "(407) 732-4036",
    "address": " 1001 Sand Pond Rd  Lake Mary, FL 32746",
    "location": "Dixie"
  },
  {
    "name": "Heritage First Capital",
    "description": "Advertising Agencies",
    "phone": "(407) 444-5959",
    "address": " 30 Skyline Dr # 201  Lake Mary, FL 32746",
    "location": "Dixie"
  },
  {
    "name": "Community Outreach Involvement Inc.",
    "description": "Advertising Agencies",
    "phone": "(386) 753-5079",
    "address": " 314 Sunnyside Ln  Debary, FL 32713",
    "location": "Dixie"
  },
  {
    "name": "Office Creations Desktop Publishing & Oc Photo Gifts & Home Decor",
    "description": "Advertising Agencies",
    "phone": "(540) 220-3505",
    "address": " 224 Hammock Oak Cir  Debary, FL 32713",
    "location": "Dixie"
  },
  {
    "name": "Internet Performance Group",
    "description": "Advertising Agencies",
    "phone": "(877) 474-9997",
    "address": " 107 14th Ave  Longwood, FL 32750",
    "location": "Dixie"
  },
  {
    "name": "Arcane Marketing",
    "description": "Advertising Agencies",
    "phone": "(208) 938-5988",
    "address": " 240 E Palmetto Ave Ste 100  Longwood, FL 32750",
    "location": "Dixie"
  },
  {
    "name": "TJM Communications Inc",
    "description": "Advertising Agencies",
    "phone": "(407) 265-1823",
    "address": " 1312 Town Plaza Ct  Winter Springs, FL 32708",
    "location": "Dixie"
  },
  {
    "name": "Clarity Creative Group",
    "description": "Advertising Agencies",
    "phone": "(407) 233-4464",
    "address": " 925 Florida 434  Winter Springs, FL 32708",
    "location": "Dixie"
  },
  {
    "name": "Wilcox & Associates, Inc.",
    "description": "Advertising Agencies",
    "phone": "(407) 830-4808",
    "address": " 258 Short Ave  Longwood, FL 32750",
    "location": "Dixie"
  },
  {
    "name": "Digital Graphics Plus",
    "description": "Advertising Agencies",
    "phone": "(407) 869-0077",
    "address": " 205 National Pl  Longwood, FL 32750",
    "location": "Dixie"
  },
  {
    "name": "H B Production Group",
    "description": "Advertising Agencies",
    "phone": "(407) 339-9070",
    "address": " 1225 Bennett Dr Unit 200  Longwood, FL 32750",
    "location": "Dixie"
  },
  {
    "name": "H B Production Services Inc",
    "description": "Advertising Agencies",
    "phone": "(407) 339-9070",
    "address": " 1275 Bennett Dr  Longwood, FL 32750",
    "location": "Dixie"
  },
  {
    "name": "K2 Evolution",
    "description": "Advertising Agencies",
    "phone": "(321) 972-5915",
    "address": " 1355 Bennett Dr Unit 177  Longwood, FL 32750",
    "location": "Dixie"
  },
  {
    "name": "In Motion Media Solutions",
    "description": "Advertising Agencies",
    "phone": "(407) 960-1839",
    "address": " 3352 S Us Highway 17/92  Casselberry, FL 32707",
    "location": "Dixie"
  },
  {
    "name": "Mr. Checkout Distributors",
    "description": "Advertising Agencies",
    "phone": "(407) 603-6557",
    "address": " 381 S Central Ave  Oviedo, FL 32765",
    "location": "Dixie"
  },
  {
    "name": "Pro-Tech Printers Inc",
    "description": "Advertising Agencies",
    "phone": "(386) 774-6837",
    "address": " 1060 E Industrial Dr  Orange City, FL 32763",
    "location": "Dixie"
  },
  {
    "name": "Lewellen Enterprises",
    "description": "Advertising Agencies",
    "phone": "(407) 478-1964",
    "address": " 927 Fern St  Altamonte Springs, FL 32701",
    "location": "Dixie"
  },
  {
    "name": "J R Stacy & Associates",
    "description": "Advertising Agencies",
    "phone": "(407) 660-1919",
    "address": " 413 Ringwood Cir  Winter Springs, FL 32708",
    "location": "Dixie"
  },
  {
    "name": "Flitehaus Inc",
    "description": "Advertising Agencies",
    "phone": "(407) 971-2244",
    "address": " 3000 Dovera Dr Ste 140  Oviedo, FL 32765",
    "location": "Dixie"
  },
  {
    "name": "My Website Spot - Casselberry Web Design & SEO",
    "description": "Advertising Agencies",
    "phone": "(407) 499-4008",
    "address": " 513 Elm Dr  Casselberry, FL 32707",
    "location": "Dixie"
  },
  {
    "name": "Chance AD",
    "description": "Advertising Agencies",
    "phone": "(407) 788-0028",
    "address": " 2484 Sr. 434 Studio 208  Longwood, FL 32779",
    "location": "Dixie"
  },
  {
    "name": "Azir Spares, Inc.",
    "description": "Advertising Agencies",
    "phone": "(844) 267-2235",
    "address": " 1070 Montgomery Rd PMB 509  Altamonte Springs, FL 32714",
    "location": "Dixie"
  },
  {
    "name": "Cash Magazine Inc",
    "description": "Advertising Agencies",
    "phone": "(407) 672-1700",
    "address": " 266 Wilshire Blvd  Casselberry, FL 32707",
    "location": "Dixie"
  },
  {
    "name": "Roar! Internet Marketing",
    "description": "Advertising Agencies",
    "phone": "(407) 786-7330",
    "address": " 307 Cranes Roost Blvd Ste 2020  Altamonte Springs, FL 32701",
    "location": "Dixie"
  },
  {
    "name": "Affordable Display Products, Inc.",
    "description": "Advertising Agencies",
    "phone": "(866) 550-0656",
    "address": " 285 W Central Parkway Suite 1726  Altamonte Springs, FL 32714",
    "location": "Dixie"
  },
  {
    "name": "Hispanic Yellow Pages Inc",
    "description": "Advertising Agencies",
    "phone": "(407) 767-8300",
    "address": " 1033 State Road 436  Casselberry, FL 32707",
    "location": "Dixie"
  },
  {
    "name": "Go Digital Advertising",
    "description": "Advertising Agencies",
    "phone": "(407) 497-7198",
    "address": " 2735 W State Road 434  Longwood, FL 32779",
    "location": "Dixie"
  },
  {
    "name": "Sewing Studio Fabric Superstore",
    "description": "Advertising Agencies",
    "phone": "(407) 910-2761",
    "address": " 9605 S Us Highway 17/92  Maitland, FL 32751",
    "location": "Dixie"
  },
  {
    "name": "TCS Media",
    "description": "Advertising Agencies",
    "phone": "(407) 252-1026",
    "address": " 2333 Chinook Trl  Maitland, FL 32751",
    "location": "Dixie"
  },
  {
    "name": "ETC Marketing",
    "description": "Advertising Agencies",
    "phone": "(877) 992-1313",
    "address": " 217 N Westmonte Dr Ste 2014  Altamonte Springs, FL 32714",
    "location": "Dixie"
  },
  {
    "name": "Think Agency Inc",
    "description": "Advertising Agencies",
    "phone": "(407) 875-1999",
    "address": " 217 N Westmonte Dr Ste 3019  Altamonte Springs, FL 32714",
    "location": "Dixie"
  },
  {
    "name": "FusionTech Media",
    "description": "Advertising Agencies",
    "phone": "(407) 512-0424",
    "address": " 237 S Westmonte Dr Ste 100-B  Altamonte Springs, FL 32714",
    "location": "Dixie"
  },
  {
    "name": "Beech Outdoor",
    "description": "Advertising Agencies",
    "phone": "(407) 645-2210",
    "address": " 1672 Indian Dance Ct  Maitland, FL 32751",
    "location": "Dixie"
  },
  {
    "name": "Digital Space Marketing",
    "description": "Advertising Agencies",
    "phone": "(855) 611-0577",
    "address": " 240 Lookout Pl  Maitland, FL 32751",
    "location": "Dixie"
  },
  {
    "name": "Costa DeVault a wordwise company",
    "description": "Advertising Agencies",
    "phone": "(407) 657-4818",
    "address": " 7719 Fox Knoll Pl  Winter Park, FL 32792",
    "location": "Dixie"
  },
  {
    "name": "R.T.P Marketing - Rock The Pavement Marketing",
    "description": "Advertising Agencies",
    "phone": "(386) 400-3986",
    "address": " 3072 Courtland Blvd  Deltona, FL 32738",
    "location": "Dixie"
  },
  {
    "name": "Truth About Yellow Pages",
    "description": "Advertising Agencies",
    "phone": "(407) 647-3990",
    "address": " 101 Mariner Way  Maitland, FL 32751",
    "location": "Dixie"
  },
  {
    "name": "All In One Branding",
    "description": "Advertising Agencies",
    "phone": "(407) 903-6005",
    "address": " 2789 Wrights Rd Ste 1025  Oviedo, FL 32765",
    "location": "Dixie"
  },
  {
    "name": "No Limit Marketing and Advertising",
    "description": "Advertising Agencies",
    "phone": "(321) 400-6116",
    "address": " 2789 Wrights Rd Ste 1009  Oviedo, FL 32765",
    "location": "Dixie"
  },
  {
    "name": "TCreative, Inc.",
    "description": "Advertising Agencies",
    "phone": "(407) 628-1772",
    "address": " 2789 Wrights Rd STE 1021  Oviedo, FL 32765",
    "location": "Dixie"
  },
  {
    "name": "Salem Surround Orlando",
    "description": "Advertising Agencies",
    "phone": "(407) 618-1821",
    "address": " 1188 Lake View Dr  Altamonte Springs, FL 32714",
    "location": "Dixie"
  },
  {
    "name": "Bbdo South Orlando",
    "description": "Advertising Agencies",
    "phone": "(407) 865-9393",
    "address": " 557 N Wymore Rd  Maitland, FL 32751",
    "location": "Dixie"
  },
  {
    "name": "Patterson Bach Communications",
    "description": "Advertising Agencies",
    "phone": "(407) 645-1880",
    "address": " 2600 Maitland Center Pkwy Ste 360  Maitland, FL 32751",
    "location": "Dixie"
  },
  {
    "name": "Winning Formula Marketing LLC",
    "description": "Advertising Agencies",
    "phone": "(407) 928-9173",
    "address": " 555 Winderley Pl  Maitland, FL 32751",
    "location": "Dixie"
  },
  {
    "name": "YP Marketing Solutions",
    "description": "Advertising Agencies",
    "phone": "(407) 896-7325",
    "address": " 258 Southhall Ln Ste 106  Maitland, FL 32751",
    "location": "Dixie"
  },
  {
    "name": "Mmgy Global",
    "description": "Advertising Agencies",
    "phone": "(407) 875-1111",
    "address": " 423 S Keller Rd Ste 100  Orlando, FL 32810",
    "location": "Dixie"
  },
  {
    "name": "On Wax Dup Signs & Print",
    "description": "Advertising Agencies",
    "phone": "(386) 873-2919",
    "address": " 1540 S Spring Garden Ave  Deland, FL 32720",
    "location": "Dixie"
  },
  {
    "name": "Ph3 Agency + Brewery",
    "description": "Advertising Agencies",
    "phone": "(321) 206-8771",
    "address": " 6140 Edgewater Dr Ste C  Orlando, FL 32810",
    "location": "Dixie"
  },
  {
    "name": "Appreciation Promotion Services, LLC",
    "description": "Advertising Agencies",
    "phone": "(407) 900-6823",
    "address": " 5764 N Orange Blossom Trl # 18  Orlando, FL 32810",
    "location": "Dixie"
  },
  {
    "name": "Creative Printing & Publishing",
    "description": "Marketing Programs & Services",
    "phone": "(407) 302-9147",
    "address": " 2300 Old Lake Mary Rd  Sanford, FL 32771",
    "location": "Dixie"
  },
  {
    "name": "Logogram Inc",
    "description": "Marketing Consultants",
    "phone": "(407) 320-1117",
    "address": " 123 Commerce Way  Sanford, FL 32771",
    "location": "Dixie"
  },
  {
    "name": "Velocity Signs",
    "description": "Signs",
    "phone": "(407) 732-6877",
    "address": " 2200 S French Ave  Sanford, FL 32771",
    "location": "Dixie"
  },
  {
    "name": "Diamonds Electric Sign & Repair",
    "description": "Signs",
    "phone": "(407) 657-6220",
    "address": " 324 Gordon St  Sanford, FL 32771",
    "location": "Dixie"
  },
  {
    "name": "Todd's Graphics To Go",
    "description": "Graphic Designers",
    "phone": "(407) 322-2923",
    "address": " 505 S French Ave  Sanford, FL 32771",
    "location": "Dixie"
  },
  {
    "name": "Sanitizersubscription.com",
    "description": "Internet Marketing & Advertising",
    "phone": "(407) 943-4909",
    "address": " 201 N Maple Ave  Sanford, FL 32771",
    "location": "Dixie"
  },
  {
    "name": "Image360 Sanford Graphics, Signs and Displays",
    "description": "Signs",
    "phone": "(407) 732-4608",
    "address": " 1169 W Airport Blvd  Sanford, FL 32773",
    "location": "Dixie"
  },
  {
    "name": "Signarama Lake Mary, FL",
    "description": "Signs",
    "phone": "(407) 462-3500",
    "address": " 3875 Saint Johns Pkwy  Sanford, FL 32771",
    "location": "Dixie"
  },
  {
    "name": "Pinnacle Sign Works",
    "description": "Signs",
    "phone": "(407) 322-7733",
    "address": " 1169 W Airport Blvd  Sanford, FL 32773",
    "location": "Dixie"
  },
  {
    "name": "Onsight Inc",
    "description": "Paging & Signaling Equipment",
    "phone": "(407) 830-8861",
    "address": " 900 Central Park Dr  Sanford, FL 32771",
    "location": "Dixie"
  },
  {
    "name": "Onsite",
    "description": "Signs",
    "phone": "(904) 551-0504",
    "address": " 900 Central Park Dr  Sanford, FL 32771",
    "location": "Dixie"
  },
  {
    "name": "Dealzkingzdepot.com",
    "description": "Internet Marketing & Advertising",
    "phone": "(386) 244-9500",
    "address": " 401 E 1st St  Sanford, FL 32771",
    "location": "Dixie"
  },
  {
    "name": "A Complete Sign Service",
    "description": "Signs",
    "phone": "(407) 328-7714",
    "address": " 2530 Sanford Ave  Sanford, FL 32773",
    "location": "Dixie"
  },
  {
    "name": "Devsyntech, Inc.",
    "description": "Internet Marketing & Advertising",
    "phone": "(321) 444-7737",
    "address": " 1405 S Locust Ave  Sanford, FL 32771",
    "location": "Dixie"
  },
  {
    "name": "Sentry Sign Installers",
    "description": "Signs",
    "phone": "(407) 324-9386",
    "address": " 261 Specialty Pt  Sanford, FL 32771",
    "location": "Dixie"
  },
  {
    "name": "Signs Just for You",
    "description": "Advertising Specialties",
    "phone": "(407) 878-4211",
    "address": " 4009 W State Road 46  Sanford, FL 32771",
    "location": "Dixie"
  },
  {
    "name": "FASTSIGNS",
    "description": "Signs",
    "phone": "(407) 324-8338",
    "address": " 1265 Upsala Rd  Sanford, FL 32771",
    "location": "Dixie"
  },
  {
    "name": "Mychildwins.com",
    "description": "Internet Marketing & Advertising",
    "phone": "(386) 628-0295",
    "address": " 1264 Upsala Rd  Sanford, FL 32771",
    "location": "Dixie"
  },
  {
    "name": "P5 Systems",
    "description": "Internet Marketing & Advertising",
    "phone": "(407) 362-1933",
    "address": " 223 Brightview Dr  Lake Mary, FL 32746",
    "location": "Dixie"
  },
  {
    "name": "Webolistic",
    "description": "Web Site Hosting",
    "phone": "(321) 285-6224",
    "address": " 7025 County Road 46A  Lake Mary, FL 32746",
    "location": "Dixie"
  },
  {
    "name": "BCXPromotional.com",
    "description": "Business Cards",
    "phone": "(407) 688-8902",
    "address": " 1744 Rinehart Rd  Sanford, FL 32771",
    "location": "Dixie"
  },
  {
    "name": "Dynamic Aspects Inc",
    "description": "Signs",
    "phone": "(407) 322-1923",
    "address": " 1490 Kastner Pl  Sanford, FL 32771",
    "location": "Dixie"
  },
  {
    "name": "Affordable Discount Signs Inc.",
    "description": "Signs-Erectors & Hangers",
    "phone": "(407) 463-9334",
    "address": " 200 Woodmere Blvd  Sanford, FL 32773",
    "location": "Dixie"
  },
  {
    "name": "Absolute Pro Solutions",
    "description": "Signs",
    "phone": "(407) 732-4973",
    "address": " 1119 E 25th St  Sanford, FL 32771",
    "location": "Dixie"
  },
  {
    "name": "Country Wide Enterprises",
    "description": "Internet Marketing & Advertising",
    "phone": "(407) 302-1777",
    "address": " 707 E Airport Blvd  Sanford, FL 32773",
    "location": "Dixie"
  },
  {
    "name": "Divine Imaging",
    "description": "Web Site Hosting",
    "phone": "(407) 314-4469",
    "address": " 126 Lake Ada Cir  Sanford, FL 32773",
    "location": "Dixie"
  },
  {
    "name": "FedEx Office Print & Ship Center",
    "description": "Copying & Duplicating Service",
    "phone": "(407) 323-6964",
    "address": " 1637 Rinehart Rd  Sanford, FL 32771",
    "location": "Dixie"
  },
  {
    "name": "Traffic Signs Distribution",
    "description": "Signs",
    "phone": "(321) 332-1336",
    "address": " 3501 Sanford Ave  Sanford, FL 32773",
    "location": "Dixie"
  },
  {
    "name": "Media 1",
    "description": "Signs",
    "phone": "(407) 331-6161",
    "address": " 501 Cornwall Rd  Sanford, FL 32773",
    "location": "Dixie"
  },
  {
    "name": "Universal Signs And Graphics",
    "description": "Graphic Designers",
    "phone": "(407) 496-2034",
    "address": " 115 Exeter Ct  Sanford, FL 32773",
    "location": "Dixie"
  },
  {
    "name": "Graphic Solutions",
    "description": "Computer Graphics",
    "phone": "(407) 323-5523",
    "address": " 370 Mohave Ter  Lake Mary, FL 32746",
    "location": "Dixie"
  },
  {
    "name": "One Source Branding & Media",
    "description": "Internet Marketing & Advertising",
    "phone": "(321) 441-3160",
    "address": " 187 E Crystal Lake Ave Unit 1005  Lake Mary, FL 32746",
    "location": "Dixie"
  },
  {
    "name": "Magic Sign",
    "description": "Signs",
    "phone": "(407) 324-4059",
    "address": " 4757 Orange Blvd  Sanford, FL 32771",
    "location": "Dixie"
  },
  {
    "name": "Apache Commander",
    "description": "Internet Marketing & Advertising",
    "phone": "(321) 262-6891",
    "address": " 2341 Church St  Sanford, FL 32771",
    "location": "Dixie"
  },
  {
    "name": "Jayco Signs and Lighting",
    "description": "Signs",
    "phone": "(407) 915-7526",
    "address": " 3665 Naseem Ln  Sanford, FL 32771",
    "location": "Dixie"
  },
  {
    "name": "Cornerstone Publishing & Multi-Media",
    "description": "Advertising Specialties",
    "phone": "(704) 284-3103",
    "address": " 5386 Glenlake Pl  Sanford, FL 32771",
    "location": "Dixie"
  },
  {
    "name": "Save the Children Group",
    "description": "Advertising Specialties",
    "phone": "(321) 363-3755",
    "address": " 109 E Crystal Lake Ave  Lake Mary, FL 32746",
    "location": "Dixie"
  },
  {
    "name": "Signarama",
    "description": "Signs",
    "phone": "(407) 462-3500",
    "address": " 101 N Country Club Rd  Lake Mary, FL 32746",
    "location": "Dixie"
  },
  {
    "name": "Casa Creacion",
    "description": "Direct Mail Advertising",
    "phone": "(407) 333-7117",
    "address": " 600 Rinehart Rd  Lake Mary, FL 32746",
    "location": "Dixie"
  },
  {
    "name": "Axel & Associates",
    "description": "Internet Marketing & Advertising",
    "phone": "(866) 328-4329",
    "address": " 175 Middle St Unit 1201  Lake Mary, FL 32746",
    "location": "Dixie"
  },
  {
    "name": "Radio Health LLC",
    "description": "Tile-Contractors & Dealers",
    "phone": "(407) 219-9494",
    "address": " 1035 Primera Blvd Ste 1041  Lake Mary, FL 32746",
    "location": "Dixie"
  },
  {
    "name": "Everybody's Business Etc",
    "description": "Direct Mail Advertising",
    "phone": "(407) 323-2655",
    "address": " 205 Waymont Ct  Lake Mary, FL 32746",
    "location": "Dixie"
  },
  {
    "name": "Marketleverage Interactive Advertising",
    "description": "Advertising Specialties",
    "phone": "(407) 268-7648",
    "address": " 1515 International Pkwy  Lake Mary, FL 32746",
    "location": "Dixie"
  },
  {
    "name": "Tonic Enterprises",
    "description": "Web Site Design & Services",
    "phone": "(407) 917-7211",
    "address": " 1540 International Pkwy Ste 2000  Lake Mary, FL 32746",
    "location": "Dixie"
  },
  {
    "name": "Promoted to Succeed",
    "description": "Advertising Specialties",
    "phone": "(407) 430-6044",
    "address": " 1540 International Pkwy  Lake Mary, FL 32746",
    "location": "Dixie"
  },
  {
    "name": "Collect-Us.com",
    "description": "Internet Marketing & Advertising",
    "phone": "(407) 328-7669",
    "address": " 559 S Country Club Rd  Lake Mary, FL 32746",
    "location": "Dixie"
  },
  {
    "name": "White Sign Company, LLC",
    "description": "Signs",
    "phone": "(407) 878-3981",
    "address": " 909 S. Charles Richard Beall Blvd  Debary, FL 32713",
    "location": "Dixie"
  },
  {
    "name": "Graphic Source of Central Florida",
    "description": "Digital Printing & Imaging",
    "phone": "(386) 668-0288",
    "address": " 637 S Charles Richard Beall Blvd Ste 3  Debary, FL 32713",
    "location": "Dixie"
  },
  {
    "name": "International Signs & Lighting",
    "description": "Signs",
    "phone": "(407) 332-9663",
    "address": " 714 Commerce Cir  Longwood, FL 32750",
    "location": "Dixie"
  },
  {
    "name": "Universal Awning and Sign",
    "description": "Signs",
    "phone": "(407) 328-7781",
    "address": " 5890 Nolan Rd  Sanford, FL 32773",
    "location": "Dixie"
  },
  {
    "name": "Signage Plus",
    "description": "Signs",
    "phone": "(407) 549-2531",
    "address": " 5473 Benchmark Ln  Sanford, FL 32773",
    "location": "Dixie"
  },
  {
    "name": "CBS Outdoor",
    "description": "Signs",
    "phone": "(407) 330-0339",
    "address": " 2687 S Design Ct  Sanford, FL 32773",
    "location": "Dixie"
  },
  {
    "name": "W G M Signs",
    "description": "Advertising Specialties",
    "phone": "(321) 363-3763",
    "address": " 2360 Northumbria Dr  Sanford, FL 32771",
    "location": "Dixie"
  },
  {
    "name": "Orlando SEO Consultant",
    "description": "Internet Products & Services",
    "phone": "(407) 314-6357",
    "address": " 365 Crest St  Sanford, FL 32771",
    "location": "Dixie"
  },
  {
    "name": "AlphaGraphics",
    "description": "Printing Services",
    "phone": "(407) 330-0245",
    "address": " 1061 S Sun Dr Ste 1033  Lake Mary, FL 32746",
    "location": "Dixie"
  },
  {
    "name": "Virtual Stacks Systems",
    "description": "Web Site Design & Services",
    "phone": "(407) 544-3201",
    "address": " 650 Technology Park  Lake Mary, FL 32746",
    "location": "Dixie"
  },
  {
    "name": "Essential Edge Marketing",
    "description": "Advertising Specialties",
    "phone": "(407) 252-9555",
    "address": " 4044 W Lake Mary Blvd  Lake Mary, FL 32746",
    "location": "Dixie"
  },
  {
    "name": "Certnutri.com",
    "description": "Internet Marketing & Advertising",
    "phone": "(407) 781-8069",
    "address": " 255 Primera Blvd  Lake Mary, FL 32746",
    "location": "Dixie"
  },
  {
    "name": "Ratchet Guys Signs LLC",
    "description": "Signs-Maintenance & Repair",
    "phone": "(407) 285-3223",
    "address": " 786 Keeneland Pike  Lake Mary, FL 32746",
    "location": "Dixie"
  },
  {
    "name": "Here To Help Marketing",
    "description": "Marketing Consultants",
    "phone": "(407) 391-5422",
    "address": " 255 Primera Blvd Suite 160  Lake Mary, FL 32746",
    "location": "Dixie"
  },
  {
    "name": "Wide Fusion",
    "description": "Internet Marketing & Advertising",
    "phone": "(407) 536-0142",
    "address": " 255 Primera Blvd Ste 160  Lake Mary, FL 32746",
    "location": "Dixie"
  },
  {
    "name": "Advertising Networks of Florida",
    "description": "Advertising-Shoppers Publications",
    "phone": "(866) 742-1373",
    "address": " 610 Crescent Executive Ct Ste 112  Lake Mary, FL 32746",
    "location": "Dixie"
  },
  {
    "name": "Blue Skies Advertising Inc",
    "description": "Advertising Specialties",
    "phone": "(407) 687-2961",
    "address": " 204 Teakwood Ct  Lake Mary, FL 32746",
    "location": "Dixie"
  },
  {
    "name": "Design Studio Vega",
    "description": "Internet Marketing & Advertising",
    "phone": "(321) 578-9277",
    "address": " 1275 Glencrest Dr  Lake MAry, FL 32746",
    "location": "Dixie"
  },
  {
    "name": "Bbjcloud.com",
    "description": "Internet Marketing & Advertising",
    "phone": "(407) 574-6986",
    "address": " 111 Commerce St  Lake Mary, FL 32746",
    "location": "Dixie"
  },
  {
    "name": "Rider Now Magazine",
    "description": "Advertising Specialties",
    "phone": "(352) 598-6222",
    "address": " 324 Old Mill Rd  Deltona, FL 32725",
    "location": "Dixie"
  },
  {
    "name": "Fausnight Signs",
    "description": "Signs",
    "phone": "(407) 331-4422",
    "address": " 869 Waterway Pl  Longwood, FL 32750",
    "location": "Dixie"
  },
  {
    "name": "Electronic Sign Systems",
    "description": "Signs",
    "phone": "(321) 231-2015",
    "address": " 845 Waterway Pl  Longwood, FL 32750",
    "location": "Dixie"
  },
  {
    "name": "Advantage Signs & Advertising",
    "description": "Signs",
    "phone": "(407) 339-7446",
    "address": " 1983 Corporate Sq  Longwood, FL 32750",
    "location": "Dixie"
  },
  {
    "name": "Marselle Sign and Graphics",
    "description": "Signs",
    "phone": "(407) 327-7878",
    "address": " 110 State Road 419  Winter Springs, FL 32708",
    "location": "Dixie"
  },
  {
    "name": "SEO Marketing Engine",
    "description": "Internet Marketing & Advertising",
    "phone": "(321) 282-2306",
    "address": " 2290 N Ronald Reagan Blvd Ste 120  Longwood, FL 32750",
    "location": "Dixie"
  },
  {
    "name": "Orlando Laser Shop",
    "description": "Advertising Specialties",
    "phone": "(407) 960-5989",
    "address": " 2290 N Ronald Reagan Blvd  Longwood, FL 32750",
    "location": "Dixie"
  },
  {
    "name": "JJC Marketing Solutions",
    "description": "Marketing Programs & Services",
    "phone": "(321) 765-7710",
    "address": " 639 Marni Dr  Winter Springs, FL 32708",
    "location": "Dixie"
  },
  {
    "name": "Technigrafix Signs",
    "description": "Decals",
    "phone": "(407) 257-6502",
    "address": " 783 E Fairbairn Dr  Deltona, FL 32725",
    "location": "Dixie"
  },
  {
    "name": "Action Printers Of DeBary",
    "description": "Printers-Equipment & Supplies",
    "phone": "(386) 668-0404",
    "address": " 41 S Charles Richard Beall Blvd  Debary, FL 32713",
    "location": "Dixie"
  },
  {
    "name": "Wholesale Sign Builders Inc",
    "description": "Signs",
    "phone": "(407) 831-3344",
    "address": " 490 Bay Meadow Rd  Longwood, FL 32750",
    "location": "Dixie"
  },
  {
    "name": "Gotcha Graphics Inc",
    "description": "Signs",
    "phone": "(407) 839-8800",
    "address": " 1636 N Ronald Reagan Blvd  Longwood, FL 32750",
    "location": "Dixie"
  },
  {
    "name": "Sir Speedy",
    "description": "Printing Services-Commercial",
    "phone": "(407) 260-1199",
    "address": " 131 Applewood Dr Ste 140  Longwood, FL 32750",
    "location": "Dixie"
  },
  {
    "name": "The Sign King Inc",
    "description": "Signs",
    "phone": "(407) 830-7443",
    "address": " 726 N Us Highway 17 92  Longwood, FL 32750",
    "location": "Dixie"
  },
  {
    "name": "Greyson Corp",
    "description": "Signs",
    "phone": "(407) 830-9433",
    "address": " 726 N Us Highway 17 92  Longwood, FL 32750",
    "location": "Dixie"
  },
  {
    "name": "Kw Signs & Graphics",
    "description": "Signs",
    "phone": "(407) 332-6528",
    "address": " 710 Commerce Cir  Longwood, FL 32750",
    "location": "Dixie"
  },
  {
    "name": "Harmony Business Services",
    "description": "Business Cards",
    "phone": "(407) 967-6738",
    "address": " 314 Kirkcaldy Dr  Winter Springs, FL 32708",
    "location": "Dixie"
  },
  {
    "name": "Advision Signs",
    "description": "Signs",
    "phone": "(407) 339-7446",
    "address": " 232 Michael Dr  Longwood, FL 32779",
    "location": "Dixie"
  },
  {
    "name": "Decal Accents",
    "description": "Signs",
    "phone": "(407) 451-0287",
    "address": " 1743 Rutledge Rd  Longwood, FL 32779",
    "location": "Dixie"
  },
  {
    "name": "BizCard Xpress",
    "description": "Business Cards",
    "phone": "(386) 218-5940",
    "address": " 1209 Saxon Blvd  Orange City, FL 32763",
    "location": "Dixie"
  },
  {
    "name": "AGIL Enterprises",
    "description": "Internet Marketing & Advertising",
    "phone": "(407) 233-5083",
    "address": " 745 W State Road 434  Longwood, FL 32750",
    "location": "Dixie"
  },
  {
    "name": "Ezyield.Com Inc",
    "description": "Internet Marketing & Advertising",
    "phone": "(407) 629-0900",
    "address": " 209 N Moss Rd  Winter Springs, FL 32708",
    "location": "Dixie"
  },
  {
    "name": "Innovative Signs Inc",
    "description": "Signs",
    "phone": "(407) 830-5155",
    "address": " 130 Bomar Ct  Longwood, FL 32750",
    "location": "Dixie"
  },
  {
    "name": "Am",
    "description": "Advertising Specialties",
    "phone": "(386) 574-9132",
    "address": " 1357 coronet dr  deltona, FL 32725",
    "location": "Dixie"
  },
  {
    "name": "Cutting Edge Signs and Visuals",
    "description": "Signs",
    "phone": "(407) 541-0800",
    "address": " 1055 Nursery Rd Unit 105  Winter Springs, FL 32708",
    "location": "Dixie"
  },
  {
    "name": "Tuten Graphics",
    "description": "Signs",
    "phone": "(407) 830-8817",
    "address": " 1051 Vista Rd  Longwood, FL 32750",
    "location": "Dixie"
  },
  {
    "name": "Do It Right Entertainment",
    "description": "Disc Jockeys",
    "phone": "(386) 320-3872",
    "address": " 144 Ancona ave  Debary, FL 32713",
    "location": "Dixie"
  },
  {
    "name": "Big Cypress Golf Club",
    "description": "Signs",
    "phone": "(407) 695-4830",
    "address": " 900 W State Road 434  Winter Springs, FL 32708",
    "location": "Dixie"
  },
  {
    "name": "Community Fare",
    "description": "Direct Mail Advertising",
    "phone": "(407) 332-5373",
    "address": " 898 E Church Ave  Longwood, FL 32750",
    "location": "Dixie"
  },
  {
    "name": "Your Brand Designs",
    "description": "Advertising-Promotional Products",
    "phone": "(407) 749-2167",
    "address": " 237 N Us Highway 17 92  Longwood, FL 32750",
    "location": "Dixie"
  },
  {
    "name": "Iguana Signs",
    "description": "Signs",
    "phone": "(386) 574-1211",
    "address": " 954 Saxon Blvd  Deltona, FL 32725",
    "location": "Dixie"
  },
  {
    "name": "Seminole Work Opportunity Program",
    "description": "Mail & Shipping Services",
    "phone": "(407) 699-4419",
    "address": " 1095 Belle Ave  Winter Springs, FL 32708",
    "location": "Dixie"
  },
  {
    "name": "Affordable Signs",
    "description": "Signs",
    "phone": "(407) 299-1288",
    "address": " 870 E State Road 434  Longwood, FL 32750",
    "location": "Dixie"
  },
  {
    "name": "Orlando Sentinel Advertising",
    "description": "Advertising Specialties",
    "phone": "(386) 851-7900",
    "address": " 2730 Enterprise Rd  Orange City, FL 32763",
    "location": "Dixie"
  },
  {
    "name": "Twi Services Inc",
    "description": "Printing Services",
    "phone": "(407) 260-0565",
    "address": " 460 N Ronald Reagan Blvd Ste 142  Longwood, FL 32750",
    "location": "Dixie"
  },
  {
    "name": "Affordable Discount Signs Inc",
    "description": "Signs",
    "phone": "(407) 463-9334",
    "address": " PO Box 520652  Longwood, FL 32752",
    "location": "Dixie"
  },
  {
    "name": "The Pennysaver",
    "description": "Direct Mail Advertising",
    "phone": "(386) 736-3587",
    "address": " 1109 Saxon Blvd  Orange City, FL 32763",
    "location": "Dixie"
  },
  {
    "name": "The Redwood Agency, LLC",
    "description": "Internet Marketing & Advertising",
    "phone": "(407) 476-6136",
    "address": " 100 Sandy Oaks PL  Longwood, FL 32779",
    "location": "Dixie"
  },
  {
    "name": "Gameday Graphix",
    "description": "Signs",
    "phone": "(407) 831-7446",
    "address": " 185 S Ronald Reagan Blvd  Longwood, FL 32750",
    "location": "Dixie"
  },
  {
    "name": "Barden Circulation",
    "description": "Advertising Specialties",
    "phone": "(321) 972-9974",
    "address": " 250 S Ronald Reagan Blvd Ste 118  Longwood, FL 32750",
    "location": "Dixie"
  },
  {
    "name": "Letra-Tek Inc",
    "description": "Signs",
    "phone": "(407) 331-3386",
    "address": " 278 Park Ave  Longwood, FL 32750",
    "location": "Dixie"
  },
  {
    "name": "Ace Custom Signs Winter Park",
    "description": "Signs",
    "phone": "(321) 295-7453",
    "address": " 466 W State Road 434  Longwood, FL 32750",
    "location": "Dixie"
  },
  {
    "name": "ABX SIGNS",
    "description": "Digital Printing & Imaging",
    "phone": "(407) 960-2510",
    "address": " 745 W State Road 434 Ste K  Longwood, FL 32750",
    "location": "Dixie"
  },
  {
    "name": "1 Stop Print Shop",
    "description": "Clothing Stores",
    "phone": "(407) 331-3211",
    "address": " 530 S Ronald Reagan Blvd  Longwood, FL 32750",
    "location": "Dixie"
  },
  {
    "name": "Gallagher Promotional Products",
    "description": "Advertising-Promotional Products",
    "phone": "(407) 788-0818",
    "address": " 655 Florida Central Pkwy  Longwood, FL 32750",
    "location": "Dixie"
  },
  {
    "name": "Gallagher Promotional PRO",
    "description": "Advertising Specialties",
    "phone": "(407) 332-6826",
    "address": " 659 Florida Central Pkwy  Longwood, FL 32750",
    "location": "Dixie"
  },
  {
    "name": "DG Productions",
    "description": "Advertising Specialties",
    "phone": "(407) 331-1066",
    "address": " 160 Hope St  Longwood, FL 32750",
    "location": "Dixie"
  },
  {
    "name": "Rogers Signs",
    "description": "Signs",
    "phone": "(407) 331-1038",
    "address": " 230 W Marvin Ave Ste 100  Longwood, FL 32750",
    "location": "Dixie"
  },
  {
    "name": "Acculetters",
    "description": "Signs",
    "phone": "(407) 660-2228",
    "address": " 722 Savage Ct  Longwood, FL 32750",
    "location": "Dixie"
  },
  {
    "name": "Signs Xpress",
    "description": "Advertising Specialties",
    "phone": "(407) 767-6355",
    "address": " 1018 W State Road 434  Longwood, FL 32750",
    "location": "Dixie"
  },
  {
    "name": "Advance Signs & Printing LLC",
    "description": "Print Advertising",
    "phone": "(407) 442-3033",
    "address": " 1155 W State Road 434 Ste 159  Longwood, FL 32750",
    "location": "Dixie"
  },
  {
    "name": "Signature Data 1",
    "description": "Direct Mail Advertising",
    "phone": "(321) 696-1152",
    "address": " 412 Courtney Springs Cir  Winter Springs, FL 32708",
    "location": "Dixie"
  },
  {
    "name": "Summit Marketing - Timeshare Rental & Sales",
    "description": "Internet Marketing & Advertising",
    "phone": "(855) 602-7991",
    "address": " 416 Commerce Way Ste 140  Longwood, FL 32750",
    "location": "Dixie"
  },
  {
    "name": "Creative Sign Designs",
    "description": "Signs",
    "phone": "(800) 804-4809",
    "address": " 285 National Pl  Longwood, FL 32750",
    "location": "Dixie"
  },
  {
    "name": "Horizon Signs",
    "description": "Signs",
    "phone": "(407) 341-8118",
    "address": " 208 Williams Rd  Winter Springs, FL 32708",
    "location": "Dixie"
  },
  {
    "name": "Match-Up Promotions",
    "description": "Advertising-Promotional Products",
    "phone": "(800) 815-3093",
    "address": " 975 Florida Central Pkwy Ste 1900  Longwood, FL 32750",
    "location": "Dixie"
  },
  {
    "name": "Signs-O-Sourus",
    "description": "Signs",
    "phone": "(407) 677-8965",
    "address": " 3008 S US Highway 17/92  Casselberry, FL 32707",
    "location": "Dixie"
  },
  {
    "name": "Sign-o-saurus, Inc",
    "description": "Signs",
    "phone": "(407) 413-2033",
    "address": " 3008 S Us Highway 17/92  Casselberry, FL 32707",
    "location": "Dixie"
  },
  {
    "name": "Empower Network",
    "description": "Internet Marketing & Advertising",
    "phone": "(407) 620-5585",
    "address": " Po Box 390874  Deltona, FL 32739",
    "location": "Dixie"
  },
  {
    "name": "Florida Sign Source",
    "description": "Signs",
    "phone": "(407) 316-9992",
    "address": " 1355 Bennett Dr  Longwood, FL 32750",
    "location": "Dixie"
  },
  {
    "name": "Andytolbert.com",
    "description": "Internet Marketing & Advertising",
    "phone": "(407) 328-0970",
    "address": " 1499 W State Road 434  Longwood, FL 32750",
    "location": "Dixie"
  },
  {
    "name": "Safety ER",
    "description": "Safety Equipment & Clothing",
    "phone": "(407) 339-8600",
    "address": " 1320 E Altamonte Dr  Altamonte Springs, FL 32701",
    "location": "Dixie"
  },
  {
    "name": "Direct Sales Marketing of Florida, Inc.",
    "description": "Direct Mail Advertising",
    "phone": "(386) 228-0458",
    "address": " 1477 S Leavitt Ave  Orange City, FL 32763",
    "location": "Dixie"
  },
  {
    "name": "Babcock Business Systems",
    "description": "Copy Machines Service & Repair",
    "phone": "(386) 775-7516",
    "address": " 105 Cedar Ave  Orange City, FL 32763",
    "location": "Dixie"
  },
  {
    "name": "Community Values Coupon Magazine",
    "description": "Direct Mail Advertising",
    "phone": "(407) 695-5813",
    "address": " 4905 Petra Ct  Winter Springs, FL 32708",
    "location": "Dixie"
  },
  {
    "name": "Slick Signs",
    "description": "Signs",
    "phone": "(407) 331-4334",
    "address": " 331 Oleander Way  Casselberry, FL 32707",
    "location": "Dixie"
  },
  {
    "name": "Stellar Sign & Design",
    "description": "Signs",
    "phone": "(407) 660-3174",
    "address": " 331 Oleander Way  Casselberry, FL 32707",
    "location": "Dixie"
  },
  {
    "name": "Lighthouse Mailing Service Inc",
    "description": "Mail & Shipping Services",
    "phone": "(386) 456-0369",
    "address": " 726 N Firwood Dr  Deltona, FL 32725",
    "location": "Dixie"
  },
  {
    "name": "Platinum Signs And Design",
    "description": "Signs",
    "phone": "(407) 971-3640",
    "address": " 352 W Melody Ln  Casselberry, FL 32707",
    "location": "Dixie"
  },
  {
    "name": "Ips International Products SRCNG",
    "description": "Advertising Specialties",
    "phone": "(407) 365-8083",
    "address": " 354 Terrace Dr  Oviedo, FL 32765",
    "location": "Dixie"
  },
  {
    "name": "Florida Transcor, Inc.",
    "description": "Traffic Signs & Signals",
    "phone": "(321) 304-2447",
    "address": " 325 Commercial St  Casselberry, FL 32707",
    "location": "Dixie"
  },
  {
    "name": "Signal Out Door Advertising",
    "description": "Advertising Specialties",
    "phone": "(407) 856-7079",
    "address": " 101 Sunnytown Rd Ste 312  Casselberry, FL 32707",
    "location": "Dixie"
  },
  {
    "name": "Pin Depot",
    "description": "Advertising Specialties",
    "phone": "(800) 803-2879",
    "address": " 2200 Winter Springs Blvd Ste 106-322  Oviedo, FL 32765",
    "location": "Dixie"
  },
  {
    "name": "American Sign & Printing",
    "description": "Signs",
    "phone": "(407) 260-0034",
    "address": " 5580 S Us Highway 17/92  Casselberry, FL 32707",
    "location": "Dixie"
  },
  {
    "name": "Sowers Web Technologies",
    "description": "Web Site Design & Services",
    "phone": "(407) 900-5069",
    "address": " 450 Ridgewood St  Altamonte Springs, FL 32701",
    "location": "Dixie"
  },
  {
    "name": "Webstuff LLC",
    "description": "Web Site Design & Services",
    "phone": "(716) 759-4636",
    "address": " 519 Sabal Trail Cir  Longwood, FL 32779",
    "location": "Dixie"
  },
  {
    "name": "Futura Design Inc",
    "description": "Signs",
    "phone": "(407) 699-3031",
    "address": " 327 Goosecreek Dr  Winter Springs, FL 32708",
    "location": "Dixie"
  },
  {
    "name": "Three Sixteen Digital Marketing",
    "description": "Internet Marketing & Advertising",
    "phone": "(407) 490-4106",
    "address": " 301 Cypress Landing Dr  Longwood, FL 32779",
    "location": "Dixie"
  },
  {
    "name": "Great Impressions Signs & Printing",
    "description": "Signs",
    "phone": "(407) 647-5151",
    "address": " 205 Valencia Landing Dr  Orange City, FL 32763",
    "location": "Dixie"
  },
  {
    "name": "community business directory inc",
    "description": "Advertising Specialties",
    "phone": "(407) 439-4495",
    "address": " 344 Ringwood Cir  winter springs, FL 32708",
    "location": "Dixie"
  },
  {
    "name": "Thehomethatyouwant.com",
    "description": "Internet Marketing & Advertising",
    "phone": "(407) 314-8919",
    "address": " 1150 Douglas Ave  Altamonte Springs, FL 32714",
    "location": "Dixie"
  },
  {
    "name": "C & S Signs",
    "description": "Signs-Maintenance & Repair",
    "phone": "(407) 331-5299",
    "address": " 970 Shallowford St  Altamonte Springs, FL 32701",
    "location": "Dixie"
  },
  {
    "name": "Zoomania1",
    "description": "Internet Marketing & Advertising",
    "phone": "(407) 451-2880",
    "address": " 433 E Highland St  Altamonte Springs, FL 32701",
    "location": "Dixie"
  },
  {
    "name": "7 Media One Inc",
    "description": "Advertising Specialties",
    "phone": "(407) 682-0000",
    "address": " 1180 Spring Centre South Blvd  Altamonte Springs, FL 32714",
    "location": "Dixie"
  },
  {
    "name": "Imagine Signs and Graphics",
    "description": "Graphic Designers",
    "phone": "(407) 205-7544",
    "address": " 1140 E Altamonte Dr Unit 150353  Altamonte Springs, FL 32715",
    "location": "Dixie"
  },
  {
    "name": "United Trophy",
    "description": "Trophies, Plaques & Medals",
    "phone": "(407) 834-9812",
    "address": " 345 State Road 436  Fern Park, FL 32730",
    "location": "Dixie"
  },
  {
    "name": "Xtract Design",
    "description": "Computer Graphics",
    "phone": "(407) 718-8030",
    "address": " 1205 La Mesa Ave  Winter Springs, FL 32708",
    "location": "Dixie"
  },
  {
    "name": "Lighthouse Mailing Services Inc",
    "description": "Mail & Shipping Services",
    "phone": "(386) 456-0369",
    "address": " 200 E Graves Ave  Orange City, FL 32763",
    "location": "Dixie"
  },
  {
    "name": "Visual",
    "description": "Signs",
    "phone": "(407) 278-3600",
    "address": " 451 Aulin Ave Ste B  Oviedo, FL 32765",
    "location": "Dixie"
  },
  {
    "name": "The Sign Man",
    "description": "Signs",
    "phone": "(407) 365-3722",
    "address": " 160 E Broadway St  Oviedo, FL 32765",
    "location": "Dixie"
  },
  {
    "name": "Drmohasaoji.com",
    "description": "Internet Marketing & Advertising",
    "phone": "(407) 432-1056",
    "address": " 290 Hibiscus Rd  Casselberry, FL 32707",
    "location": "Dixie"
  },
  {
    "name": "Sales & Marketing Technologies",
    "description": "Internet Marketing & Advertising",
    "phone": "(407) 682-2222",
    "address": " 920 Wekiva Springs Rd # 916130  Longwood, FL 32791",
    "location": "Dixie"
  },
  {
    "name": "Signworks Graphik & Design Inc",
    "description": "Signs",
    "phone": "(407) 359-7100",
    "address": " 550 Kane Ct Ste 200  Oviedo, FL 32765",
    "location": "Dixie"
  },
  {
    "name": "A M Pro Lighting & Signs Inc",
    "description": "Signs",
    "phone": "(407) 706-0312",
    "address": " 1115 Vidina Pl  Oviedo, FL 32765",
    "location": "Dixie"
  },
  {
    "name": "Imageworks",
    "description": "Signs",
    "phone": "(386) 775-0165",
    "address": " 306 N Volusia Ave  Orange City, FL 32763",
    "location": "Dixie"
  },
  {
    "name": "Maplestreetinc.com",
    "description": "Internet Marketing & Advertising",
    "phone": "(321) 214-1776",
    "address": " 280 Wekiva Springs Rd  Longwood, FL 32779",
    "location": "Dixie"
  },
  {
    "name": "Copy Cat Copy Centers",
    "description": "Internet Marketing & Advertising",
    "phone": "(386) 218-6878",
    "address": " 475 N Volusia Ave  Orange City, FL 32763",
    "location": "Dixie"
  },
  {
    "name": "Adsrate Marketing Services",
    "description": "Internet Marketing & Advertising",
    "phone": "(407) 960-5953",
    "address": " 1070 Montgomery Rd #2021  Altamonte Springs, FL 32714",
    "location": "Dixie"
  },
  {
    "name": "Total Image Signs & Graphics, Inc.",
    "description": "Signs",
    "phone": "(407) 688-4321",
    "address": " 1400 San Carlos Ave  Deltona, FL 32738",
    "location": "Dixie"
  },
  {
    "name": "Big C's Signs",
    "description": "Signs",
    "phone": "(407) 497-8981",
    "address": " 815 Eyrie Dr  Oviedo, FL 32765",
    "location": "Dixie"
  },
  {
    "name": "Content and Concepts",
    "description": "Internet Marketing & Advertising",
    "phone": "(954) 471-8432",
    "address": " 6 Winding Ridge Rd  Casselberry, FL 32707",
    "location": "Dixie"
  },
  {
    "name": "Premier Sign Design",
    "description": "Advertising Specialties",
    "phone": "(321) 295-7865",
    "address": " 658 Douglas Ave  Altamonte Springs, FL 32714",
    "location": "Dixie"
  },
  {
    "name": "CDO Global",
    "description": "Advertising Specialties",
    "phone": "(321) 444-6865",
    "address": " 282 Wilshire Blvd  Casselberry, FL 32707",
    "location": "Dixie"
  },
  {
    "name": "Hit Or Click Marketing",
    "description": "Internet Marketing & Advertising",
    "phone": "(407) 326-8188",
    "address": " 3190 Howard Ave  Oviedo, FL 32765",
    "location": "Dixie"
  },
  {
    "name": "Nationwide Small Business Resources",
    "description": "Web Site Design & Services",
    "phone": "(386) 516-3550",
    "address": " 2048 Howland Blvd  Deltona, FL 32738",
    "location": "Dixie"
  },
  {
    "name": "Rolcc.net",
    "description": "Internet Marketing & Advertising",
    "phone": "(408) 260-0257",
    "address": " 1498 Palomino Way  Oviedo, FL 32765",
    "location": "Dixie"
  },
  {
    "name": "Memory Lanes",
    "description": "Advertising Specialties",
    "phone": "(407) 339-7771",
    "address": " Alt Spg  Altamonte Springs, FL 32701",
    "location": "Dixie"
  },
  {
    "name": "The Razzi Group",
    "description": "Internet Marketing & Advertising",
    "phone": "(407) 636-0069",
    "address": " 203 Briar Cliff Dr  Longwood, FL 32779",
    "location": "Dixie"
  },
  {
    "name": "Treefrog Cinegraphix",
    "description": "Signs",
    "phone": "(407) 637-2079",
    "address": " 478 E Altamonte Dr Ste 108 PMB 150  Altamonte Springs, FL 32701",
    "location": "Dixie"
  },
  {
    "name": "Allegra Marketing Print Mail",
    "description": "Direct Mail Advertising",
    "phone": "(407) 869-9955",
    "address": " 620 Douglas Ave Ste 1308  Altamonte Springs, FL 32714",
    "location": "Dixie"
  },
  {
    "name": "Best of Orlando",
    "description": "Direct Mail Advertising",
    "phone": "(407) 571-2980",
    "address": " 260 Maitland Ave  Altamonte Springs, FL 32701",
    "location": "Dixie"
  },
  {
    "name": "Jigwiz Media",
    "description": "Internet Marketing & Advertising",
    "phone": "(800) 961-8330",
    "address": " 260 Maitland Ave Ste 2500  Altamonte Springs, FL 32701",
    "location": "Dixie"
  },
  {
    "name": "KOBALT MEDIA",
    "description": "Internet Directories",
    "phone": "(407) 579-5095",
    "address": " 285 Uptown Blvd  Altamonte Springs, FL 32701",
    "location": "Dixie"
  },
  {
    "name": "Signman Sez Inc",
    "description": "Computer Graphics",
    "phone": "(407) 620-9368",
    "address": " 8351 S Us Highway 17/92  Fern Park, FL 32730",
    "location": "Dixie"
  },
  {
    "name": "Stockton Turner & Moreau",
    "description": "Signs",
    "phone": "(407) 389-0870",
    "address": " 375 Douglas Ave  Altamonte Springs, FL 32714",
    "location": "Dixie"
  },
  {
    "name": "Richard Holland/southern Distr",
    "description": "Advertising Specialties",
    "phone": "(407) 331-9667",
    "address": " 2318 Castlewood Rd  Maitland, FL 32751",
    "location": "Dixie"
  },
  {
    "name": "Web Resource Management",
    "description": "Web Site Design & Services",
    "phone": "(407) 389-4300",
    "address": " 2957 W State Road 434 Ste 100  Longwood, FL 32779",
    "location": "Dixie"
  },
  {
    "name": "Orlando Sign Guy",
    "description": "Signs",
    "phone": "(407) 620-4189",
    "address": " 130 Obrien Rd  Fern Park, FL 32730",
    "location": "Dixie"
  },
  {
    "name": "Sunny Signs",
    "description": "Signs",
    "phone": "(407) 831-2888",
    "address": " 2345 Markingham Rd  Maitland, FL 32751",
    "location": "Dixie"
  },
  {
    "name": "Mobile Designs Inc",
    "description": "T-Shirts",
    "phone": "(386) 327-2159",
    "address": " 1607 S. State Road 15 A Suite 6  Deland, FL 32720",
    "location": "Dixie"
  },
  {
    "name": "Crown Trophy",
    "description": "Awards",
    "phone": "(407) 786-0430",
    "address": " 851 W State Road 436  Altamonte Springs, FL 32714",
    "location": "Dixie"
  },
  {
    "name": "Madcat Marketing and Consultants",
    "description": "Embroidery",
    "phone": "(407) 695-4600",
    "address": " 1800 Pembrook Dr  Orlando, FL 32810",
    "location": "Dixie"
  },
  {
    "name": "groovydude creations LLC",
    "description": "Buttons-Advertising",
    "phone": "(407) 312-7877",
    "address": " PO Box 560715  Orlando, FL 32856",
    "location": "Dixie"
  },
  {
    "name": "Flagnations",
    "description": "Signs",
    "phone": "(407) 349-5990",
    "address": " PO Box 1453  Geneva, FL 32732",
    "location": "Dixie"
  },
  {
    "name": "PRO Image Signs and Graph",
    "description": "Signs",
    "phone": "(407) 519-4065",
    "address": " 180 E State Road 46  Geneva, FL 32732",
    "location": "Dixie"
  },
  {
    "name": "Diversified Signs",
    "description": "Signs",
    "phone": "(407) 760-0484",
    "address": " 381 N Jungle Rd  Geneva, FL 32732",
    "location": "Dixie"
  },
  {
    "name": "Technosigns",
    "description": "Computer Graphics",
    "phone": "(407) 384-9300",
    "address": " 2781 Wrights Rd Ste 1261  Oviedo, FL 32765",
    "location": "Dixie"
  },
  {
    "name": "Magnet Minds, LLC",
    "description": "Internet Consultants",
    "phone": "(407) 583-6463",
    "address": " 5200 Lazy Oaks Dr  Winter Park, FL 32792",
    "location": "Dixie"
  },
  {
    "name": "Print Station",
    "description": "Printing Services-Commercial",
    "phone": "(407) 682-5899",
    "address": " 491 N. Highway 434 Suite 137  Altamonte Springs, FL 32714",
    "location": "Dixie"
  },
  {
    "name": "Yellow Pages of Central Florida",
    "description": "Publishers-Directory & Guide",
    "phone": "(407) 667-4745",
    "address": " 101 Southhall Ln  Maitland, FL 32751",
    "location": "Dixie"
  },
  {
    "name": "Jayco Signs",
    "description": "Signs",
    "phone": "(407) 339-5252",
    "address": " 149-151 Atlantic Dr  Maitland, FL 32751",
    "location": "Dixie"
  },
  {
    "name": "Brands That Last",
    "description": "Internet Marketing & Advertising",
    "phone": "(407) 353-0632",
    "address": " 524 Springcreek Dr  Longwood, FL 32779",
    "location": "Dixie"
  },
  {
    "name": "Cannon Virtual Assistants",
    "description": "Internet Marketing & Advertising",
    "phone": "(386) 463-0700",
    "address": " 1452 9th ST  Orange City, FL 32763",
    "location": "Dixie"
  },
  {
    "name": "Sign and Drive",
    "description": "Advertising Specialties",
    "phone": "(407) 834-5637",
    "address": " 137 Candace Dr  Maitland, FL 32751",
    "location": "Dixie"
  },
  {
    "name": "Rc Addiction Products",
    "description": "Signs",
    "phone": "(407) 960-4165",
    "address": " 110 Candace Dr Unit 4  Maitland, FL 32751",
    "location": "Dixie"
  },
  {
    "name": "Pro Signs and Graphics",
    "description": "Signs",
    "phone": "(407) 960-4165",
    "address": " 100 Candace Dr Unit 104  Maitland, FL 32751",
    "location": "Dixie"
  },
  {
    "name": "Ali Rand Websites",
    "description": "Web Site Design & Services",
    "phone": "(786) 294-2633",
    "address": " 410 Augustine Ct  Oviedo, FL 32765",
    "location": "Dixie"
  },
  {
    "name": "Tc Commercial Advertising Sales",
    "description": "Advertising Specialties",
    "phone": "(888) 224-4836",
    "address": " 911 N State Road 434  Altamonte Springs, FL 32714",
    "location": "Dixie"
  },
  {
    "name": "Great Impressions Signs Printing & Promotional Items",
    "description": "Signs",
    "phone": "(407) 647-5151",
    "address": " 633 Woodland St  Altamonte Springs, FL 32714",
    "location": "Dixie"
  },
  {
    "name": "Orlando SEO Expert | Washeen, FL",
    "description": "Internet Marketing & Advertising",
    "phone": "(407) 205-9083",
    "address": " 2441 Lake Vista Ct  Casselberry, FL 32707",
    "location": "Dixie"
  },
  {
    "name": "Corporate Branding Solutions Inc.",
    "description": "Advertising Specialties",
    "phone": "(407) 682-6184",
    "address": " PO Box 161527  Altamonte Springs, FL 32716",
    "location": "Dixie"
  },
  {
    "name": "Clickable Impact, Inc.",
    "description": "Internet Marketing & Advertising",
    "phone": "(407) 399-9811",
    "address": " 250 Lake Seminary Cir  Maitland, FL 32751",
    "location": "Dixie"
  },
  {
    "name": "Pinnacle Services",
    "description": "Signs",
    "phone": "(386) 748-2420",
    "address": " 1645 State Road 472  Deland, FL 32724",
    "location": "Dixie"
  },
  {
    "name": "Cuspro, Inc.",
    "description": "Specialty Bags",
    "phone": "(407) 278-8980",
    "address": " PO Box 621239  Oviedo, FL 32762",
    "location": "Dixie"
  },
  {
    "name": "T J M Communications Inc",
    "description": "Advertising Specialties",
    "phone": "(407) 977-5004",
    "address": " 2441 W State Road 426  Oviedo, FL 32765",
    "location": "Dixie"
  },
  {
    "name": "Oakley Signs & Graphics Inc",
    "description": "Signs",
    "phone": "(407) 262-8200",
    "address": " 550 Northlake Blvd  Altamonte Springs, FL 32701",
    "location": "Dixie"
  },
  {
    "name": "Marker Infocomm Inc",
    "description": "Direct Mail Advertising",
    "phone": "(407) 754-9000",
    "address": " 550 Northlake Blvd Ste 1004  Altamonte Springs, FL 32701",
    "location": "Dixie"
  },
  {
    "name": "P3D Creations",
    "description": "Prototypes",
    "phone": "(407) 785-4119",
    "address": " Altamonte Springs FL 32714  Altamonte Springs, FL 32714",
    "location": "Dixie"
  },
  {
    "name": "Bill Blackwelder Signs",
    "description": "Signs",
    "phone": "(321) 972-6147",
    "address": " 540 N State Road 434  Altamonte Springs, FL 32714",
    "location": "Dixie"
  },
  {
    "name": "Instant Banners & Signs Inc",
    "description": "Signs",
    "phone": "(407) 869-0662",
    "address": " 540 N State Road 434  Altamonte Springs, FL 32714",
    "location": "Dixie"
  },
  {
    "name": "Heritage Financial Service",
    "description": "Advertising Specialties",
    "phone": "(407) 702-6655",
    "address": " 166 Lookout Pl  Maitland, FL 32751",
    "location": "Dixie"
  },
  {
    "name": "RipCurrent Content Marketing Services",
    "description": "Copy Writers",
    "phone": "(321) 312-0161",
    "address": " 414 Majorca Ave  Altamonte Springs, FL 32714",
    "location": "Dixie"
  },
  {
    "name": "Timeshares By Owner Of Orlando",
    "description": "Internet Marketing & Advertising",
    "phone": "(407) 671-9001",
    "address": " 1454 State Road 436  Casselberry, FL 32707",
    "location": "Dixie"
  },
  {
    "name": "Www.appsmartinc.com",
    "description": "Internet Marketing & Advertising",
    "phone": "(407) 617-8090",
    "address": " 407 Lake Howell Rd  Maitland, FL 32751",
    "location": "Dixie"
  },
  {
    "name": "Nostressbuyersforyourhouse.com",
    "description": "Internet Marketing & Advertising",
    "phone": "(386) 855-8740",
    "address": " 3150 Tiburon Ln  Deltona, FL 32738",
    "location": "Dixie"
  },
  {
    "name": "Stevens Associates",
    "description": "Advertising Specialties",
    "phone": "(407) 774-9991",
    "address": " 400 Beech Tree Ln  Longwood, FL 32779",
    "location": "Dixie"
  },
  {
    "name": "Johnson Marketing",
    "description": "Internet Marketing & Advertising",
    "phone": "(321) 209-5183",
    "address": " 3095 Tioga Ter  Deltona, FL 32738",
    "location": "Dixie"
  },
  {
    "name": "Sticky Style Designs",
    "description": "Decals",
    "phone": "(386) 320-6423",
    "address": " 2074 Old Train Rd  Deltona, FL 32738",
    "location": "Dixie"
  },
  {
    "name": "Ads Pay Pro",
    "description": "Sales Promotion Service",
    "phone": "(407) 718-4487",
    "address": " 1004 Covington St  Oviedo, FL 32765",
    "location": "Dixie"
  },
  {
    "name": "Signarama Orlando (North), FL",
    "description": "Signs",
    "phone": "(407) 960-4700",
    "address": " 1740 State Road 436 Ste 104  Winter Park, FL 32792",
    "location": "Dixie"
  },
  {
    "name": "Hendershot Anne",
    "description": "Advertising Specialties",
    "phone": "(407) 884-5665",
    "address": " 1641 Majestic Oak Dr  Apopka, FL 32712",
    "location": "Dixie"
  },
  {
    "name": "Sid Paterson Advertising",
    "description": "Advertising Specialties",
    "phone": "(407) 542-6008",
    "address": " 2937 Ashford Park Pl  Oviedo, FL 32765",
    "location": "Dixie"
  },
  {
    "name": "The Sunshine Group",
    "description": "Advertising Specialties",
    "phone": "(407) 623-3333",
    "address": " 125 S Swoope Ave Ste 101  Maitland, FL 32751",
    "location": "Dixie"
  },
  {
    "name": "LaBeau Media",
    "description": "Internet Marketing & Advertising",
    "phone": "(561) 440-3839",
    "address": " PO Box 947762  Maitland, FL 32794",
    "location": "Dixie"
  },
  {
    "name": "4D Interactive Inc",
    "description": "Production Companies-Film, TV, Radio, Etc",
    "phone": "(407) 622-7536",
    "address": " 111 S Maitland Ave  Maitland, FL 32751",
    "location": "Dixie"
  },
  {
    "name": "International Promotional",
    "description": "Advertising-Promotional Products",
    "phone": "(407) 786-4233",
    "address": " 925 Sunshine Ln  Altamonte Springs, FL 32714",
    "location": "Dixie"
  },
  {
    "name": "Anchor Promotional Merchandise",
    "description": "Advertising-Promotional Products",
    "phone": "(407) 831-4233",
    "address": " 925 Sunshine Ln Ste 1040  Altamonte Springs, FL 32714",
    "location": "Dixie"
  },
  {
    "name": "Innovate Writing",
    "description": "Copy Writers",
    "phone": "(407) 268-1269",
    "address": " PO Box 1702  Goldenrod, FL 32733",
    "location": "Dixie"
  },
  {
    "name": "Pro-Image Signs & Graphics Inc",
    "description": "Advertising Specialties",
    "phone": "(407) 657-6866",
    "address": " 7601 Citrus Ave  Winter Park, FL 32792",
    "location": "Dixie"
  },
  {
    "name": "Apartment Postcards, Inc.",
    "description": "Direct Mail Advertising",
    "phone": "(800) 973-3317",
    "address": " 1942 W County Road 419 Ste 1010  Chuluota, FL 32766",
    "location": "Dixie"
  },
  {
    "name": "X Studios Inc.",
    "description": "Internet Marketing & Advertising",
    "phone": "(321) 281-1708",
    "address": " 2700 Westhall Ln Ste 225  Maitland, FL 32751",
    "location": "Dixie"
  },
  {
    "name": "Bacon Digital",
    "description": "Internet Marketing & Advertising",
    "phone": "(321) 226-8396",
    "address": " 924 Bishop Park Ct  Winter Park, FL 32792",
    "location": "Dixie"
  },
  {
    "name": "A Fox Promotions",
    "description": "Advertising-Promotional Products",
    "phone": "(407) 539-1969",
    "address": " 1131 Willa Vista Trl  Maitland, FL 32751",
    "location": "Dixie"
  },
  {
    "name": "Southern Cross Media LLC",
    "description": "Internet Marketing & Advertising",
    "phone": "(321) 356-5350",
    "address": " 903 lake Lily Dr. A 322  Maitland, FL 32751",
    "location": "Dixie"
  },
  {
    "name": "ActivEngage, Inc.",
    "description": "Computer Software Publishers & Developers",
    "phone": "(321) 441-7722",
    "address": " 2701 Maitland Center Pkwy  Maitland, FL 32751",
    "location": "Dixie"
  },
  {
    "name": "All Out Digital Media",
    "description": "Internet Marketing & Advertising",
    "phone": "(407) 267-9463",
    "address": " **********************  Winter Park, FL 32792",
    "location": "Dixie"
  },
  {
    "name": "Web Design Deland",
    "description": "Web Site Design & Services",
    "phone": "(386) 690-5581",
    "address": " 2170 Deerfoot Trl  Deland, FL 32720",
    "location": "Dixie"
  },
  {
    "name": "Adelphia Business Solutions",
    "description": "Signs",
    "phone": "(407) 659-9116",
    "address": " 1800 Pembrook Dr  Orlando, FL 32810",
    "location": "Dixie"
  },
  {
    "name": "Plante Marketing",
    "description": "Coupon Advertising",
    "phone": "(386) 456-8225",
    "address": " 667 Jennings Ave  Lake Helen, FL 32744",
    "location": "Dixie"
  },
  {
    "name": "Royalty SEO Orlando",
    "description": "Internet Marketing & Advertising",
    "phone": "(954) 290-8285",
    "address": " 3675 Oakdale Cir  Oviedo, FL 32765",
    "location": "Dixie"
  },
  {
    "name": "Quick Advertising, Inc.",
    "description": "Signs",
    "phone": "(407) 774-0003",
    "address": " 3030 E Semoran Blvd Ste 156  Apopka, FL 32703",
    "location": "Dixie"
  },
  {
    "name": "Jobing.Com",
    "description": "Internet Marketing & Advertising",
    "phone": "(407) 367-4039",
    "address": " 2290 Lucien Way  Maitland, FL 32751",
    "location": "Dixie"
  },
  {
    "name": "Brwncald.com",
    "description": "Internet Marketing & Advertising",
    "phone": "(407) 661-9500",
    "address": " 2301 Lucien Way  Maitland, FL 32751",
    "location": "Dixie"
  },
  {
    "name": "Designage",
    "description": "Signs",
    "phone": "(407) 647-2950",
    "address": " 311 Circle Dr  Maitland, FL 32751",
    "location": "Dixie"
  },
  {
    "name": "Magic Brush Sign & Design",
    "description": "Advertising Specialties",
    "phone": "(386) 736-1142",
    "address": " 1190 Jackson Ranch Rd  Deland, FL 32724",
    "location": "Dixie"
  },
  {
    "name": "Afforfdable Signs Of Central Florida",
    "description": "Signs",
    "phone": "(407) 299-1288",
    "address": " 8601 Forest City Rd  Orlando, FL 32810",
    "location": "Dixie"
  },
  {
    "name": "Sydgan",
    "description": "Advertising Specialties",
    "phone": "(407) 644-3151",
    "address": " 120 Gem Lake Dr  Maitland, FL 32751",
    "location": "Dixie"
  },
  {
    "name": "Riza Marketing",
    "description": "Internet Marketing & Advertising",
    "phone": "(407) 420-0366",
    "address": " 8007 Plunkett Ave  Orlando, FL 32810",
    "location": "Dixie"
  },
  {
    "name": "Sign of Times",
    "description": "Signs",
    "phone": "(407) 365-6953",
    "address": " 300 Lake Eva Dr  Chuluota, FL 32766",
    "location": "Dixie"
  },
  {
    "name": "Success Landscape Marketing",
    "description": "Internet Marketing & Advertising",
    "phone": "(407) 571-9508",
    "address": " 1133 Louisiana Ave Ste 100  Winter Park, FL 32789",
    "location": "Dixie"
  },
  {
    "name": "Envision Orlando",
    "description": "Signs",
    "phone": "(407) 951-5532",
    "address": " 1150 Solana Ave  Winter Park, FL 32789",
    "location": "Dixie"
  },
  {
    "name": "Image Proz",
    "description": "Internet Marketing & Advertising",
    "phone": "(407) 547-8005",
    "address": " 1545 Hunters Stand Run  Oviedo, FL 32765",
    "location": "Dixie"
  },
  {
    "name": "Tttyrt.com",
    "description": "Internet Marketing & Advertising",
    "phone": "(662) 350-0579",
    "address": " 3655 Lomond Ct  Apopka, FL 32712",
    "location": "Dixie"
  },
  {
    "name": "Capital Sign An D Design",
    "description": "Signs",
    "phone": "(407) 293-2145",
    "address": " 2682 Dr Love Rd  Orlando, FL 32810",
    "location": "Dixie"
  },
  {
    "name": "Guy Wingo Signs",
    "description": "Signs",
    "phone": "(407) 293-2145",
    "address": " 2682 Pemberton Dr  Apopka, FL 32703",
    "location": "Dixie"
  },
  {
    "name": "Vital Signs Of Orlando Inc",
    "description": "Signs",
    "phone": "(407) 297-0680",
    "address": " 2674 Pemberton Dr  Apopka, FL 32703",
    "location": "Dixie"
  },
  {
    "name": "Diana's Graphics & Signs Inc",
    "description": "Graphic Designers",
    "phone": "(352) 383-6970",
    "address": " 31601 Colby Pl  Sorrento, FL 32776",
    "location": "Dixie"
  },
  {
    "name": "Bro N Mar Inc",
    "description": "Copying & Duplicating Service",
    "phone": "(407) 814-8770",
    "address": " 1631 Rock Springs Rd  Apopka, FL 32712",
    "location": "Dixie"
  },
  {
    "name": "Signco Architectural Corp",
    "description": "Signs",
    "phone": "(386) 740-8344",
    "address": " 1631 Rock Springs Rd  Apopka, FL 32712",
    "location": "Dixie"
  },
  {
    "name": "The Sign Guys Orlando",
    "description": "Signs",
    "phone": "(407) 776-8256",
    "address": " 6192 Edgewater Dr  Orlando, FL 32810",
    "location": "Dixie"
  },
  {
    "name": "Capital Signs",
    "description": "Advertising Specialties",
    "phone": "(407) 293-2145",
    "address": " 6110 Edgewater Dr  Orlando, FL 32810",
    "location": "Dixie"
  },
  {
    "name": "CSCF Group",
    "description": "Business Plans Development",
    "phone": "(407) 234-4191",
    "address": " PO Box 568443  Orlando, FL 32856",
    "location": "Dixie"
  },
  {
    "name": "AnalyticsBox",
    "description": "Internet Marketing & Advertising",
    "phone": "(514) 918-9472",
    "address": " PO box 547324  Orlando, FL 32854",
    "location": "Dixie"
  },
  {
    "name": "Sunbelt Signs",
    "description": "Signs",
    "phone": "(407) 532-5455",
    "address": " 3497 All American Blvd  Orlando, FL 32810",
    "location": "Dixie"
  },
  {
    "name": "Vital Signs of Orlando Inc",
    "description": "Signs",
    "phone": "(407) 297-0680",
    "address": " 7806 N Orange Blossom Trl  Orlando, FL 32810",
    "location": "Dixie"
  },
  {
    "name": "Creative Sign Inc",
    "description": "Signs",
    "phone": "(407) 293-9393",
    "address": " 5817 Beggs Rd  Orlando, FL 32810",
    "location": "Dixie"
  },
  {
    "name": "Signal Outdoor Advertisin",
    "description": "Outdoor Advertising",
    "phone": "(407) 856-7079",
    "address": " 3740 All American Blvd  Orlando, FL 32810",
    "location": "Dixie"
  },
  {
    "name": "Apopka Ink",
    "description": "Advertising Specialties",
    "phone": "(407) 299-0246",
    "address": " 2864 Clark St  Apopka, FL 32703",
    "location": "Dixie"
  },
  {
    "name": "Mail & More",
    "description": "Mail & Shipping Services",
    "phone": "(407) 299-7328",
    "address": " 5764 N Orange Blossom Trl  Orlando, FL 32810",
    "location": "Dixie"
  },
  {
    "name": "RTP Medical Solution",
    "description": "Internet Marketing & Advertising",
    "phone": "(407) 901-7588",
    "address": " 7037 Rose Ave  Orlando, FL 32810",
    "location": "Dixie"
  },
  {
    "name": "Creative Signs Inc",
    "description": "Signs",
    "phone": "(407) 293-9393",
    "address": " 2301 N Hiawassee Rd  Apopka, FL 32703",
    "location": "Dixie"
  },
  {
    "name": "FLCustom Design & Marketing",
    "description": "Trade Shows, Expositions & Fairs",
    "phone": "(352) 383-5556",
    "address": " 31615 Long Acres Dr  Sorrento, FL 32776",
    "location": "Dixie"
  },
  {
    "name": "GC Signs and Supply",
    "description": "Signs",
    "phone": "(352) 735-8445",
    "address": " 31713 Long Acres Dr  Sorrento, FL 32776",
    "location": "Dixie"
  },
  {
    "name": "A2Z Global Promotions",
    "description": "Embroidery",
    "phone": "(407) 790-5540",
    "address": " 1240 Sharptank Ct  Apopka, FL 32712",
    "location": "Dixie"
  },
  {
    "name": "Charles Wingo Signs Inc",
    "description": "Signs",
    "phone": "(407) 886-8131",
    "address": " 2912 Plymouth Sorrento Rd  Apopka, FL 32712",
    "location": "Dixie"
  }
]
