[
  {
    "name": "Jnbk",
    "description": "Advertising Agencies",
    "phone": "(904) 374-3399",
    "address": " 605 New Berlin Rd  Jacksonville, FL 32218",
    "location": "Duval"
  },
  {
    "name": "Comergent Acquisition Group",
    "description": "Advertising Agencies",
    "phone": "(904) 329-4003",
    "address": " 13453 N Main St  Jacksonville, FL 32218",
    "location": "Duval"
  },
  {
    "name": "Productions",
    "description": "Advertising Agencies",
    "phone": "(904) 619-4379",
    "address": " 13751 Devan Lee Dr E  Jacksonville, FL 32226",
    "location": "Duval"
  },
  {
    "name": "Brandon Clark",
    "description": "Advertising Agencies",
    "phone": "(904) 305-9189",
    "address": " 459 Auburn Oaks Rd E  Jacksonville, FL 32218",
    "location": "Duval"
  },
  {
    "name": "Antmo Enterprises Inc",
    "description": "Advertising Agencies",
    "phone": "(904) 735-8627",
    "address": " 1038 Dunn Ave Ste 1038  Jacksonville, FL 32218",
    "location": "Duval"
  },
  {
    "name": "Uncle Henry's",
    "description": "Advertising Agencies",
    "phone": "(904) 379-7382",
    "address": " 4800 Cedar Point Rd  Jacksonville, FL 32226",
    "location": "Duval"
  },
  {
    "name": "Sun City",
    "description": "Advertising Agencies",
    "phone": "(904) 924-7444",
    "address": " 6901 N Main St  Jacksonville, FL 32208",
    "location": "Duval"
  },
  {
    "name": "Finial Max",
    "description": "Advertising Agencies",
    "phone": "(904) 742-9211",
    "address": " PO Box 9541  Jacksonville, FL 32208",
    "location": "Duval"
  },
  {
    "name": "Set On Success",
    "description": "Advertising Agencies",
    "phone": "(904) 374-2458",
    "address": " 455 W 58th St  Jacksonville, FL 32208",
    "location": "Duval"
  },
  {
    "name": "Renea's Touch",
    "description": "Advertising Agencies",
    "phone": "(904) 374-2458",
    "address": " 1646 W 45th St  Jacksonville, FL 32208",
    "location": "Duval"
  },
  {
    "name": "George G Sares Accounting",
    "description": "Advertising Agencies",
    "phone": "(904) 744-2274",
    "address": " 8031 Fort Caroline Rd  Jacksonville, FL 32277",
    "location": "Duval"
  },
  {
    "name": "Kreinest & Associates Inc",
    "description": "Advertising Agencies",
    "phone": "(904) 355-7808",
    "address": " 207 N Laura St  Jacksonville, FL 32202",
    "location": "Duval"
  },
  {
    "name": "Hoffman Agency",
    "description": "Advertising Agencies",
    "phone": "(904) 398-9663",
    "address": " 1056 Hendricks Ave  Jacksonville, FL 32207",
    "location": "Duval"
  },
  {
    "name": "The Cross Agency",
    "description": "Advertising Agencies",
    "phone": "(904) 642-8902",
    "address": " 701 San Marco Blvd Ste 1603  Jacksonville, FL 32207",
    "location": "Duval"
  },
  {
    "name": "Jax Production Inc",
    "description": "Advertising Agencies",
    "phone": "(904) 513-9206",
    "address": " 1239 Rogero Rd  Jacksonville, FL 32211",
    "location": "Duval"
  },
  {
    "name": "Sea Jam Enterprises",
    "description": "Advertising Agencies",
    "phone": "(904) 265-4761",
    "address": " 1225 W Beaver St  Jacksonville, FL 32204",
    "location": "Duval"
  },
  {
    "name": "Jtl Assocs Inc",
    "description": "Advertising Agencies",
    "phone": "(904) 724-3003",
    "address": " 6057 Arlington Expy  Jacksonville, FL 32211",
    "location": "Duval"
  },
  {
    "name": "National A-1 Advertising, Inc.",
    "description": "Advertising Agencies",
    "phone": "(904) 724-8255",
    "address": " 6501 Arlington Expy  Jacksonville, FL 32211",
    "location": "Duval"
  },
  {
    "name": "GLOBAL ADVERTISING LLC",
    "description": "Advertising Agencies",
    "phone": "(904) 800-6332",
    "address": " 6720 Arlington Expy  Jacksonville, FL 32211",
    "location": "Duval"
  },
  {
    "name": "Lacayo Advertising Inc",
    "description": "Advertising Agencies",
    "phone": "(904) 636-5085",
    "address": " 131 E Bay St  Jacksonville, FL 32202",
    "location": "Duval"
  },
  {
    "name": "Advertising Agency",
    "description": "Advertising Agencies",
    "phone": "(904) 353-2900",
    "address": " 131 E Bay St  Jacksonville, FL 32202",
    "location": "Duval"
  },
  {
    "name": "Fuel Media Holdings",
    "description": "Advertising Agencies",
    "phone": "(855) 552-3624",
    "address": " 25 N Market St  Jacksonville, FL 32202",
    "location": "Duval"
  },
  {
    "name": "5Ive Canons",
    "description": "Advertising Agencies",
    "phone": "(904) 372-4603",
    "address": " 10 S Newnan St  Jacksonville, FL 32202",
    "location": "Duval"
  },
  {
    "name": "Health Source Magazine",
    "description": "Advertising Agencies",
    "phone": "(904) 359-4139",
    "address": " 1 Riverside Ave  Jacksonville, FL 32202",
    "location": "Duval"
  },
  {
    "name": "First Coast Magazine",
    "description": "Advertising Agencies",
    "phone": "(904) 359-4139",
    "address": " 1 Riverside Ave  Jacksonville, FL 32202",
    "location": "Duval"
  },
  {
    "name": "Wingard Creative",
    "description": "Advertising Agencies",
    "phone": "(904) 387-2570",
    "address": " 100 Magnolia St  Jacksonville, FL 32204",
    "location": "Duval"
  },
  {
    "name": "BroadBased Communications, Inc.",
    "description": "Advertising Agencies",
    "phone": "(904) 398-7279",
    "address": " 1301 Riverplace Blvd Ste 1830  Jacksonville, FL 32207",
    "location": "Duval"
  },
  {
    "name": "St John-Partners Advg-Pubc",
    "description": "Advertising Agencies",
    "phone": "(904) 281-2500",
    "address": " 1301 Riverplace Blvd  Jacksonville, FL 32207",
    "location": "Duval"
  },
  {
    "name": "Supercharged Offers",
    "description": "Advertising Agencies",
    "phone": "(888) 368-5478",
    "address": " 1301 Riverplace Blvd  Jacksonville, FL 32207",
    "location": "Duval"
  },
  {
    "name": "The Empire",
    "description": "Advertising Agencies",
    "phone": "(904) 739-0000",
    "address": " 1301 Riverplace Blvd  Jacksonville, FL 32207",
    "location": "Duval"
  },
  {
    "name": "Comrade Digital Marketing Agency Jacksonville",
    "description": "Advertising Agencies",
    "phone": "(904) 650-3693",
    "address": " 1301 Riverplace Blvd  Jacksonville, FL 32207",
    "location": "Duval"
  },
  {
    "name": "Swisher Burgos",
    "description": "Advertising Agencies",
    "phone": "(904) 396-3865",
    "address": " 1001 Kings Ave  Jacksonville, FL 32207",
    "location": "Duval"
  },
  {
    "name": "Burdette Ketchum",
    "description": "Advertising Agencies",
    "phone": "(904) 645-6200",
    "address": " 1023 Kings Ave  Jacksonville, FL 32207",
    "location": "Duval"
  },
  {
    "name": "M4 Marketing",
    "description": "Advertising Agencies",
    "phone": "(904) 399-1800",
    "address": " 4 Broadcast Pl  Jacksonville, FL 32207",
    "location": "Duval"
  },
  {
    "name": "Sapphire Moon",
    "description": "Advertising Agencies",
    "phone": "(904) 399-8200",
    "address": " 4 Broadcast Pl  Jacksonville, FL 32207",
    "location": "Duval"
  },
  {
    "name": "Launchpost Media",
    "description": "Advertising Agencies",
    "phone": "(904) 389-0331",
    "address": " 6815 Atlantic Blvd Ste 6  Jacksonville, FL 32211",
    "location": "Duval"
  },
  {
    "name": "Sisisky, Richard L",
    "description": "Advertising Agencies",
    "phone": "(904) 396-7716",
    "address": " 1301 Live Oak Dr  Jacksonville, FL 32246",
    "location": "Duval"
  },
  {
    "name": "Red Beard Strategies",
    "description": "Advertising Agencies",
    "phone": "(904) 432-7591",
    "address": " 95150 Starling Ct  Fernandina Beach, FL 32034",
    "location": "Duval"
  },
  {
    "name": "Atkins North American Inc",
    "description": "Advertising Agencies",
    "phone": "(904) 432-7630",
    "address": " 86395 Gene Lassere Blvd  Yulee, FL 32097",
    "location": "Duval"
  },
  {
    "name": "On Ideas Inc",
    "description": "Advertising Agencies",
    "phone": "(904) 354-2600",
    "address": " 6 E Bay St Ste 100  Jacksonville, FL 32202",
    "location": "Duval"
  },
  {
    "name": "Keymer Group Strategic Comm",
    "description": "Advertising Agencies",
    "phone": "(904) 483-3824",
    "address": " 3955 Riverside Ave  Jacksonville, FL 32205",
    "location": "Duval"
  },
  {
    "name": "The Marko Group",
    "description": "Advertising Agencies",
    "phone": "(904) 399-3288",
    "address": " 13245 Atlantic Blvd Ste 4316  Jacksonville, FL 32225",
    "location": "Duval"
  },
  {
    "name": "William G Schmidt Advertising",
    "description": "Advertising Agencies",
    "phone": "(904) 384-7000",
    "address": " 4814 Algonquin Ave  Jacksonville, FL 32210",
    "location": "Duval"
  },
  {
    "name": "Stuck in My Head Media",
    "description": "Advertising Agencies",
    "phone": "(904) 248-0294",
    "address": " 3119 Spring Glen Rd Ste 105  Jacksonville, FL 32207",
    "location": "Duval"
  },
  {
    "name": "Second Floor Marketing",
    "description": "Advertising Agencies",
    "phone": "(904) 551-1459",
    "address": " 2002 San Marco Blvd  Jacksonville, FL 32207",
    "location": "Duval"
  },
  {
    "name": "Ruckus",
    "description": "Advertising Agencies",
    "phone": "(904) 399-0005",
    "address": " 1450 Flagler Ave  Jacksonville, FL 32207",
    "location": "Duval"
  },
  {
    "name": "Wingard",
    "description": "Advertising Agencies",
    "phone": "(904) 387-2570",
    "address": " 1022 Park St  Jacksonville, FL 32204",
    "location": "Duval"
  },
  {
    "name": "Zip Line",
    "description": "Advertising Agencies",
    "phone": "(904) 858-5311",
    "address": " 2727 Atlantic Blvd  Jacksonville, FL 32207",
    "location": "Duval"
  },
  {
    "name": "Hester Group",
    "description": "Advertising Agencies",
    "phone": "(904) 739-2338",
    "address": " 2727 Atlantic Blvd  Jacksonville, FL 32207",
    "location": "Duval"
  },
  {
    "name": "Client Focused Media",
    "description": "Advertising Agencies",
    "phone": "(904) 232-3001",
    "address": " 1611 San Marco Blvd  Jacksonville, FL 32207",
    "location": "Duval"
  },
  {
    "name": "Jaxbars.com",
    "description": "Advertising Agencies",
    "phone": "(904) 232-3001",
    "address": " 1611 San Marco Blvd  Jacksonville, FL 32207",
    "location": "Duval"
  },
  {
    "name": "Brunet-Garcia Advertising",
    "description": "Advertising Agencies",
    "phone": "(904) 346-1977",
    "address": " 1534 Oak St  Jacksonville, FL 32204",
    "location": "Duval"
  },
  {
    "name": "Nuera Marketing",
    "description": "Advertising Agencies",
    "phone": "(904) 513-8350",
    "address": " 1807 Hendricks Ave  Jacksonville, FL 32207",
    "location": "Duval"
  },
  {
    "name": "EIG Productions",
    "description": "Advertising Agencies",
    "phone": "(904) 607-8738",
    "address": " 1047 Osceola St  Jacksonville, FL 32204",
    "location": "Duval"
  },
  {
    "name": "William Potter & Assoc Inc",
    "description": "Advertising Agencies",
    "phone": "(407) 464-0718",
    "address": " 1739 Moro Ave  Jacksonville, FL 32207",
    "location": "Duval"
  },
  {
    "name": "Elva Marketing",
    "description": "Advertising Agencies",
    "phone": "(904) 379-1723",
    "address": " 4040 Woodcock Dr Ste 201  Jacksonville, FL 32207",
    "location": "Duval"
  },
  {
    "name": "Davis Group",
    "description": "Advertising Agencies",
    "phone": "(904) 398-1704",
    "address": " 4631 Brown Ave  Jacksonville, FL 32207",
    "location": "Duval"
  },
  {
    "name": "Robin Shepherd Group",
    "description": "Advertising Agencies",
    "phone": "(904) 398-0830",
    "address": " 4160 Boulevard Center Dr  Jacksonville, FL 32207",
    "location": "Duval"
  },
  {
    "name": "Eagle Financial Consulting",
    "description": "Advertising Agencies",
    "phone": "(904) 387-5787",
    "address": " 2358 Riverside Ave  Jacksonville, FL 32204",
    "location": "Duval"
  },
  {
    "name": "The Marshall Group",
    "description": "Advertising Agencies",
    "phone": "(904) 725-6898",
    "address": " 2121 Corporate Square Blvd Ste 236  Jacksonville, FL 32216",
    "location": "Duval"
  },
  {
    "name": "William H Coleman Inc",
    "description": "Advertising Agencies",
    "phone": "(904) 398-6777",
    "address": " 1613 King St  Jacksonville, FL 32204",
    "location": "Duval"
  },
  {
    "name": "Fl Reo Co",
    "description": "Advertising Agencies",
    "phone": "(904) 551-6762",
    "address": " 1605 King St  Jacksonville, FL 32204",
    "location": "Duval"
  },
  {
    "name": "First Coast Advertising Service",
    "description": "Advertising Agencies",
    "phone": "(904) 554-7535",
    "address": " 840 Edgewood Ave S  Jacksonville, FL 32205",
    "location": "Duval"
  },
  {
    "name": "Stephens Advertising Inc",
    "description": "Advertising Agencies",
    "phone": "(904) 354-1777",
    "address": " 7029 Commonwealth Ave  Jacksonville, FL 32220",
    "location": "Duval"
  },
  {
    "name": "Socially Bold",
    "description": "Advertising Agencies",
    "phone": "(904) 574-9775",
    "address": " 3200 Hendricks Ave  Jacksonville, FL 32207",
    "location": "Duval"
  },
  {
    "name": "Soledesign",
    "description": "Advertising Agencies",
    "phone": "(904) 673-6331",
    "address": " 1922 Felch Ave  Jacksonville, FL 32207",
    "location": "Duval"
  },
  {
    "name": "Aziel Digital",
    "description": "Advertising Agencies",
    "phone": "(904) 643-7553",
    "address": " 204 Lane Ave South Suite #4  Jacksonville, FL 32254",
    "location": "Duval"
  },
  {
    "name": "Infoco Multimidia Inc.",
    "description": "Advertising Agencies",
    "phone": "(904) 294-3330",
    "address": " 3679 Saint Augustine Rd  Jacksonville, FL 32207",
    "location": "Duval"
  },
  {
    "name": "Krystal Media Innovations",
    "description": "Advertising Agencies",
    "phone": "(904) 222-4038",
    "address": " 12220 Atlantic Blvd Ste 130  Jacksonville, FL 32225",
    "location": "Duval"
  },
  {
    "name": "Image360 Jacksonville-St. Johns Bluff",
    "description": "Advertising Agencies",
    "phone": "(904) 996-7773",
    "address": " 2683 Saint Johns Bluff Rd S  Jacksonville, FL 32246",
    "location": "Duval"
  },
  {
    "name": "Barquilla Consulting Corp",
    "description": "Advertising Agencies",
    "phone": "(904) 379-8819",
    "address": " 850 Shipwatch Dr E  Jacksonville, FL 32225",
    "location": "Duval"
  },
  {
    "name": "Jentzen Associates Inc",
    "description": "Advertising Agencies",
    "phone": "(904) 221-5284",
    "address": " 13715 Little Harbor Ct  Jacksonville, FL 32225",
    "location": "Duval"
  },
  {
    "name": "Security Consultants",
    "description": "Advertising Agencies",
    "phone": "(904) 727-7162",
    "address": " 1185 Lane Ave S  Jacksonville, FL 32205",
    "location": "Duval"
  },
  {
    "name": "Howetek Creative",
    "description": "Advertising Agencies",
    "phone": "(904) 580-7773",
    "address": " 7964 Devoe St  Jacksonville, FL 32220",
    "location": "Duval"
  },
  {
    "name": "Crisp and Harrison Agency, Inc.",
    "description": "Advertising Agencies",
    "phone": "(904) 724-2612",
    "address": " 11555 Central Pkwy Ste 604  Jacksonville, FL 32224",
    "location": "Duval"
  },
  {
    "name": "Hardball Sports Marketing, Inc",
    "description": "Advertising Agencies",
    "phone": "(904) 998-8778",
    "address": " 11555 Central Pkwy Ste 1002  Jacksonville, FL 32224",
    "location": "Duval"
  },
  {
    "name": "The Baer Edge",
    "description": "Advertising Agencies",
    "phone": "(904) 982-1734",
    "address": " 4320 Deerwood Lake Pkwy  Jacksonville, FL 32216",
    "location": "Duval"
  },
  {
    "name": "I N F M S",
    "description": "Advertising Agencies",
    "phone": "(904) 527-3576",
    "address": " 4375 Southside Blvd  Jacksonville, FL 32216",
    "location": "Duval"
  },
  {
    "name": "All Forms Laminating",
    "description": "Advertising Agencies",
    "phone": "(615) 383-0900",
    "address": " 6440 Southpoint Pkwy  Jacksonville, FL 32216",
    "location": "Duval"
  },
  {
    "name": "Fisher Agency",
    "description": "Advertising Agencies",
    "phone": "(904) 398-3699",
    "address": " 4540 Southside Blvd Ste 902  Jacksonville, FL 32216",
    "location": "Duval"
  },
  {
    "name": "Savvy Partner - Franchise Marketing",
    "description": "Advertising Agencies",
    "phone": "(904) 372-8891",
    "address": " 4540 Southside Blvd Ste 902  Jacksonville, FL 32216",
    "location": "Duval"
  },
  {
    "name": "Integrated Advertising Inc",
    "description": "Advertising Agencies",
    "phone": "(904) 296-2585",
    "address": " 6817 Southpoint Pkwy Ste 804  Jacksonville, FL 32216",
    "location": "Duval"
  },
  {
    "name": "Jax Media",
    "description": "Advertising Agencies",
    "phone": "(904) 683-6182",
    "address": " 2317 Blanding Blvd Ste 101  Jacksonville, FL 32210",
    "location": "Duval"
  },
  {
    "name": "Vizergy",
    "description": "Advertising Agencies",
    "phone": "(904) 389-1130",
    "address": " 4601 Touchton Rd E Bldg 300  Jacksonville, FL 32246",
    "location": "Duval"
  },
  {
    "name": "TSR Inc",
    "description": "Advertising Agencies",
    "phone": "(904) 279-1671",
    "address": " 4121 Southpoint Blvd  Jacksonville, FL 32216",
    "location": "Duval"
  },
  {
    "name": "The Capital Company",
    "description": "Advertising Agencies",
    "phone": "(904) 338-9408",
    "address": " 6653 Powers Ave  Jacksonville, FL 32217",
    "location": "Duval"
  },
  {
    "name": "Cca Strategies",
    "description": "Advertising Agencies",
    "phone": "(904) 620-6590",
    "address": " 6821 Southpoint Dr N  Jacksonville, FL 32216",
    "location": "Duval"
  },
  {
    "name": "Adtheorent",
    "description": "Advertising Agencies",
    "phone": "(904) 683-6463",
    "address": " 4237 Salisbury Rd Ste 111  Jacksonville, FL 32216",
    "location": "Duval"
  },
  {
    "name": "Media Mix",
    "description": "Advertising Agencies",
    "phone": "(904) 294-6962",
    "address": " 9822 Tapestry Park Cir  Jacksonville, FL 32246",
    "location": "Duval"
  },
  {
    "name": "Gartner, Herb",
    "description": "Advertising Agencies",
    "phone": "(904) 733-2457",
    "address": " 6944 Saint Augustine Rd  Jacksonville, FL 32217",
    "location": "Duval"
  },
  {
    "name": "Focus on Jacksonville",
    "description": "Advertising Agencies",
    "phone": "(904) 733-2457",
    "address": " 6944 Saint Augustine Rd  Jacksonville, FL 32217",
    "location": "Duval"
  },
  {
    "name": "Meclabs",
    "description": "Advertising Agencies",
    "phone": "(904) 813-7000",
    "address": " 4651 Salisbury Rd  Jacksonville, FL 32256",
    "location": "Duval"
  },
  {
    "name": "Caraway Grammel Goldman",
    "description": "Advertising Agencies",
    "phone": "(904) 247-3294",
    "address": " 4899 Belfort Rd  Jacksonville, FL 32256",
    "location": "Duval"
  },
  {
    "name": "Venture Management",
    "description": "Advertising Agencies",
    "phone": "(904) 270-8800",
    "address": " 7035 Philips Hwy  Jacksonville, FL 32216",
    "location": "Duval"
  },
  {
    "name": "Pcr Agency",
    "description": "Advertising Agencies",
    "phone": "(904) 923-2062",
    "address": " 7235 Bentley Rd  Jacksonville, FL 32256",
    "location": "Duval"
  },
  {
    "name": "iHeartMedia",
    "description": "Advertising Agencies",
    "phone": "(904) 636-0507",
    "address": " 8000 Belfort Pkwy  Jacksonville, FL 32256",
    "location": "Duval"
  },
  {
    "name": "Smith & Surrency Digital Marketing",
    "description": "Advertising Agencies",
    "phone": "(904) 982-4915",
    "address": " 10161 Centurion Pkwy N  Jacksonville, FL 32256",
    "location": "Duval"
  },
  {
    "name": "Monopolists Lawyer Seo",
    "description": "Advertising Agencies",
    "phone": "(904) 238-4086",
    "address": " 5011 Gate Pkwy  Jacksonville, FL 32256",
    "location": "Duval"
  },
  {
    "name": "CTRL+ALT Digital",
    "description": "Advertising Agencies",
    "phone": "(904) 878-2875",
    "address": " 5011 Gate Pkwy Bldg 100  Jacksonville, FL 32256",
    "location": "Duval"
  },
  {
    "name": "Pm2 Digital",
    "description": "Advertising Agencies",
    "phone": "(904) 385-9124",
    "address": " 5011 Gate Pkwy  Jacksonville, FL 32256",
    "location": "Duval"
  },
  {
    "name": "Effectv",
    "description": "Advertising Agencies",
    "phone": "(888) 877-9799",
    "address": " 10751 Deerwood Park Blvd Ste 301  Jacksonville, FL 32256",
    "location": "Duval"
  },
  {
    "name": "Tenacity Blue Media",
    "description": "Advertising Agencies",
    "phone": "(904) 490-9028",
    "address": " 10752 Deerwood Park Blvd  Jacksonville, FL 32256",
    "location": "Duval"
  },
  {
    "name": "North Highland Co",
    "description": "Advertising Agencies",
    "phone": "(904) 646-1585",
    "address": " 10752 Deerwood Park Blvd  Jacksonville, FL 32256",
    "location": "Duval"
  },
  {
    "name": "C7 Creative",
    "description": "Advertising Agencies",
    "phone": "(904) 253-3779",
    "address": " 10752 Deerwood Park Blvd  Jacksonville, FL 32256",
    "location": "Duval"
  },
  {
    "name": "Cheetah Agency",
    "description": "Advertising Agencies",
    "phone": "(904) 544-6020",
    "address": " 10151 Deerwood Park Blvd  Jacksonville, FL 32256",
    "location": "Duval"
  },
  {
    "name": "Florida Consumer Services",
    "description": "Advertising Agencies",
    "phone": "(904) 371-0906",
    "address": " 10151 Deerwood Park Blvd  Jacksonville, FL 32256",
    "location": "Duval"
  },
  {
    "name": "Brookslacayo Advertising",
    "description": "Advertising Agencies",
    "phone": "(904) 470-2300",
    "address": " 7563 Philips Hwy  Jacksonville, FL 32256",
    "location": "Duval"
  },
  {
    "name": "Betty Jean Reed",
    "description": "Advertising Agencies",
    "phone": "(904) 374-0673",
    "address": " 7052 Biddy Ln  Jacksonville, FL 32210",
    "location": "Duval"
  },
  {
    "name": "Redee Advertising",
    "description": "Advertising Agencies",
    "phone": "(904) 463-3159",
    "address": " 13810 Sutton Park Dr N  Jacksonville, FL 32224",
    "location": "Duval"
  },
  {
    "name": "Bradford Consulting Inc",
    "description": "Advertising Agencies",
    "phone": "(904) 928-3218",
    "address": " 7740 Sawtooth Ct  Jacksonville, FL 32256",
    "location": "Duval"
  },
  {
    "name": "Steven & Stephen Advertising",
    "description": "Advertising Agencies",
    "phone": "(904) 737-8171",
    "address": " 7899 Baymeadows Way  Jacksonville, FL 32256",
    "location": "Duval"
  },
  {
    "name": "Appmarcom Appmardotcom Appmardotcom",
    "description": "Advertising Agencies",
    "phone": "(904) 551-5337",
    "address": " 7960 Baymeadows Way  Jacksonville, FL 32256",
    "location": "Duval"
  },
  {
    "name": "ZAG Advertising",
    "description": "Advertising Agencies",
    "phone": "(904) 733-2998",
    "address": " 8547 San Jose Blvd  Jacksonville, FL 32217",
    "location": "Duval"
  },
  {
    "name": "The Morgan Company",
    "description": "Advertising Agencies",
    "phone": "(904) 242-0472",
    "address": " 13500 Sutton Park Dr S  Jacksonville, FL 32224",
    "location": "Duval"
  },
  {
    "name": "Affiliated Media",
    "description": "Advertising Agencies",
    "phone": "(904) 642-8902",
    "address": " 8133 Baymeadows Way  Jacksonville, FL 32256",
    "location": "Duval"
  },
  {
    "name": "Accountable Healthcare Stffng",
    "description": "Advertising Agencies",
    "phone": "(904) 372-9084",
    "address": " 6983 103rd St Ste 4  Jacksonville, FL 32210",
    "location": "Duval"
  },
  {
    "name": "Xcl Consulting",
    "description": "Advertising Agencies",
    "phone": "(904) 419-2478",
    "address": " 8813 Nature View Ln W  Jacksonville, FL 32217",
    "location": "Duval"
  },
  {
    "name": "Cmts Florida",
    "description": "Advertising Agencies",
    "phone": "(904) 739-9804",
    "address": " 9250 Cypress Green Dr Ste 201  Jacksonville, FL 32256",
    "location": "Duval"
  },
  {
    "name": "Adventures in Advertising",
    "description": "Advertising Agencies",
    "phone": "(904) 737-7344",
    "address": " 8130 Baymeadows Cir W  Jacksonville, FL 32256",
    "location": "Duval"
  },
  {
    "name": "RLS Group",
    "description": "Advertising Agencies",
    "phone": "(904) 342-6479",
    "address": " 9424 Baymeadows Rd. Suite 250  Jacksonville, FL 32256",
    "location": "Duval"
  },
  {
    "name": "First Element",
    "description": "Advertising Agencies",
    "phone": "(904) 860-8245",
    "address": " 9770 Old Baymeadows Rd  Jacksonville, FL 32256",
    "location": "Duval"
  },
  {
    "name": "Captiview Advertising",
    "description": "Advertising Agencies",
    "phone": "(904) 880-6418",
    "address": " 9802 Baymeadows Rd  Jacksonville, FL 32256",
    "location": "Duval"
  },
  {
    "name": "Money Pages of Florida, Inc.",
    "description": "Advertising Agencies",
    "phone": "(904) 306-0086",
    "address": " 8375 Dix Ellis Trl Ste 201  Jacksonville, FL 32256",
    "location": "Duval"
  },
  {
    "name": "Southern Hospitality Inc",
    "description": "Advertising Agencies",
    "phone": "(904) 292-1571",
    "address": " 9315 San Jose Blvd  Jacksonville, FL 32257",
    "location": "Duval"
  },
  {
    "name": "Rosberg Fozman Rolandelli",
    "description": "Advertising Agencies",
    "phone": "(904) 329-3797",
    "address": " 4745 Sutton Park Ct  Jacksonville, FL 32224",
    "location": "Duval"
  },
  {
    "name": "Bolster Bolster",
    "description": "Advertising Agencies",
    "phone": "(612) 200-8163",
    "address": " 23 4th St  Jacksonville, FL 32233",
    "location": "Duval"
  },
  {
    "name": "Jensco Management Service",
    "description": "Advertising Agencies",
    "phone": "(904) 241-7886",
    "address": " 1962 Colina Ct  Atlantic Beach, FL 32233",
    "location": "Duval"
  },
  {
    "name": "Alutiiq",
    "description": "Advertising Agencies",
    "phone": "(904) 246-4777",
    "address": " 1447 Mayport Rd  Atlantic Beach, FL 32233",
    "location": "Duval"
  },
  {
    "name": "Atlantic Imaging",
    "description": "Advertising Agencies",
    "phone": "(904) 247-7764",
    "address": " 260 Mayport Rd  Atlantic Beach, FL 32233",
    "location": "Duval"
  },
  {
    "name": "Thrive",
    "description": "Advertising Agencies",
    "phone": "(904) 422-9244",
    "address": " 1071 Atlantic Blvd  Atlantic Beach, FL 32233",
    "location": "Duval"
  },
  {
    "name": "Perfect Placement Advising",
    "description": "Advertising Agencies",
    "phone": "(954) 317-6543",
    "address": " 1015 Atlantic Blvd Unit 66  Atlantic Beach, FL 32233",
    "location": "Duval"
  },
  {
    "name": "Siteworks Of Jacksonville Inc",
    "description": "Advertising Agencies",
    "phone": "(904) 759-9508",
    "address": " 1360 E Coast Dr  Atlantic Beach, FL 32233",
    "location": "Duval"
  },
  {
    "name": "Peterson Enterprises",
    "description": "Advertising Agencies",
    "phone": "(904) 241-2624",
    "address": " 460 Ocean Blvd  Atlantic Beach, FL 32233",
    "location": "Duval"
  },
  {
    "name": "Thomas Marketing Consulting",
    "description": "Advertising Agencies",
    "phone": "(904) 651-7976",
    "address": " 9250 Baymeadows Rd Ste 450  Jacksonville, FL 32256",
    "location": "Duval"
  },
  {
    "name": "First Coast Environmental Svc",
    "description": "Advertising Agencies",
    "phone": "(904) 384-3379",
    "address": " 3898 Valencia Rd  Jacksonville, FL 32205",
    "location": "Duval"
  },
  {
    "name": "I Rep Direct",
    "description": "Advertising Agencies",
    "phone": "(904) 683-3869",
    "address": " 2002 San Marco Blvd  Jacksonville, FL 32207",
    "location": "Duval"
  },
  {
    "name": "Ford Dealers Advertising Fund",
    "description": "Advertising Agencies",
    "phone": "(904) 737-0449",
    "address": " 6198 Deepwood Dr W  Jacksonville, FL 32244",
    "location": "Duval"
  },
  {
    "name": "High Line Leads",
    "description": "Advertising Agencies",
    "phone": "(904) 236-6160",
    "address": " 5724 Gasparilla Park Ct  Jacksonville, FL 32244",
    "location": "Duval"
  },
  {
    "name": "William Sasser & Associates Advertising Agency",
    "description": "Advertising Agencies",
    "phone": "(904) 363-2006",
    "address": " 9127 Phillips Hwy  Jacksonville, FL 32207",
    "location": "Duval"
  },
  {
    "name": "ADS Advertising Data Scan",
    "description": "Advertising Agencies",
    "phone": "(904) 363-0016",
    "address": " 9127 Philips Hwy  Jacksonville, FL 32256",
    "location": "Duval"
  },
  {
    "name": "Principle Creative",
    "description": "Advertising Agencies",
    "phone": "(904) 880-9595",
    "address": " 9957 Moorings Dr  Jacksonville, FL 32257",
    "location": "Duval"
  },
  {
    "name": "Daigle Idea Development Inc",
    "description": "Advertising Agencies",
    "phone": "(904) 880-9595",
    "address": " 9957 Moorings Dr  Jacksonville, FL 32257",
    "location": "Duval"
  },
  {
    "name": "Southern Hospitality",
    "description": "Advertising Agencies",
    "phone": "(904) 260-0101",
    "address": " 5220 Shad Rd  Jacksonville, FL 32257",
    "location": "Duval"
  },
  {
    "name": "The Data Council",
    "description": "Advertising Agencies",
    "phone": "(904) 512-3200",
    "address": " 7411 Fullerton St  Jacksonville, FL 32256",
    "location": "Duval"
  },
  {
    "name": "Com South Advertising Inc",
    "description": "Advertising Agencies",
    "phone": "(904) 448-0400",
    "address": " 10175 Fortune Pkwy  Jacksonville, FL 32256",
    "location": "Duval"
  },
  {
    "name": "Shop Ameriprodcom",
    "description": "Advertising Agencies",
    "phone": "(904) 262-9004",
    "address": " 2950 Halcyon Ln Ste 503  Jacksonville, FL 32223",
    "location": "Duval"
  },
  {
    "name": "Andersen Advertising",
    "description": "Advertising Agencies",
    "phone": "(904) 859-8165",
    "address": " 3355 Claire Ln  Jacksonville, FL 32223",
    "location": "Duval"
  },
  {
    "name": "Spark Inc",
    "description": "Advertising Agencies",
    "phone": "(904) 732-4391",
    "address": " 11111 San Jose Blvd  Jacksonville, FL 32223",
    "location": "Duval"
  },
  {
    "name": "Oscar Hinojosa Studios Inc",
    "description": "Advertising Agencies",
    "phone": "(904) 260-4348",
    "address": " 11352 Shady Brook Ln  Jacksonville, FL 32223",
    "location": "Duval"
  },
  {
    "name": "Clinical Research Conslnts",
    "description": "Advertising Agencies",
    "phone": "(904) 778-2284",
    "address": " 7855 Argyle Forest Blvd Ste 906  Jacksonville, FL 32244",
    "location": "Duval"
  },
  {
    "name": "Sumner Digital",
    "description": "Advertising Agencies",
    "phone": "(904) 239-8401",
    "address": " 11562 Derby Forest Dr  Jacksonville, FL 32258",
    "location": "Duval"
  },
  {
    "name": "T N One",
    "description": "Advertising Agencies",
    "phone": "(904) 619-9427",
    "address": " 9367 Prosperity Lake Dr  Jacksonville, FL 32244",
    "location": "Duval"
  },
  {
    "name": "Dm Mincey Marketing Inc",
    "description": "Advertising Agencies",
    "phone": "(904) 880-2720",
    "address": " 12422 Mesa Verde Trl  Jacksonville, FL 32223",
    "location": "Duval"
  },
  {
    "name": "Pfc Church Consultants",
    "description": "Advertising Agencies",
    "phone": "(904) 268-8196",
    "address": " 5157 Breezeway Ct  Jacksonville, FL 32258",
    "location": "Duval"
  },
  {
    "name": "Success Marketing Services",
    "description": "Advertising Agencies",
    "phone": "(704) 452-7650",
    "address": " 12724 Gran Bay Pkwy W  Jacksonville, FL 32258",
    "location": "Duval"
  },
  {
    "name": "Kesarlong.Com",
    "description": "Advertising Agencies",
    "phone": "(904) 600-3004",
    "address": " 12574 Flagler Center Blvd Ste 101  Jacksonville, FL 32258",
    "location": "Duval"
  },
  {
    "name": "Red Balloon Agency",
    "description": "Advertising Agencies",
    "phone": "(904) 374-2366",
    "address": " 13241 Bartram Park Blvd  Jacksonville, FL 32258",
    "location": "Duval"
  },
  {
    "name": "Hartmark Advertising Solutions",
    "description": "Advertising Agencies",
    "phone": "(904) 400-4223",
    "address": " 11933 Gran Crique Ct S  Jacksonville, FL 32223",
    "location": "Duval"
  },
  {
    "name": "The Montello Agency",
    "description": "Advertising Agencies",
    "phone": "(904) 737-0012",
    "address": " 9310 Old Kings Rd S  Jacksonville, FL 32257",
    "location": "Duval"
  },
  {
    "name": "SD3 Marketing",
    "description": "Advertising Agencies",
    "phone": "(904) 437-6944",
    "address": " 731 Duval Station Rd  Jacksonville, FL 32218",
    "location": "Duval"
  },
  {
    "name": "LocalEdge",
    "description": "Advertising Agencies",
    "phone": "(716) 875-9100",
    "address": " 10418 New Berlin Rd  Jacksonville, FL 32226",
    "location": "Duval"
  },
  {
    "name": "Cross Media Marketing",
    "description": "Advertising Agencies",
    "phone": "(904) 735-4789",
    "address": " 1915 Silver St  Jacksonville, FL 32206",
    "location": "Duval"
  },
  {
    "name": "Internet Mad Men",
    "description": "Advertising Agencies",
    "phone": "(954) 643-6998",
    "address": " 4634 Monument Point Cir  Jacksonville, FL 32225",
    "location": "Duval"
  },
  {
    "name": "Hart SEO",
    "description": "Advertising Agencies",
    "phone": "(904) 234-0158",
    "address": " 1225 Beaver St. #103  Jacksonville, FL 32204",
    "location": "Duval"
  },
  {
    "name": "Compound Graphics",
    "description": "Advertising Agencies",
    "phone": "(904) 798-8600",
    "address": " 2039 Dellwood Ave  Jacksonville, FL 32204",
    "location": "Duval"
  },
  {
    "name": "Point Taken Communications",
    "description": "Advertising Agencies",
    "phone": "(904) 419-9216",
    "address": " 1616 N Market St  Jacksonville, FL 32206",
    "location": "Duval"
  },
  {
    "name": "EXPAND YOUR BRAND GOSPEL LLC",
    "description": "Advertising Agencies",
    "phone": "(858) 914-4814",
    "address": " 1616 Almira St Apt 9  Jacksonville, FL 32211",
    "location": "Duval"
  },
  {
    "name": "Station Four",
    "description": "Advertising Agencies",
    "phone": "(904) 399-3219",
    "address": " 100 N Laura St Ste 602  Jacksonville, FL 32202",
    "location": "Duval"
  },
  {
    "name": "Kairos Digital",
    "description": "Advertising Agencies",
    "phone": "(904) 267-1969",
    "address": " 220 E Forsyth St Ste E  Jacksonville, FL 32202",
    "location": "Duval"
  },
  {
    "name": "B & B Outdoor Advertising",
    "description": "Advertising Agencies",
    "phone": "(904) 281-0000",
    "address": " 215 Osceola St  Jacksonville, FL 32204",
    "location": "Duval"
  },
  {
    "name": "Marlin Consulting Solutions",
    "description": "Advertising Agencies",
    "phone": "(904) 853-0364",
    "address": " 1301 Riverplace Blvd Suite 800  Jacksonville, FL 32207",
    "location": "Duval"
  },
  {
    "name": "Robin Shepherd Group Ths",
    "description": "Advertising Agencies",
    "phone": "(904) 359-0981",
    "address": " 1301 Riverplace Blvd  Jacksonville, FL 32207",
    "location": "Duval"
  },
  {
    "name": "Holland People+Brands",
    "description": "Advertising Agencies",
    "phone": "(904) 732-4932",
    "address": " 1301 Riverplace Blvd Ste 800  Jacksonville, FL 32207",
    "location": "Duval"
  },
  {
    "name": "Mohaned Kawar",
    "description": "Advertising Agencies",
    "phone": "(904) 524-8178",
    "address": " 7430 Atlantic Blvd  Jacksonville, FL 32211",
    "location": "Duval"
  },
  {
    "name": "Kopupon Social",
    "description": "Advertising Agencies",
    "phone": "(904) 415-6600",
    "address": " 9951 Atlantic Blvd Ste 316  Jacksonville, FL 32225",
    "location": "Duval"
  },
  {
    "name": "JRoc Productions",
    "description": "Advertising Agencies",
    "phone": "(904) 290-9228",
    "address": " 86099 Britt Lynn Ln  Yulee, FL 32097",
    "location": "Duval"
  },
  {
    "name": "St John & Partners Advertising & Public Relations",
    "description": "Advertising Agencies",
    "phone": "(904) 281-2500",
    "address": " 5220 Belfort Rd Ste 400  Jacksonville, FL 32256",
    "location": "Duval"
  },
  {
    "name": "Don Flynn Pictures",
    "description": "Advertising Agencies",
    "phone": "(904) 274-0548",
    "address": " 6611 Southpoint Pkwy  Jacksonville, FL 32216",
    "location": "Duval"
  },
  {
    "name": "Black Pages USA",
    "description": "Advertising Agencies",
    "phone": "(904) 727-7451",
    "address": " 101 Century 21 Dr  Jacksonville, FL 32216",
    "location": "Duval"
  },
  {
    "name": "Remora Inc.",
    "description": "Advertising Agencies",
    "phone": "(904) 770-4395",
    "address": " 3236 Beach Blvd  Jacksonville, FL 32207",
    "location": "Duval"
  },
  {
    "name": "Proforma Print Media",
    "description": "Advertising Agencies",
    "phone": "(904) 398-4000",
    "address": " 4631 Brown Ave  Jacksonville, FL 32207",
    "location": "Duval"
  },
  {
    "name": "Owens & Minor",
    "description": "Advertising Agencies",
    "phone": "(904) 596-4600",
    "address": " 8489 Westside Industrial Dr  Jacksonville, FL 32219",
    "location": "Duval"
  },
  {
    "name": "Ingenuity Orthodontic Marketing",
    "description": "Advertising Agencies",
    "phone": "(904) 572-4462",
    "address": " 2720 Park St Ste 218  Jacksonville, FL 32205",
    "location": "Duval"
  },
  {
    "name": "Mad Men Marketing",
    "description": "Advertising Agencies",
    "phone": "(904) 355-1766",
    "address": " 2190 Saint Johns Bluff Rd S  Jacksonville, FL 32246",
    "location": "Duval"
  },
  {
    "name": "C B Marketing",
    "description": "Advertising Agencies",
    "phone": "(904) 619-8031",
    "address": " 5525 Beach Blvd  Jacksonville, FL 32207",
    "location": "Duval"
  },
  {
    "name": "Shinwa Marketing",
    "description": "Advertising Agencies",
    "phone": "(904) 634-7981",
    "address": " 840 Edgewood Ave S  Jacksonville, FL 32205",
    "location": "Duval"
  },
  {
    "name": "Alexander Cubed Inc",
    "description": "Advertising Agencies",
    "phone": "(904) 389-7622",
    "address": " 1415 Belvedere Ave  Jacksonville, FL 32205",
    "location": "Duval"
  },
  {
    "name": "Stash Saver LLC",
    "description": "Advertising Agencies",
    "phone": "(904) 405-7795",
    "address": " 5455 Verna Blvd Unit 6311  jacksonville, FL 32236",
    "location": "Duval"
  },
  {
    "name": "Johannes Signs",
    "description": "Advertising Agencies",
    "phone": "(904) 364-8869",
    "address": " 4549 Saint Augustine Rd Ste 4549  Jacksonville, FL 32207",
    "location": "Duval"
  },
  {
    "name": "Cfi Marketing",
    "description": "Advertising Agencies",
    "phone": "(904) 387-0069",
    "address": " 4554 Saint Johns Ave  Jacksonville, FL 32210",
    "location": "Duval"
  },
  {
    "name": "Champion Trophy And Awards",
    "description": "Advertising Agencies",
    "phone": "(904) 997-6166",
    "address": " 11645 Beach Blvd  Jacksonville, FL 32246",
    "location": "Duval"
  },
  {
    "name": "Doohickey",
    "description": "Advertising Agencies",
    "phone": "(904) 853-5477",
    "address": " 13475 Atlantic Blvd Ste 8-M820  Jacksonville, FL 32225",
    "location": "Duval"
  },
  {
    "name": "Boost Rank SEO",
    "description": "Advertising Agencies",
    "phone": "(904) 537-9940",
    "address": " 4503 Irvington Ave Ste 11  Jacksonville, FL 32210",
    "location": "Duval"
  },
  {
    "name": "Pot O Gold Productions, Inc.",
    "description": "Advertising Agencies",
    "phone": "(904) 744-7478",
    "address": " 11555 Central Pkwy  Jacksonville, FL 32224",
    "location": "Duval"
  },
  {
    "name": "Valpak of Jacksonville",
    "description": "Advertising Agencies",
    "phone": "(904) 395-4230",
    "address": " 11555 Central Pkwy  Jacksonville, FL 32224",
    "location": "Duval"
  },
  {
    "name": "Media Design Jax",
    "description": "Advertising Agencies",
    "phone": "(904) 636-5131",
    "address": " 5569 Bowden Rd Ste 5569  Jacksonville, FL 32216",
    "location": "Duval"
  },
  {
    "name": "The Baer Edge Inc.",
    "description": "Advertising Agencies",
    "phone": "(904) 982-1734",
    "address": " 4320 Deerwood Lake Pkwy Ste 101-222  Jacksonville, FL 32216",
    "location": "Duval"
  },
  {
    "name": "The Victory Agency",
    "description": "Advertising Agencies",
    "phone": "(904) 274-0732",
    "address": " 6034 Chester Ave Ste 107a  Jacksonville, FL 32217",
    "location": "Duval"
  },
  {
    "name": "The Blue Book",
    "description": "Advertising Agencies",
    "phone": "(904) 854-8050",
    "address": " 2902 Corinthian Ave  Jacksonville, FL 32210",
    "location": "Duval"
  },
  {
    "name": "Web Design Jacksonville",
    "description": "Advertising Agencies",
    "phone": "(904) 802-1211",
    "address": " 4540 Southside Blvd  Jacksonville, FL 32216",
    "location": "Duval"
  },
  {
    "name": "Jax Beach Websites",
    "description": "Advertising Agencies",
    "phone": "(904) 802-1211",
    "address": " 4540 Southside Blvd  Jacksonville, FL 32216",
    "location": "Duval"
  },
  {
    "name": "Blue Cat Media Group",
    "description": "Advertising Agencies",
    "phone": "(904) 666-5930",
    "address": " 2337 Foxhaven Dr E  Jacksonville, FL 32224",
    "location": "Duval"
  },
  {
    "name": "Bill Gates Marketing",
    "description": "Advertising Agencies",
    "phone": "(904) 635-6200",
    "address": " 4150 Belfort Rd  Jacksonville, FL 32255",
    "location": "Duval"
  },
  {
    "name": "Rebel Distribution Corp",
    "description": "Advertising Agencies",
    "phone": "(805) 214-0900",
    "address": " 4345 Southpoint Blvd  Jacksonville, FL 32216",
    "location": "Duval"
  },
  {
    "name": "Harrington Design",
    "description": "Advertising Agencies",
    "phone": "(904) 398-5700",
    "address": " 6620 Southpoint Dr S  Jacksonville, FL 32216",
    "location": "Duval"
  },
  {
    "name": "Lisa Cotter Marketing Communications",
    "description": "Advertising Agencies",
    "phone": "(904) 446-8739",
    "address": " 10000 Gate Pkwy N Apt 1613  Jacksonville, FL 32246",
    "location": "Duval"
  },
  {
    "name": "YP Marketing Solutions",
    "description": "Advertising Agencies",
    "phone": "(904) 288-2957",
    "address": " 4651 Salisbury Rd Ste 300  Jacksonville, FL 32256",
    "location": "Duval"
  },
  {
    "name": "Business Network Designs - Jacksonville",
    "description": "Advertising Agencies",
    "phone": "(904) 236-5878",
    "address": " 4651 Salisbury Rd Ste 400  Jacksonville, FL 32256",
    "location": "Duval"
  },
  {
    "name": "DiscoverTec",
    "description": "Advertising Agencies",
    "phone": "(904) 680-3000",
    "address": " 4887 Belfort Rd Ste 400  Jacksonville, FL 32256",
    "location": "Duval"
  },
  {
    "name": "Digital Edge Marketing",
    "description": "Advertising Agencies",
    "phone": "(904) 982-4915",
    "address": " 10161 Centurion Pkwy N #170  Jacksonville, FL 32256",
    "location": "Duval"
  },
  {
    "name": "The Legal Marketing Company",
    "description": "Advertising Agencies",
    "phone": "(904) 385-9124",
    "address": " 5011 Gate Pkwy  Jacksonville, FL 32256",
    "location": "Duval"
  },
  {
    "name": "My Optimization Experts",
    "description": "Advertising Agencies",
    "phone": "(904) 955-1807",
    "address": " 10151 Deerwood Park Blvd  Jacksonville, FL 32256",
    "location": "Duval"
  },
  {
    "name": "Money Pages",
    "description": "Advertising Agencies",
    "phone": "(904) 306-0086",
    "address": " 7892 Baymeadows Way  Jacksonville, FL 32256",
    "location": "Duval"
  },
  {
    "name": "Beson4",
    "description": "Advertising Agencies",
    "phone": "(904) 992-9945",
    "address": " 13500 Sutton Park Dr S Ste 104  Jacksonville, FL 32224",
    "location": "Duval"
  },
  {
    "name": "Exigo Sales and Marketing",
    "description": "Advertising Agencies",
    "phone": "(904) 479-6080",
    "address": " 8777 San Jose Blvd  Jacksonville, FL 32217",
    "location": "Duval"
  },
  {
    "name": "Telehammers",
    "description": "Advertising Agencies",
    "phone": "(904) 236-5332",
    "address": " 9140 Golfside Dr  Jacksonville, FL 32256",
    "location": "Duval"
  },
  {
    "name": "Red House Advertising and Marketing",
    "description": "Advertising Agencies",
    "phone": "(904) 270-9390",
    "address": " 2027 Mayport Rd  Jacksonville, FL 32233",
    "location": "Duval"
  },
  {
    "name": "WayUP Marketing Agency & Business Solutions",
    "description": "Advertising Agencies",
    "phone": "(800) 290-7271",
    "address": " 14286-19 Beach Blvd Ste 210  Jacksonville, FL 32250",
    "location": "Duval"
  },
  {
    "name": "Golfside North",
    "description": "Advertising Agencies",
    "phone": "(904) 432-7918",
    "address": " 95021 Captains Way  Fernandina Beach, FL 32034",
    "location": "Duval"
  },
  {
    "name": "Artex Creative",
    "description": "Advertising Agencies",
    "phone": "(904) 330-4932",
    "address": " 331 Seminole Rd  Atlantic Beach, FL 32233",
    "location": "Duval"
  },
  {
    "name": "Image PRO Ad Specialties Inc",
    "description": "Advertising Agencies",
    "phone": "(904) 287-0377",
    "address": " 10920 Baymeadows Rd  Jacksonville, FL 32256",
    "location": "Duval"
  },
  {
    "name": "SumitSEO",
    "description": "Advertising Agencies",
    "phone": "(904) 345-0944",
    "address": " 10503 San Jose Blvd Ste 4  Jacksonville, FL 32257",
    "location": "Duval"
  },
  {
    "name": "Corporate Concepts",
    "description": "Advertising Agencies",
    "phone": "(904) 880-8212",
    "address": " 3826 Olympic Ln  Jacksonville, FL 32223",
    "location": "Duval"
  },
  {
    "name": "Search Seek Destroy",
    "description": "Advertising Agencies",
    "phone": "(904) 469-7335",
    "address": " 11979 Colby Creek Dr  Jacksonville, FL 32258",
    "location": "Duval"
  },
  {
    "name": "T. Mak's International",
    "description": "Advertising Agencies",
    "phone": "(866) 308-8368",
    "address": " 7076 Davis Creek Rd  Jacksonville, FL 32256",
    "location": "Duval"
  },
  {
    "name": "Review Branding TV",
    "description": "Advertising Agencies",
    "phone": "(904) 222-8925",
    "address": " 6684 Columbia Park Dr S Ste 7  Jacksonville, FL 32258",
    "location": "Duval"
  },
  {
    "name": "3-D Courier Services, LLC",
    "description": "Advertising Agencies",
    "phone": "(904) 217-4572",
    "address": " 12443 San Jose Blvd Ste 802-e  Jacksonville, FL 32223",
    "location": "Duval"
  },
  {
    "name": "Rt Publishing",
    "description": "Advertising Agencies",
    "phone": "(904) 886-4919",
    "address": " 12443 San Jose Blvd Ste 403  Jacksonville, FL 32223",
    "location": "Duval"
  },
  {
    "name": "Sign Talk Graphix",
    "description": "Advertising Agencies",
    "phone": "(904) 737-9119",
    "address": " 12610 Cachet Dr  Jacksonville, FL 32223",
    "location": "Duval"
  },
  {
    "name": "Consult PR, Inc.",
    "description": "Advertising Agencies",
    "phone": "(561) 444-7265",
    "address": " 12724 Gran Bay Pkwy W  Jacksonville, FL 32258",
    "location": "Duval"
  },
  {
    "name": "Dagmar Marketing",
    "description": "Advertising Agencies",
    "phone": "(904) 270-9778",
    "address": " 12574 Flagler Center Blvd Ste 101  Jacksonville, FL 32258",
    "location": "Duval"
  },
  {
    "name": "Liquid Creative - Marketing Agency Jacksonville",
    "description": "Advertising Agencies",
    "phone": "(352) 600-5050",
    "address": " 12574 Flagler Center Blvd Ste 101  Jacksonville, FL 32258",
    "location": "Duval"
  },
  {
    "name": "Web.com",
    "description": "Advertising Agencies",
    "phone": "(904) 371-6845",
    "address": " 12808 Gran Bay Pkwy W  Jacksonville, FL 32258",
    "location": "Duval"
  },
  {
    "name": "Majority Strategies",
    "description": "Advertising Agencies",
    "phone": "(904) 567-2008",
    "address": " 12854 Kenan Dr  Jacksonville, FL 32258",
    "location": "Duval"
  },
  {
    "name": "PFJ Service",
    "description": "Advertising Agencies",
    "phone": "(904) 204-4442",
    "address": " 7021 Berrybrook Dr  Jacksonville, FL 32258",
    "location": "Duval"
  },
  {
    "name": "A 2 Z Signs",
    "description": "Signs",
    "phone": "(904) 713-5531",
    "address": " 12721 N Main St  Jacksonville, FL 32218",
    "location": "Duval"
  },
  {
    "name": "Custom Design",
    "description": "Signs",
    "phone": "(904) 733-5646",
    "address": " 2023 New Berlin Rd  Jacksonville, FL 32218",
    "location": "Duval"
  },
  {
    "name": "Precision Printing & Graphics",
    "description": "T-Shirts",
    "phone": "(904) 545-0226",
    "address": " 14476 Duval Pl W  Jacksonville, FL 32218",
    "location": "Duval"
  },
  {
    "name": "Trophykits.com",
    "description": "Internet Marketing & Advertising",
    "phone": "(904) 693-6789",
    "address": " 1314 Eastport Rd  Jacksonville, FL 32218",
    "location": "Duval"
  },
  {
    "name": "Minuteman Press North Jax",
    "description": "Printing Services",
    "phone": "(904) 337-0160",
    "address": " 11565 N Main St Ste 107  Jacksonville, FL 32218",
    "location": "Duval"
  },
  {
    "name": "Jax Florida Internet Marketing & Web Design",
    "description": "Internet Marketing & Advertising",
    "phone": "(904) 419-7214",
    "address": " 11325 N Main St Lot 25  Jacksonville, FL 32218",
    "location": "Duval"
  },
  {
    "name": "Rojas Consulting",
    "description": "Management Consultants",
    "phone": "(904) 772-4709",
    "address": " 13706 Fish Eagle Dr W  Jacksonville, FL 32226",
    "location": "Duval"
  },
  {
    "name": "National Parcel Logistics",
    "description": "Mail & Shipping Services",
    "phone": "(904) 741-0027",
    "address": " 14200 Pecan Park Rd  Jacksonville, FL 32218",
    "location": "Duval"
  },
  {
    "name": "Evans Marketing Group",
    "description": "Internet Marketing & Advertising",
    "phone": "(904) 586-2896",
    "address": " 1250 Imeson Park Blvd  Jacksonville, FL 32218",
    "location": "Duval"
  },
  {
    "name": "Power Team Money Makers",
    "description": "Internet Marketing & Advertising",
    "phone": "(315) 463-5981",
    "address": " 12041 Alexandra Dr  Jacksonville, FL 32218",
    "location": "Duval"
  },
  {
    "name": "Trophy Magic",
    "description": "Advertising Specialties",
    "phone": "(904) 765-4503",
    "address": " 7308 N Pearl St  Jacksonville, FL 32208",
    "location": "Duval"
  },
  {
    "name": "Tiki Graphics",
    "description": "Signs",
    "phone": "(904) 768-0044",
    "address": " 2831 Dunn Ave  Jacksonville, FL 32218",
    "location": "Duval"
  },
  {
    "name": "Jobs4Living.com",
    "description": "Internet Marketing & Advertising",
    "phone": "(904) 333-2776",
    "address": " 1057 Broward Rd  Jacksonville, FL 32218",
    "location": "Duval"
  },
  {
    "name": "Prestige Monument & Vault Co",
    "description": "Monuments",
    "phone": "(904) 764-2544",
    "address": " 2220 Soutel Dr  Jacksonville, FL 32208",
    "location": "Duval"
  },
  {
    "name": "Shark Signs of NE FL, Inc.",
    "description": "Signs",
    "phone": "(904) 338-9488",
    "address": " 7030 N Main St  Jacksonville, FL 32208",
    "location": "Duval"
  },
  {
    "name": "Signsharks Sign Service",
    "description": "Signs-Maintenance & Repair",
    "phone": "(904) 766-6222",
    "address": " 7030 N Main St  Jacksonville, FL 32208",
    "location": "Duval"
  },
  {
    "name": "minimarket.com, Inc.",
    "description": "Advertising-Promotional Products",
    "phone": "(904) 651-0405",
    "address": " 7707 Merrill Rd Unit 11841  jacksonville, FL 32239",
    "location": "Duval"
  },
  {
    "name": "Southern Monument Co Inc",
    "description": "Monuments",
    "phone": "(904) 356-4714",
    "address": " 4500 N Main St  Jacksonville, FL 32206",
    "location": "Duval"
  },
  {
    "name": "The Gift Gallery Promo",
    "description": "Advertising-Promotional Products",
    "phone": "(888) 834-0333",
    "address": " 2030 Benedict Rd  Jacksonville, FL 32209",
    "location": "Duval"
  },
  {
    "name": "8 Letter City Radio",
    "description": "Internet Marketing & Advertising",
    "phone": "(850) 733-2570",
    "address": " 5371 Tubman Dr S  Jacksonville, FL 32219",
    "location": "Duval"
  },
  {
    "name": "MCA= MOTOR CLUB OF AMERICA",
    "description": "Internet Marketing & Advertising",
    "phone": "(904) 517-4793",
    "address": " 3140 Franklin St  Jacksonville, FL 32206",
    "location": "Duval"
  },
  {
    "name": "Ace Printing & Copy Center",
    "description": "Printing Services",
    "phone": "(904) 355-0342",
    "address": " 3302 N Main St  Jacksonville, FL 32206",
    "location": "Duval"
  },
  {
    "name": "hustlemotivator.inc",
    "description": "Internet Marketing & Advertising",
    "phone": "(904) 434-0419",
    "address": " 7221 dostie drive east jacksonville florida  jacksonville, FL 32209",
    "location": "Duval"
  },
  {
    "name": "Advantage Printing Laminating & Signs",
    "description": "Signs",
    "phone": "(904) 737-1613",
    "address": " 2050 Walnut St  Jacksonville, FL 32206",
    "location": "Duval"
  },
  {
    "name": "General Sign Service",
    "description": "Signs-Erectors & Hangers",
    "phone": "(904) 355-5630",
    "address": " 1940 Spearing St  Jacksonville, FL 32206",
    "location": "Duval"
  },
  {
    "name": "Eagle Signs Jax",
    "description": "Signs",
    "phone": "(904) 503-7378",
    "address": " 515 E 9th St  Jacksonville, FL 32206",
    "location": "Duval"
  },
  {
    "name": "Creative Innovations",
    "description": "Advertising Specialties",
    "phone": "(904) 683-2985",
    "address": " 4619 Morris Rd  Jacksonville, FL 32225",
    "location": "Duval"
  },
  {
    "name": "Florida Custom Signs & Services",
    "description": "Signs",
    "phone": "(904) 731-8840",
    "address": " 2213 Broad Water Dr  Jacksonville, FL 32225",
    "location": "Duval"
  },
  {
    "name": "Ritter Signs Graphics & Truck Accessories",
    "description": "Signs",
    "phone": "(904) 468-0047",
    "address": " 539 S Us Highway 17  Yulee, FL 32097",
    "location": "Duval"
  },
  {
    "name": "East Coast Motorsports",
    "description": "Window Tinting",
    "phone": "(904) 225-8877",
    "address": " 850508 Us Highway 17  Yulee, FL 32097",
    "location": "Duval"
  },
  {
    "name": "Minuteman Press of San Marco",
    "description": "Copying & Duplicating Service",
    "phone": "(904) 858-1000",
    "address": " 1478 Riverplace Blvd Ste 104  Jacksonville, FL 32207",
    "location": "Duval"
  },
  {
    "name": "Florida Times-Union",
    "description": "Print Advertising",
    "phone": "(904) 359-4255",
    "address": " 1 Riverside Ave  Jacksonville, FL 32202",
    "location": "Duval"
  },
  {
    "name": "First Coast Sign Language Interpreting",
    "description": "Advertising Specialties",
    "phone": "(888) 886-5246",
    "address": " PO Box 11807  Jacksonville, FL 32239",
    "location": "Duval"
  },
  {
    "name": "Vital Sign Service Inc",
    "description": "Signs",
    "phone": "(904) 860-6686",
    "address": " 1214 Romney St  Jacksonville, FL 32211",
    "location": "Duval"
  },
  {
    "name": "Phillips Signs and Design",
    "description": "Graphic Designers",
    "phone": "(904) 743-7619",
    "address": " 1214 Romney St  Jacksonville, FL 32211",
    "location": "Duval"
  },
  {
    "name": "Beach Neon and Sign Co",
    "description": "Signs-Maintenance & Repair",
    "phone": "(904) 246-1106",
    "address": " 1214 Romney St  Jacksonville, FL 32211",
    "location": "Duval"
  },
  {
    "name": "Bentley Sign Co",
    "description": "Signs",
    "phone": "(904) 743-7619",
    "address": " 1214 Romney St  Jacksonville, FL 32211",
    "location": "Duval"
  },
  {
    "name": "We Make The Shirt",
    "description": "Business Cards",
    "phone": "(904) 527-1920",
    "address": " 822 A Philip Randolph Blvd  jacksonville, FL 32206",
    "location": "Duval"
  },
  {
    "name": "Crystalcase.com",
    "description": "Internet Marketing & Advertising",
    "phone": "(904) 743-8684",
    "address": " 1030 University Blvd N  Jacksonville, FL 32211",
    "location": "Duval"
  },
  {
    "name": "Sign Guys",
    "description": "Signs",
    "phone": "(904) 290-1401",
    "address": " 700 E Union St  Jacksonville, FL 32206",
    "location": "Duval"
  },
  {
    "name": "Sign PRO America",
    "description": "Signs",
    "phone": "(904) 527-8248",
    "address": " 700 E Union St Ste 18  Jacksonville, FL 32206",
    "location": "Duval"
  },
  {
    "name": "Advanced Screens",
    "description": "Aluminum Products",
    "phone": "(904) 422-9099",
    "address": " 7849 Alderman Rd  Jacksonville, FL 32211",
    "location": "Duval"
  },
  {
    "name": "Town Planner Community Calendar",
    "description": "Directory & Guide Advertising",
    "phone": "(904) 999-4160",
    "address": " 2771-29 Monument Road  Jacksonville, FL 32225",
    "location": "Duval"
  },
  {
    "name": "Experienced Mail Transport",
    "description": "Mail & Shipping Services",
    "phone": "(904) 354-0203",
    "address": " 1516 Morgan St  Jacksonville, FL 32209",
    "location": "Duval"
  },
  {
    "name": "Jaxtown Planner",
    "description": "Direct Mail Advertising",
    "phone": "(904) 999-4160",
    "address": " 2771 Monument Rd  Jacksonville, FL 32225",
    "location": "Duval"
  },
  {
    "name": "Lind Outdoor Advertising Co",
    "description": "Transit Advertising",
    "phone": "(800) 444-5463",
    "address": " 409 N Main St  Jacksonville, FL 32202",
    "location": "Duval"
  },
  {
    "name": "JK Design Arts",
    "description": "Copy Writers",
    "phone": "(904) 638-6068",
    "address": " PO Box 61651  Jacksonville, FL 32236",
    "location": "Duval"
  },
  {
    "name": "Merkley Marketing Group",
    "description": "Internet Marketing & Advertising",
    "phone": "(904) 217-3430",
    "address": " Po Box 600906  Jacksonville, FL 32260",
    "location": "Duval"
  },
  {
    "name": "Wind Mill",
    "description": "Internet Marketing & Advertising",
    "phone": "(904) 900-3623",
    "address": " 7902 Wildwood Rd  Jacksonville, FL 32211",
    "location": "Duval"
  },
  {
    "name": "Perspective Edge",
    "description": "Internet Marketing & Advertising",
    "phone": "(904) 479-5932",
    "address": " 118 W Adams St Ste 245  Jacksonville, FL 32202",
    "location": "Duval"
  },
  {
    "name": "FedEx Office Print & Ship Center",
    "description": "Copying & Duplicating Service",
    "phone": "(904) 353-1100",
    "address": " 221 W Forsyth St  Jacksonville, FL 32202",
    "location": "Duval"
  },
  {
    "name": "DAGMAR Marketing",
    "description": "Internet Marketing & Advertising",
    "phone": "(904) 270-9778",
    "address": " 5 W Forsyth St  Jacksonville, FL 32202",
    "location": "Duval"
  },
  {
    "name": "Bizjournals.com",
    "description": "Internet Marketing & Advertising",
    "phone": "(904) 396-3502",
    "address": " 200 W Forsyth St  Jacksonville, FL 32202",
    "location": "Duval"
  },
  {
    "name": "United Allied Marketing Services",
    "description": "Marketing Consultants",
    "phone": "(904) 780-0246",
    "address": " 50 N. Laura St. Ste 2500  Jacksonville, FL 32202",
    "location": "Duval"
  },
  {
    "name": "SEO Digital Marketing Services",
    "description": "Internet Marketing & Advertising",
    "phone": "(833) 736-3670",
    "address": " 50 N Laura St Ste 2500  Jacksonville, FL 32202",
    "location": "Duval"
  },
  {
    "name": "Capitallawcenter.com",
    "description": "Internet Marketing & Advertising",
    "phone": "(781) 239-3500",
    "address": " 301 W Bay St  Jacksonville, FL 32202",
    "location": "Duval"
  },
  {
    "name": "Aiden Advertising",
    "description": "Advertising Specialties",
    "phone": "(904) 549-5039",
    "address": " 24 Market St  Jacksonville, FL 32202",
    "location": "Duval"
  },
  {
    "name": "MarketChair",
    "description": "Internet Marketing & Advertising",
    "phone": "(302) 715-1002",
    "address": " 25 N Market St # 121  Jacksonville, FL 32202",
    "location": "Duval"
  },
  {
    "name": "We Were Born to Shine",
    "description": "Internet Marketing & Advertising",
    "phone": "(904) 998-8673",
    "address": " 12906 Oakland Hills Ct  Jacksonville, FL 32225",
    "location": "Duval"
  },
  {
    "name": "Main Street Digital",
    "description": "Internet Marketing & Advertising",
    "phone": "(904) 239-1607",
    "address": " 1 Riverside Ave  Jacksonville, FL 32202",
    "location": "Duval"
  },
  {
    "name": "Times-Union Media",
    "description": "Internet Marketing & Advertising",
    "phone": "(904) 359-4318",
    "address": " 1 Riverside Ave  Jacksonville, FL 32202",
    "location": "Duval"
  },
  {
    "name": "Fermil & Assoc Inc",
    "description": "Direct Mail Advertising",
    "phone": "(904) 642-0380",
    "address": " 12217 Panther Ridge Dr  Jacksonville, FL 32225",
    "location": "Duval"
  },
  {
    "name": "Atlantic Signs",
    "description": "Signs-Maintenance & Repair",
    "phone": "(904) 226-1059",
    "address": " 107 Mott St  Jacksonville, FL 32254",
    "location": "Duval"
  },
  {
    "name": "Boltuli Inc",
    "description": "Advertising Specialties",
    "phone": "(904) 900-3179",
    "address": " 806 Rosselle St  Jacksonville, FL 32204",
    "location": "Duval"
  },
  {
    "name": "ACE Web Service",
    "description": "Internet Marketing & Advertising",
    "phone": "(904) 501-9747",
    "address": " 5201 Atlantic Blvd Unit 289  Jacksonville, FL 32207",
    "location": "Duval"
  },
  {
    "name": "Florida Custom Signs and Services",
    "description": "Signs",
    "phone": "(904) 731-8840",
    "address": " 9951 Atlantic Blvd  Jacksonville, FL 32225",
    "location": "Duval"
  },
  {
    "name": "Florida Sun Printing",
    "description": "Printing Services-Commercial",
    "phone": "(904) 879-2101",
    "address": " 54024 Cravey Rd  Callahan, FL 32011",
    "location": "Duval"
  },
  {
    "name": "Cottle Communications Inc",
    "description": "Advertising Specialties",
    "phone": "(904) 261-0407",
    "address": " 118 Sea Marsh Rd  Fernandina Beach, FL 32034",
    "location": "Duval"
  },
  {
    "name": "Champion Printing",
    "description": "Printers-Screen Printing",
    "phone": "(904) 310-3555",
    "address": " 474315 E. State Rd. 200  Fernandina Beach, FL 32034",
    "location": "Duval"
  },
  {
    "name": "Brunet-Garcia Advertising Inc",
    "description": "Advertising Specialties",
    "phone": "(904) 346-1977",
    "address": " 1510 Hendricks Ave  Jacksonville, FL 32207",
    "location": "Duval"
  },
  {
    "name": "Advanced Direct Marketing Services",
    "description": "Direct Mail Advertising",
    "phone": "(904) 396-3028",
    "address": " 3733 Adirolf Rd  Jacksonville, FL 32207",
    "location": "Duval"
  },
  {
    "name": "Shark Signs of NE FL",
    "description": "Signs",
    "phone": "(904) 758-9171",
    "address": " 5317 Shen Ave  Jacksonville, FL 32205",
    "location": "Duval"
  },
  {
    "name": "Rapid Print",
    "description": "Printers-Equipment & Supplies",
    "phone": "(904) 389-4141",
    "address": " 7029-4 Commonwealth Ave  Jacksonville, FL 32220",
    "location": "Duval"
  },
  {
    "name": "Amelia Plumbing",
    "description": "Internet Products & Services",
    "phone": "(904) 246-8330",
    "address": " 2983 Brougham Ave  Jacksonville, FL 32246",
    "location": "Duval"
  },
  {
    "name": "Creative One Media",
    "description": "Internet Marketing & Advertising",
    "phone": "(904) 394-2909",
    "address": " 10752 Deerwood Park Blvd Ste 100  Jacksonville, FL 32256",
    "location": "Duval"
  },
  {
    "name": "Jacksonville Advertising",
    "description": "Advertising Specialties",
    "phone": "(904) 398-7297",
    "address": " 2727 Atlantic Blvd  Jacksonville, FL 32207",
    "location": "Duval"
  },
  {
    "name": "Ocean Air Graphics Inc",
    "description": "T-Shirts",
    "phone": "(904) 727-9222",
    "address": " 10909 Atlantic Blvd Ste 10  Jacksonville, FL 32225",
    "location": "Duval"
  },
  {
    "name": "Royal Foam",
    "description": "Interior Designers & Decorators",
    "phone": "(904) 345-5400",
    "address": " 3261 Phillips Hwy  Jacksonville, FL 32207",
    "location": "Duval"
  },
  {
    "name": "XJOSE",
    "description": "Web Site Design & Services",
    "phone": "(877) 869-5673",
    "address": " 10151 Deerwood Park Blvd #200  Jacksonville, FL 32256",
    "location": "Duval"
  },
  {
    "name": "Nova LUX Signs",
    "description": "Sign Lettering",
    "phone": "(904) 513-3687",
    "address": " 3648 Warrington St  Jacksonville, FL 32254",
    "location": "Duval"
  },
  {
    "name": "Stripeman Graphix Inc",
    "description": "Trade Shows, Expositions & Fairs",
    "phone": "(904) 783-1250",
    "address": " 5355 Ramona Blvd Suite 8  Jacksonville, FL 32205",
    "location": "Duval"
  },
  {
    "name": "Brite Lite Signs",
    "description": "Signs",
    "phone": "(904) 398-5305",
    "address": " 3633 Saint Augustine Rd  Jacksonville, FL 32207",
    "location": "Duval"
  },
  {
    "name": "Florida Transcor, Inc.",
    "description": "Traffic Signs & Signals",
    "phone": "(800) 766-7604",
    "address": " 6683 Stuart Ave  Jacksonville, FL 32254",
    "location": "Duval"
  },
  {
    "name": "The Local Artist",
    "description": "Clothing Stores",
    "phone": "(904) 389-7600",
    "address": " 1046 Ellis Rd S  Jacksonville, FL 32205",
    "location": "Duval"
  },
  {
    "name": "Shorty's Place in Cyberspace",
    "description": "Advertising Specialties",
    "phone": "(904) 636-0824",
    "address": " 5307 Rollins Ave  Jacksonville, FL 32207",
    "location": "Duval"
  },
  {
    "name": "Citation Builder Group",
    "description": "Internet Marketing & Advertising",
    "phone": "(323) 522-4672",
    "address": " 4744 San Juan Ave # 457  Jacksonville, FL 32210",
    "location": "Duval"
  },
  {
    "name": "The UPS Store 5635",
    "description": "Mailbox Rental",
    "phone": "(904) 693-3835",
    "address": " 7749 Normandy Blvd Ste 145  Jacksonville, FL 32221",
    "location": "Duval"
  },
  {
    "name": "Signline Inc",
    "description": "Signs",
    "phone": "(904) 388-9474",
    "address": " 562 King St  Jacksonville, FL 32204",
    "location": "Duval"
  },
  {
    "name": "Awards Unlimited",
    "description": "Trophies, Plaques & Medals",
    "phone": "(904) 396-7653",
    "address": " 1550 Hendricks Ave  Jacksonville, FL 32207",
    "location": "Duval"
  },
  {
    "name": "CNS Signs Inc",
    "description": "Signs-Erectors & Hangers",
    "phone": "(904) 425-3363",
    "address": " 3018 Lenox Ave  Jacksonville, FL 32254",
    "location": "Duval"
  },
  {
    "name": "Sign It Quick Jacksonville",
    "description": "Signs",
    "phone": "(904) 724-4321",
    "address": " 3338 Atlantic Blvd  Jacksonville, FL 32207",
    "location": "Duval"
  },
  {
    "name": "Jacksonville Specialty Advertising",
    "description": "Advertising Specialties",
    "phone": "(904) 398-7297",
    "address": " 1801 Art Museum Dr  Jacksonville, FL 32207",
    "location": "Duval"
  },
  {
    "name": "Tropical Marketing Agency",
    "description": "Internet Marketing & Advertising",
    "phone": "(904) 600-1058",
    "address": " 2624 Atlantic Blvd Suite: 1  Jacksonville, FL 32207",
    "location": "Duval"
  },
  {
    "name": "Willman & Company",
    "description": "Advertising Specialties",
    "phone": "(904) 396-9344",
    "address": " 1809 Art Museum Dr Ste 103  Jacksonville, FL 32207",
    "location": "Duval"
  },
  {
    "name": "Rock Shop Tees",
    "description": "Vinyl Windows & Doors",
    "phone": "(904) 888-6413",
    "address": " 1511 Goodwin St  Jacksonville, FL 32204",
    "location": "Duval"
  },
  {
    "name": "Aggressive Signs",
    "description": "Signs",
    "phone": "(904) 388-7823",
    "address": " 3365 W Beaver St  Jacksonville, FL 32254",
    "location": "Duval"
  },
  {
    "name": "Signs-N-Motion",
    "description": "Signs",
    "phone": "(904) 646-4440",
    "address": " 10909 Atlantic Blvd Ste 17  Jacksonville, FL 32225",
    "location": "Duval"
  },
  {
    "name": "Rsvp",
    "description": "Direct Mail Advertising",
    "phone": "(904) 854-9993",
    "address": " 1617 Atlantic Blvd Ste 102  Jacksonville, FL 32207",
    "location": "Duval"
  },
  {
    "name": "Kuumba LLC",
    "description": "Internet Marketing & Advertising",
    "phone": "(877) 452-0953",
    "address": " 1650 Margaret St Ste 356  Jacksonville, FL 32204",
    "location": "Duval"
  },
  {
    "name": "Giglio Signs",
    "description": "Signs-Maintenance & Repair",
    "phone": "(904) 396-9046",
    "address": " 1961 Hendricks Ave  Jacksonville, FL 32207",
    "location": "Duval"
  },
  {
    "name": "Signs & Graphics",
    "description": "Signs",
    "phone": "(904) 388-5899",
    "address": " 3650 Lenox Ave  Jacksonville, FL 32254",
    "location": "Duval"
  },
  {
    "name": "Prestige Signs",
    "description": "Signs",
    "phone": "(904) 388-7991",
    "address": " 3660 Lenox Ave  Jacksonville, FL 32254",
    "location": "Duval"
  },
  {
    "name": "Advance Sign Co",
    "description": "Advertising Specialties",
    "phone": "(904) 388-7991",
    "address": " 3660 Lenox Ave  Jacksonville, FL 32254",
    "location": "Duval"
  },
  {
    "name": "Digital Signs & Graphics",
    "description": "Signs",
    "phone": "(904) 327-7807",
    "address": " 2029 Brookview Dr S  Jacksonville, FL 32246",
    "location": "Duval"
  },
  {
    "name": "Brown Enterprises",
    "description": "Signs",
    "phone": "(904) 724-2262",
    "address": " 8841 Corporate Square Ct  Jacksonville, FL 32216",
    "location": "Duval"
  },
  {
    "name": "Graphix Mafia",
    "description": "Signs",
    "phone": "(904) 566-0402",
    "address": " 8802 Corporate Square Ct  Jacksonville, FL 32216",
    "location": "Duval"
  },
  {
    "name": "Local Clicks",
    "description": "Internet Marketing & Advertising",
    "phone": "(904) 712-9546",
    "address": " 8802 Corporate Square Ct  Jacksonville, FL 32216",
    "location": "Duval"
  },
  {
    "name": "Integrity Signs & Design",
    "description": "Signs",
    "phone": "(904) 725-0606",
    "address": " 8802 Corporate Square Ct Ste 404  Jacksonville, FL 32216",
    "location": "Duval"
  },
  {
    "name": "Kustura Technologies",
    "description": "Computer Network Design & Systems",
    "phone": "(904) 855-8885",
    "address": " 2120 Corporate Square Blvd Ste 23  Jacksonville, FL 32216",
    "location": "Duval"
  },
  {
    "name": "A B Signs",
    "description": "Signs",
    "phone": "(904) 346-3342",
    "address": " 2210 Corporate Square Blvd Ste 2  Jacksonville, FL 32216",
    "location": "Duval"
  },
  {
    "name": "Website Solutions",
    "description": "Web Site Design & Services",
    "phone": "(904) 721-8973",
    "address": " 866 Wren Rd  Jacksonville, FL 32216",
    "location": "Duval"
  },
  {
    "name": "CNS Signs, Inc.",
    "description": "Signs",
    "phone": "(904) 425-3363",
    "address": " 263 Edgewood Ave S  Jacksonville, FL 32254",
    "location": "Duval"
  },
  {
    "name": "Nefeda.com",
    "description": "Internet Marketing & Advertising",
    "phone": "(904) 384-2240",
    "address": " 3 Shircliff Way  Jacksonville, FL 32204",
    "location": "Duval"
  },
  {
    "name": "ThinkTop Media Group",
    "description": "Internet Marketing & Advertising",
    "phone": "(904) 265-0765",
    "address": " 4811 Beach Blvd Ste 105  Jacksonville, FL 32207",
    "location": "Duval"
  },
  {
    "name": "Open Source Sales and Marketing",
    "description": "Credit & Debt Counseling",
    "phone": "(954) 806-6087",
    "address": " 484 Candlebark Dr  Jacksonville, FL 32225",
    "location": "Duval"
  },
  {
    "name": "Futch Printing & Mailing Inc",
    "description": "Copying & Duplicating Service",
    "phone": "(904) 388-3995",
    "address": " 400 Edgewood Ave S  Jacksonville, FL 32254",
    "location": "Duval"
  },
  {
    "name": "Holmes Stamp Company",
    "description": "Rubber & Plastic Stamps",
    "phone": "(904) 647-6493",
    "address": " 2021 Saint Augustine Rd E  Jacksonville, FL 32207",
    "location": "Duval"
  },
  {
    "name": "Custom Signs",
    "description": "Signs",
    "phone": "(877) 251-9444",
    "address": " 2021 Saint Augustine Rd E Ste 2  Jacksonville, FL 32207",
    "location": "Duval"
  },
  {
    "name": "Level Signs Inc",
    "description": "Signs",
    "phone": "(904) 858-9888",
    "address": " 5252 Beach Blvd  Jacksonville, FL 32207",
    "location": "Duval"
  },
  {
    "name": "FASTSIGNS",
    "description": "Signs",
    "phone": "(904) 724-7446",
    "address": " 2141 Saint Johns Bluff Rd S  Jacksonville, FL 32246",
    "location": "Duval"
  },
  {
    "name": "Thunder Road FX Inc",
    "description": "Signs",
    "phone": "(904) 389-5656",
    "address": " 597 Edgewood Ave S  Jacksonville, FL 32205",
    "location": "Duval"
  },
  {
    "name": "New View Signs",
    "description": "Signs",
    "phone": "(904) 444-4530",
    "address": " 2958 Olga Pl  Jacksonville, FL 32205",
    "location": "Duval"
  },
  {
    "name": "Pospaper.com",
    "description": "Internet Marketing & Advertising",
    "phone": "(904) 737-9989",
    "address": " 6740 Broadway Ave  Jacksonville, FL 32254",
    "location": "Duval"
  },
  {
    "name": "Signs Now",
    "description": "Signs",
    "phone": "(904) 651-0994",
    "address": " 1188 Edgewood Ave S  Jacksonville, FL 32205",
    "location": "Duval"
  },
  {
    "name": "Rock My Image",
    "description": "Internet Marketing & Advertising",
    "phone": "(904) 428-8764",
    "address": " 1922 Felch Ave  Jacksonville, FL 32207",
    "location": "Duval"
  },
  {
    "name": "Marketing24x7 - Jacksonville Seo",
    "description": "Internet Consultants",
    "phone": "(904) 204-0245",
    "address": " 2020 Inwood Ter  Jacksonville, FL 32207",
    "location": "Duval"
  },
  {
    "name": "Buchanan Sign & Flag",
    "description": "Signs",
    "phone": "(904) 725-5500",
    "address": " 6755 Beach Blvd  Jacksonville, FL 32216",
    "location": "Duval"
  },
  {
    "name": "APS Promotional Solutions, Inc.",
    "description": "Embroidery",
    "phone": "(904) 721-4977",
    "address": " 7121 Beach Blvd  Jacksonville, FL 32216",
    "location": "Duval"
  },
  {
    "name": "PixelCooks LLC",
    "description": "Internet Marketing & Advertising",
    "phone": "(305) 209-3207",
    "address": " 7161 Beach Blvd  Jacksonville, FL 32216",
    "location": "Duval"
  },
  {
    "name": "Cusic Signs",
    "description": "Truck Painting & Lettering",
    "phone": "(904) 399-1911",
    "address": " 3565 Saint Augustine Rd #2  Jacksonville, FL 32207",
    "location": "Duval"
  },
  {
    "name": "First Coast Signs Inc",
    "description": "Signs",
    "phone": "(904) 398-3993",
    "address": " 3728 Philips Hwy  Jacksonville, FL 32207",
    "location": "Duval"
  },
  {
    "name": "Signs By Tomorrow",
    "description": "Signs",
    "phone": "(904) 996-7773",
    "address": " 2683 Saint Johns Bluff Rd S  Jacksonville, FL 32246",
    "location": "Duval"
  },
  {
    "name": "Promotional Signs & Graphics",
    "description": "Graphic Designers",
    "phone": "(904) 783-9285",
    "address": " 6731 Stuart Ave Ste 9  Jacksonville, FL 32254",
    "location": "Duval"
  },
  {
    "name": "Great American Advertising",
    "description": "Advertising Specialties",
    "phone": "(904) 693-4344",
    "address": " 1046 Ellis Rd S  Jacksonville, FL 32205",
    "location": "Duval"
  },
  {
    "name": "General Freight",
    "description": "Direct Mail Advertising",
    "phone": "(904) 733-2102",
    "address": " 4344 Phillips Hwy  Jacksonville, FL 32207",
    "location": "Duval"
  },
  {
    "name": "Millennials Mail, LLC",
    "description": "Mailbox Rental",
    "phone": "(904) 321-9662",
    "address": " We are an online company  Jacksonville, FL 32216",
    "location": "Duval"
  },
  {
    "name": "Taylor Sign & Design Inc.",
    "description": "Signs",
    "phone": "(904) 396-4652",
    "address": " 4162 Saint Augustine Rd  Jacksonville, FL 32207",
    "location": "Duval"
  },
  {
    "name": "Signarama Jacksonville (Southside Blvd)",
    "description": "Signs",
    "phone": "(904) 998-8880",
    "address": " 3633 Southside Blvd  Jacksonville, FL 32216",
    "location": "Duval"
  },
  {
    "name": "Sign Maine Up",
    "description": "Advertising Specialties",
    "phone": "(904) 551-0175",
    "address": " 11041 Beach Blvd  Jacksonville, FL 32246",
    "location": "Duval"
  },
  {
    "name": "Broadus Matthew Advertising",
    "description": "Signs",
    "phone": "(904) 396-6950",
    "address": " 2139 Nickerson Ln  Jacksonville, FL 32207",
    "location": "Duval"
  },
  {
    "name": "Independent Signs",
    "description": "Signs",
    "phone": "(904) 731-8870",
    "address": " 4549 Saint Augustine Rd Ste 5  Jacksonville, FL 32207",
    "location": "Duval"
  },
  {
    "name": "Tactive Digital - Jacksonville",
    "description": "Internet Marketing & Advertising",
    "phone": "(904) 536-1868",
    "address": " 9117 Hogan Rd  Jacksonville, FL 32216",
    "location": "Duval"
  },
  {
    "name": "Tokejd.com",
    "description": "Internet Marketing & Advertising",
    "phone": "(631) 533-5328",
    "address": " 1339 Ellis Rd S  Jacksonville, FL 32205",
    "location": "Duval"
  },
  {
    "name": "Combined Forms Inc",
    "description": "Signs",
    "phone": "(904) 387-4225",
    "address": " 4554 Saint Johns Ave  Jacksonville, FL 32210",
    "location": "Duval"
  },
  {
    "name": "Agility Press Inc",
    "description": "Printing Services-Commercial",
    "phone": "(904) 731-8989",
    "address": " 3060 Mercury Rd  Jacksonville, FL 32207",
    "location": "Duval"
  },
  {
    "name": "Great Images",
    "description": "Advertising Specialties",
    "phone": "(904) 636-7526",
    "address": " 4910 Victor St  Jacksonville, FL 32207",
    "location": "Duval"
  },
  {
    "name": "HF Golf & Promo",
    "description": "Advertising Specialties",
    "phone": "(904) 645-9790",
    "address": " 3027 Dawn Rd  Jacksonville, FL 32207",
    "location": "Duval"
  },
  {
    "name": "Postal Express",
    "description": "Mail & Shipping Services",
    "phone": "(904) 738-8691",
    "address": " 11315 Saint Johns Industrial Pkwy N  Jacksonville, FL 32246",
    "location": "Duval"
  },
  {
    "name": "Pro Marketing Inc",
    "description": "Advertising-Promotional Products",
    "phone": "(904) 208-4900",
    "address": " 11762 Marco Beach Dr  Jacksonville, FL 32224",
    "location": "Duval"
  },
  {
    "name": "FJS Marketing",
    "description": "Internet Marketing & Advertising",
    "phone": "(904) 543-0808",
    "address": " 1700 San Pablo Rd S Apt 404  Jacksonville, FL 32224",
    "location": "Duval"
  },
  {
    "name": "The Monster Pack",
    "description": "Direct Mail Advertising",
    "phone": "(904) 807-9098",
    "address": " 11555 Central Pkwy  Jacksonville, FL 32224",
    "location": "Duval"
  },
  {
    "name": "Money Mailer",
    "description": "Direct Mail Advertising",
    "phone": "(904) 642-6123",
    "address": " 11555 Central Pkwy  Jacksonville, FL 32224",
    "location": "Duval"
  },
  {
    "name": "Multiverse Media Group",
    "description": "Internet Marketing & Advertising",
    "phone": "(904) 701-3016",
    "address": " 11655 Central Pkwy Ste 302  Jacksonville, FL 32224",
    "location": "Duval"
  },
  {
    "name": "Norris Neon Inc",
    "description": "Signs",
    "phone": "(904) 384-0801",
    "address": " 1957 Blanding Blvd  Jacksonville, FL 32210",
    "location": "Duval"
  },
  {
    "name": "Signage Inc",
    "description": "Signs",
    "phone": "(904) 388-3727",
    "address": " 1855 Cassat Ave Ste 10  Jacksonville, FL 32210",
    "location": "Duval"
  },
  {
    "name": "Donahoo Plastic Sign Shop",
    "description": "Signs",
    "phone": "(904) 384-3210",
    "address": " 4641 San Juan Ave  Jacksonville, FL 32210",
    "location": "Duval"
  },
  {
    "name": "T C Specialties",
    "description": "Mail & Shipping Services",
    "phone": "(904) 281-2604",
    "address": " 5911 Philips Hwy  Jacksonville, FL 32216",
    "location": "Duval"
  },
  {
    "name": "Sign Pro America",
    "description": "Signs",
    "phone": "(904) 527-8248",
    "address": " 3811 University Blvd W  Jacksonville, FL 32217",
    "location": "Duval"
  },
  {
    "name": "ThriftyHires",
    "description": "Internet Marketing & Advertising",
    "phone": "(904) 469-7935",
    "address": " 12171 Beach Blvd  Jacksonville, FL 32246",
    "location": "Duval"
  },
  {
    "name": "Auto Trim Design By Randy",
    "description": "Automobile Accessories",
    "phone": "(904) 389-8585",
    "address": " 5021 San Juan Ave  Jacksonville, FL 32210",
    "location": "Duval"
  },
  {
    "name": "Custom Designs Signs & Printing, Inc.",
    "description": "Signs",
    "phone": "(904) 733-5646",
    "address": " 6000 Philips Hwy Ste 1  Jacksonville, FL 32216",
    "location": "Duval"
  },
  {
    "name": "Mail Of Jacksonville",
    "description": "Mail & Shipping Services",
    "phone": "(904) 737-9199",
    "address": " 6002 Bowdendale Ave  Jacksonville, FL 32216",
    "location": "Duval"
  },
  {
    "name": "ExtraCashTrain",
    "description": "Internet Marketing & Advertising",
    "phone": "(785) 289-1924",
    "address": " 7322 Normandy Blvd  Jacksonville, FL 32205",
    "location": "Duval"
  },
  {
    "name": "Southern Woods Inc",
    "description": "Signs",
    "phone": "(904) 733-1828",
    "address": " 6141 Chester Ave  Jacksonville, FL 32217",
    "location": "Duval"
  },
  {
    "name": "Lamar Long, Inc.",
    "description": "Signs",
    "phone": "(904) 733-5122",
    "address": " 6141 Chester Ave  Jacksonville, FL 32217",
    "location": "Duval"
  },
  {
    "name": "River City Advertising",
    "description": "Engraving",
    "phone": "(904) 731-3452",
    "address": " 3514 Morton St  Jacksonville, FL 32217",
    "location": "Duval"
  },
  {
    "name": "Top Gun Web Marketing",
    "description": "Directory & Guide Advertising",
    "phone": "(904) 333-5870",
    "address": " 930 Frost St E  Jacksonville, FL 32221",
    "location": "Duval"
  },
  {
    "name": "Signs By Dillon",
    "description": "Signs",
    "phone": "(904) 389-0804",
    "address": " 3420 Lake Shore Blvd  Jacksonville, FL 32210",
    "location": "Duval"
  },
  {
    "name": "NRW Marketing",
    "description": "Internet Marketing & Advertising",
    "phone": "(904) 204-4640",
    "address": " 6260-D2 Dupont Station Ct  Jacksonville, FL 32217",
    "location": "Duval"
  },
  {
    "name": "SEO Factor",
    "description": "Internet Marketing & Advertising",
    "phone": "(904) 993-7796",
    "address": " 5327 Colonial Ave  Jacksonville, FL 32210",
    "location": "Duval"
  },
  {
    "name": "Ego Digital Agency",
    "description": "Internet Marketing & Advertising",
    "phone": "(904) 544-6276",
    "address": " 6271 St. Augustine Road  Jacksonville, FL 32217",
    "location": "Duval"
  },
  {
    "name": "Mortgageflex Systems Inc",
    "description": "Computer Software & Services",
    "phone": "(904) 356-2490",
    "address": " 4600 Touchton Rd E  Jacksonville, FL 32246",
    "location": "Duval"
  },
  {
    "name": "All American Decals Signs and Graphics",
    "description": "Signs",
    "phone": "(904) 329-3831",
    "address": " 7029 - 3 Commonwealth Avenue  Jacksonville, FL 32220",
    "location": "Duval"
  },
  {
    "name": "Simple Signman",
    "description": "Signs",
    "phone": "(904) 641-8822",
    "address": " 6602 Executive Park Ct N Ste 206  Jacksonville, FL 32216",
    "location": "Duval"
  },
  {
    "name": "Alphagraphics",
    "description": "Printing Services",
    "phone": "(904) 739-2611",
    "address": " 6828 Saint Augustine Rd  Jacksonville, FL 32217",
    "location": "Duval"
  },
  {
    "name": "EverLogic",
    "description": "Computer Software Publishers & Developers",
    "phone": "(904) 998-4066",
    "address": " 6620 Southpoint Dr S Ste 505  Jacksonville, FL 32216",
    "location": "Duval"
  },
  {
    "name": "SearchLites",
    "description": "Internet Marketing & Advertising",
    "phone": "(904) 395-2539",
    "address": " 6620 Southpoint Dr S  Jacksonville, FL 32216",
    "location": "Duval"
  },
  {
    "name": "SeoServices4SmallBusiness",
    "description": "Internet Marketing & Advertising",
    "phone": "(855) 684-9999",
    "address": " 4651 Salisbury Rd Ste 4010  Jacksonville, FL 32256",
    "location": "Duval"
  },
  {
    "name": "Revlocal",
    "description": "Internet Marketing & Advertising",
    "phone": "(904) 900-7510",
    "address": " 4651 Salisbury Rd  Jacksonville, FL 32256",
    "location": "Duval"
  },
  {
    "name": "Mint Magazine",
    "description": "Direct Mail Advertising",
    "phone": "(904) 281-8800",
    "address": " 6960 Bonneval Rd Ste 102  Jacksonville, FL 32216",
    "location": "Duval"
  },
  {
    "name": "B & B Advertising Inc",
    "description": "Advertising-Promotional Products",
    "phone": "(904) 381-1214",
    "address": " 4749 Ortega Forest Dr  Jacksonville, FL 32210",
    "location": "Duval"
  },
  {
    "name": "Hatchuri Marketing",
    "description": "Web Site Design & Services",
    "phone": "(904) 420-7904",
    "address": " 8380 Country Creek Blvd  Jacksonville, FL 32221",
    "location": "Duval"
  },
  {
    "name": "HomeASAP",
    "description": "Internet Marketing & Advertising",
    "phone": "(904) 549-7600",
    "address": " 4887 Belfort Rd Ste 400  Jacksonville, FL 32256",
    "location": "Duval"
  },
  {
    "name": "Spectrum Signs and Graphics",
    "description": "Signs",
    "phone": "(904) 281-9999",
    "address": " 6950 Philips Hwy Ste 7  Jacksonville, FL 32216",
    "location": "Duval"
  },
  {
    "name": "Internet Marketing Ventures Inc",
    "description": "Internet Marketing & Advertising",
    "phone": "(904) 385-8126",
    "address": " 3963 Confederate Point Rd Ste 4  Jacksonville, FL 32210",
    "location": "Duval"
  },
  {
    "name": "Teeone Net Inc",
    "description": "Internet Marketing & Advertising",
    "phone": "(904) 425-0183",
    "address": " 4905 Belfort Rd  Jacksonville, FL 32256",
    "location": "Duval"
  },
  {
    "name": "Embellished, an Embroidery Shop",
    "description": "Embroidery",
    "phone": "(904) 266-2260",
    "address": " 4581 Crystal Brook Way  Jacksonville, FL 32224",
    "location": "Duval"
  },
  {
    "name": "Dxm Marketing Group",
    "description": "Internet Marketing & Advertising",
    "phone": "(904) 332-6489",
    "address": " 7900 Belfort Pkwy  Jacksonville, FL 32256",
    "location": "Duval"
  },
  {
    "name": "Brainiac Web Solutions LLC",
    "description": "Internet Marketing & Advertising",
    "phone": "(904) 510-6665",
    "address": " 5513 Roosevelt Blvd # 133  Jacksonville, FL 32244",
    "location": "Duval"
  },
  {
    "name": "Signshop Jax",
    "description": "Signs",
    "phone": "(904) 908-3787",
    "address": " 2611 Old Middleburg Rd N  Jacksonville, FL 32210",
    "location": "Duval"
  },
  {
    "name": "Guardian Signs & Lighting",
    "description": "Advertising Specialties",
    "phone": "(904) 680-0860",
    "address": " 7380 Philips Hwy  Jacksonville, FL 32256",
    "location": "Duval"
  },
  {
    "name": "Signs By Tomorrow - Jacksonville, FL",
    "description": "Signs",
    "phone": "(904) 332-0778",
    "address": " 8110 Cypress Plaza Dr  Jacksonville, FL 32256",
    "location": "Duval"
  },
  {
    "name": "Signs N Motion",
    "description": "Signs",
    "phone": "(904) 646-4440",
    "address": " 8110 Cypress Plaza Dr Ste 305  Jacksonville, FL 32256",
    "location": "Duval"
  },
  {
    "name": "Citywide Advantage",
    "description": "Advertising-Shoppers Publications",
    "phone": "(904) 404-8628",
    "address": " 10752 Deerwood Park Blvd  Jacksonville, FL 32256",
    "location": "Duval"
  },
  {
    "name": "Bluehost.com",
    "description": "Web Site Hosting",
    "phone": "(801) 765-9400",
    "address": " 5335 Gate Pkwy  Jacksonville, FL 32256",
    "location": "Duval"
  },
  {
    "name": "Powels Gators Signs",
    "description": "Advertising Specialties",
    "phone": "(904) 771-1499",
    "address": " 5102 Timuquana Rd  Jacksonville, FL 32210",
    "location": "Duval"
  },
  {
    "name": "904SEO",
    "description": "Internet Marketing & Advertising",
    "phone": "(904) 514-6457",
    "address": " 10151 Deerwood Park Blvd  Jacksonville, FL 32256",
    "location": "Duval"
  },
  {
    "name": "Sir Speedy",
    "description": "Printing Services-Commercial",
    "phone": "(904) 353-5259",
    "address": " 10151 Deerwood Park Blvd Bldg 200  Jacksonville, FL 32256",
    "location": "Duval"
  },
  {
    "name": "A Kool Distribution Company",
    "description": "Distributing Service-Circular, Sample, Etc",
    "phone": "(904) 371-3070",
    "address": " 10151 Deerwood Park Blvd  Jacksonville, FL 32256",
    "location": "Duval"
  },
  {
    "name": "Ids",
    "description": "Advertising Specialties",
    "phone": "(904) 645-8496",
    "address": " 10275 Centurion Ct  Jacksonville, FL 32256",
    "location": "Duval"
  },
  {
    "name": "Fellers Inc",
    "description": "Signs",
    "phone": "(904) 739-1057",
    "address": " 7855 Bayberry Rd  Jacksonville, FL 32256",
    "location": "Duval"
  },
  {
    "name": "Wvvo",
    "description": "Internet Marketing & Advertising",
    "phone": "(904) 862-2250",
    "address": " 8505 Baycenter Rd  Jacksonville, FL 32256",
    "location": "Duval"
  },
  {
    "name": "Promo Depot",
    "description": "Screen Printing",
    "phone": "(904) 470-4196",
    "address": " 8500 Baycenter Rd. Suite 2  Jacksonville, FL 32256",
    "location": "Duval"
  },
  {
    "name": "Signsand More",
    "description": "Advertising Specialties",
    "phone": "(904) 518-5909",
    "address": " 6300 Yukon Rd  Jacksonville, FL 32244",
    "location": "Duval"
  },
  {
    "name": "Signworks Instant Signs & Banners",
    "description": "Signs",
    "phone": "(904) 730-3401",
    "address": " 8036 Philips Hwy Ste 3  Jacksonville, FL 32256",
    "location": "Duval"
  },
  {
    "name": "Brackett & Associates Inc",
    "description": "Internet Marketing & Advertising",
    "phone": "(904) 493-0701",
    "address": " 13400 Sutton Park Dr S Ste 1503  Jacksonville, FL 32224",
    "location": "Duval"
  },
  {
    "name": "NightWish Media LLC",
    "description": "Internet Marketing & Advertising",
    "phone": "(904) 605-5011",
    "address": " 7900 Baymeadows Circle East  Jacksonville, FL 32256",
    "location": "Duval"
  },
  {
    "name": "Discovery Custom Signs And Graphics",
    "description": "Signs",
    "phone": "(904) 551-4300",
    "address": " 8081 Philips Hwy  Jacksonville, FL 32256",
    "location": "Duval"
  },
  {
    "name": "Tway, B G",
    "description": "Advertising Specialties",
    "phone": "(904) 641-1766",
    "address": " 7845 Hollyridge Rd  Jacksonville, FL 32256",
    "location": "Duval"
  },
  {
    "name": "Speedpro Imaging Jacksonville West",
    "description": "Digital Printing & Imaging",
    "phone": "(904) 673-9735",
    "address": " 7060 103rd St Ste 127  Jacksonville, FL 32210",
    "location": "Duval"
  },
  {
    "name": "Print Express",
    "description": "Copying & Duplicating Service",
    "phone": "(904) 737-6641",
    "address": " 8380 Baymeadows Rd Ste 1  Jacksonville, FL 32256",
    "location": "Duval"
  },
  {
    "name": "American Database Marketing Inc",
    "description": "Direct Mail Advertising",
    "phone": "(904) 828-0060",
    "address": " 8857 Shining Oak Ct  Jacksonville, FL 32217",
    "location": "Duval"
  },
  {
    "name": "North Florida Sign Co",
    "description": "Signs-Maintenance & Repair",
    "phone": "(904) 619-1557",
    "address": " 6202 Wesconnett Blvd  Jacksonville, FL 32244",
    "location": "Duval"
  },
  {
    "name": "First Coast Signs",
    "description": "Advertising Specialties",
    "phone": "(904) 398-3993",
    "address": " 6900 Phillips Hwy Suite 17  Jacksonville, FL 32216",
    "location": "Duval"
  },
  {
    "name": "Qinaos Advertising",
    "description": "Advertising Specialties",
    "phone": "(904) 337-1248",
    "address": " 9645 Baymeadows Rd  Jacksonville, FL 32256",
    "location": "Duval"
  },
  {
    "name": "OnSight Industries",
    "description": "Printing Services-Commercial",
    "phone": "(904) 551-0504",
    "address": " 4640 Sub Chaser Ct Unit 108  Jacksonville, FL 32244",
    "location": "Duval"
  },
  {
    "name": "Onsite",
    "description": "Signs",
    "phone": "(904) 379-3543",
    "address": " 4640 Sub Chaser Ct Unit 108  Jacksonville, FL 32244",
    "location": "Duval"
  },
  {
    "name": "River City Web Solutions",
    "description": "Internet Marketing & Advertising",
    "phone": "(904) 413-1186",
    "address": " 1523 Chaffee Rd S Unit 1523  Jacksonville, FL 32221",
    "location": "Duval"
  },
  {
    "name": "Crosseyed Graphics Design",
    "description": "Graphic Designers",
    "phone": "(904) 586-0799",
    "address": " Parrish Cemetery RD  Jacksonville, FL 32221",
    "location": "Duval"
  },
  {
    "name": "Pageoneplease",
    "description": "Internet Marketing & Advertising",
    "phone": "(904) 701-3096",
    "address": " 9536 Princeton Square Blvd S  Jacksonville, FL 32256",
    "location": "Duval"
  },
  {
    "name": "Digital Industries",
    "description": "Signs",
    "phone": "(904) 819-9100",
    "address": " 8475 Western Way Ste 100  Jacksonville, FL 32256",
    "location": "Duval"
  },
  {
    "name": "Florida Custom Sign and Graphics",
    "description": "Signs",
    "phone": "(904) 731-8834",
    "address": " 8640 Philips Hwy  Jacksonville, FL 32256",
    "location": "Duval"
  },
  {
    "name": "Expert Ts of Jacksonville",
    "description": "Clothing Stores",
    "phone": "(904) 387-2500",
    "address": " 711 Cassat Ave  Jacksonville, FL 32205",
    "location": "Duval"
  },
  {
    "name": "Vec Graphics",
    "description": "Graphic Designers",
    "phone": "(904) 372-0430",
    "address": " 2294 Mayport Rd Ste 5  Jacksonville, FL 32233",
    "location": "Duval"
  },
  {
    "name": "Horton Graphics Inc",
    "description": "Graphic Designers",
    "phone": "(904) 879-4547",
    "address": " 542028 Us Highway 1  Callahan, FL 32011",
    "location": "Duval"
  },
  {
    "name": "Design It Wraps & Graphics",
    "description": "Graphic Designers",
    "phone": "(904) 310-6032",
    "address": " 2873 Jamestown Rd  Fernandina Beach, FL 32034",
    "location": "Duval"
  },
  {
    "name": "Advantage Signs",
    "description": "Signs",
    "phone": "(904) 247-1228",
    "address": " 31 Lewis St  Atlantic Beach, FL 32233",
    "location": "Duval"
  },
  {
    "name": "Localized Co Inc",
    "description": "Screen Printing",
    "phone": "(904) 207-3485",
    "address": " 101 Levy Rd  Atlantic Beach, FL 32233",
    "location": "Duval"
  },
  {
    "name": "SNAP-MFS.IN",
    "description": "Internet Marketing & Advertising",
    "phone": "(904) 236-2210",
    "address": " 97 Levy Rd  Atlantic Beach, FL 32233",
    "location": "Duval"
  },
  {
    "name": "Arsenal Racing",
    "description": "Signs",
    "phone": "(904) 241-1170",
    "address": " 2207 Florida Blvd  Neptune Beach, FL 32266",
    "location": "Duval"
  },
  {
    "name": "On Ten Design",
    "description": "Internet Consultants",
    "phone": "(904) 999-6968",
    "address": " 1015 Atlantic Blvd # 109  Atlantic Beach, FL 32233",
    "location": "Duval"
  },
  {
    "name": "Lists",
    "description": "Mailing Lists",
    "phone": "(904) 733-6106",
    "address": " 2950 Halcyon Ln  Jacksonville, FL 32223",
    "location": "Duval"
  },
  {
    "name": "Crown Trophy",
    "description": "Trophies, Plaques & Medals",
    "phone": "(904) 260-4871",
    "address": " 11792 San Jose Blvd  Jacksonville, FL 32223",
    "location": "Duval"
  },
  {
    "name": "Early Bird Solutions, LLC",
    "description": "Internet Marketing & Advertising",
    "phone": "(904) 527-3224",
    "address": " 13820 Old Saint Augustine Rd  Jacksonville, FL 32258",
    "location": "Duval"
  },
  {
    "name": "Adventures In Advertising",
    "description": "Advertising Specialties",
    "phone": "(904) 737-7344",
    "address": " 9310 Old Kings Rd S Ste 302  Jacksonville, FL 32257",
    "location": "Duval"
  },
  {
    "name": "M M Signs & Graphics",
    "description": "Signs",
    "phone": "(904) 779-1125",
    "address": " 8552 103rd St  Jacksonville, FL 32210",
    "location": "Duval"
  },
  {
    "name": "Crissien Online",
    "description": "Internet Marketing & Advertising",
    "phone": "(904) 214-1100",
    "address": " 3956 Sunbeam Rd Ste 1  Jacksonville, FL 32257",
    "location": "Duval"
  },
  {
    "name": "Ledpetsaccessories.com",
    "description": "Internet Marketing & Advertising",
    "phone": "(904) 982-6062",
    "address": " 5623 Ortega Park Blvd  Jacksonville, FL 32244",
    "location": "Duval"
  },
  {
    "name": "Identity Design",
    "description": "Signs",
    "phone": "(904) 730-4668",
    "address": " 4949 Sunbeam Rd Ste 1  Jacksonville, FL 32257",
    "location": "Duval"
  },
  {
    "name": "Image Media & Marketing Inc",
    "description": "Internet Marketing & Advertising",
    "phone": "(904) 367-0803",
    "address": " 3390 Kori Rd  Jacksonville, FL 32257",
    "location": "Duval"
  },
  {
    "name": "Metro Promotions & Printing",
    "description": "Specialty Bags",
    "phone": "(862) 216-0064",
    "address": " 8539 Little Swift Cir  Jacksonville, FL 32256",
    "location": "Duval"
  },
  {
    "name": "Jacksonville Signs & Graphics",
    "description": "Signs",
    "phone": "(904) 746-4676",
    "address": " 9556 Historic Kings Rd S Ste 304  Jacksonville, FL 32257",
    "location": "Duval"
  },
  {
    "name": "Wealthinary Marketing",
    "description": "Internet Marketing & Advertising",
    "phone": "(904) 990-3331",
    "address": " 3390 Kori Rd Ste 4b  Jacksonville, FL 32257",
    "location": "Duval"
  },
  {
    "name": "Grimco Inc",
    "description": "Signs",
    "phone": "(800) 542-9941",
    "address": " 8930 Western Way  Jacksonville, FL 32256",
    "location": "Duval"
  },
  {
    "name": "Local Insite Media & Publications",
    "description": "Advertising-Shoppers Publications",
    "phone": "(904) 900-7718",
    "address": " Po Box 32471  Jacksonville, FL 32237",
    "location": "Duval"
  },
  {
    "name": "C N P Solutions Inc",
    "description": "Mail & Shipping Services",
    "phone": "(904) 363-0009",
    "address": " 8948 Western Way Ste 10  Jacksonville, FL 32256",
    "location": "Duval"
  },
  {
    "name": "Simple Signman Inc",
    "description": "Signs",
    "phone": "(904) 641-9444",
    "address": " 8948 Western Way Ste 20  Jacksonville, FL 32256",
    "location": "Duval"
  },
  {
    "name": "Signarama Jacksonville (San Jose Blvd.), FL",
    "description": "Signs",
    "phone": "(904) 292-1104",
    "address": " 9825 San Jose Blvd Ste 26  Jacksonville, FL 32257",
    "location": "Duval"
  },
  {
    "name": "AlphaGraphics",
    "description": "Printing Services",
    "phone": "(904) 551-6625",
    "address": " 9143 Philips Hwy Ste 170  Jacksonville, FL 32256",
    "location": "Duval"
  },
  {
    "name": "SFI",
    "description": "Internet Consultants",
    "phone": "(912) 464-9679",
    "address": " 8787 Southside Blvd  Jacksonville, FL 32256",
    "location": "Duval"
  },
  {
    "name": "Design Right 4 U",
    "description": "Web Site Design & Services",
    "phone": "(904) 314-4057",
    "address": " 3712 Buffalo Landing Ct  Jacksonville, FL 32257",
    "location": "Duval"
  },
  {
    "name": "Harbinger Sign",
    "description": "Signs-Erectors & Hangers",
    "phone": "(904) 268-4681",
    "address": " 5300 Shad Rd  Jacksonville, FL 32257",
    "location": "Duval"
  },
  {
    "name": "Harbinger Innovation Group",
    "description": "Signs",
    "phone": "(904) 268-4681",
    "address": " 5300 Shad Rd  Jacksonville, FL 32257",
    "location": "Duval"
  },
  {
    "name": "Kwik Kopy",
    "description": "Copying & Duplicating Service",
    "phone": "(904) 880-0309",
    "address": " 9446 Philips Hwy  Jacksonville, FL 32256",
    "location": "Duval"
  },
  {
    "name": "Signarama",
    "description": "Signs",
    "phone": "(904) 292-1104",
    "address": " 10601 San Jose Blvd  Jacksonville, FL 32257",
    "location": "Duval"
  },
  {
    "name": "Maxclix",
    "description": "Internet Marketing & Advertising",
    "phone": "(844) 629-2549",
    "address": " 4656 Collins Rd  Jacksonville, FL 32244",
    "location": "Duval"
  },
  {
    "name": "LLF Incorporated",
    "description": "Advertising Specialties",
    "phone": "(904) 854-1415",
    "address": " 5570 Florida Mining Blvd S  Jacksonville, FL 32257",
    "location": "Duval"
  },
  {
    "name": "Chromatix Creative",
    "description": "Graphic Designers",
    "phone": "(904) 683-7938",
    "address": " 5771 Mining Ter Ste 201  Jacksonville, FL 32257",
    "location": "Duval"
  },
  {
    "name": "Herff Jones",
    "description": "Product Design, Development & Marketing",
    "phone": "(904) 363-1905",
    "address": " 10175 Fortune Pkwy Unit 506  Jacksonville, FL 32256",
    "location": "Duval"
  },
  {
    "name": "Signs N Stuff",
    "description": "Signs",
    "phone": "(904) 619-6152",
    "address": " 8250 Weybridge Dr  Jacksonville, FL 32244",
    "location": "Duval"
  },
  {
    "name": "Daily Net Pay",
    "description": "Internet Marketing & Advertising",
    "phone": "(904) 887-8478",
    "address": " 3355 Claire Ln  Jacksonville, FL 32223",
    "location": "Duval"
  },
  {
    "name": "Miller Creative Group",
    "description": "Printers-Screen Printing",
    "phone": "(904) 771-5855",
    "address": " 8725 Youngerman Ct Ste 101  Jacksonville, FL 32244",
    "location": "Duval"
  },
  {
    "name": "Marketing Edge LLC",
    "description": "Internet Marketing & Advertising",
    "phone": "(904) 363-9895",
    "address": " 11223 Chester Lake Rd W  Jacksonville, FL 32256",
    "location": "Duval"
  },
  {
    "name": "Fragcatering.com",
    "description": "Internet Marketing & Advertising",
    "phone": "(904) 888-2982",
    "address": " 11459 Earline Cir W  Jacksonville, FL 32258",
    "location": "Duval"
  },
  {
    "name": "Sundancer Sign Graphics",
    "description": "Signs",
    "phone": "(904) 619-0785",
    "address": " 11259 Business Park Blvd  Jacksonville, FL 32256",
    "location": "Duval"
  },
  {
    "name": "Creative Environs",
    "description": "Signs",
    "phone": "(904) 616-6516",
    "address": " 11328 Business Park Blvd  Jacksonville, FL 32256",
    "location": "Duval"
  },
  {
    "name": "Shimp Sign & Design Inc",
    "description": "Signs",
    "phone": "(904) 268-3335",
    "address": " 11501 Columbia Park Dr W  Jacksonville, FL 32258",
    "location": "Duval"
  },
  {
    "name": "River City Sign Company",
    "description": "Signs",
    "phone": "(904) 309-6410",
    "address": " 12025 San Jose Blvd Ste 3  Jacksonville, FL 32223",
    "location": "Duval"
  },
  {
    "name": "Evolution Signs and Print",
    "description": "Signs",
    "phone": "(904) 634-5666",
    "address": " 11672 Philips Hwy  Jacksonville, FL 32256",
    "location": "Duval"
  },
  {
    "name": "RNR Inc.",
    "description": "Internet Marketing & Advertising",
    "phone": "(904) 541-6675",
    "address": " 11995 Marldon Ln  Jacksonville, FL 32258",
    "location": "Duval"
  },
  {
    "name": "1stOpresidentialcleaning.com",
    "description": "Internet Marketing & Advertising",
    "phone": "(904) 738-7260",
    "address": " 9526 Argyle Forest Blvd  Jacksonville, FL 32222",
    "location": "Duval"
  },
  {
    "name": "DarttSpark Marketing",
    "description": "Internet Marketing & Advertising",
    "phone": "(904) 567-7977",
    "address": " 12330 Valpariso Trl  Jacksonville, FL 32223",
    "location": "Duval"
  },
  {
    "name": "Vizzitopia",
    "description": "Internet Marketing & Advertising",
    "phone": "(907) 217-3749",
    "address": " 12421 San Jose Blvd Ste 200g  Jacksonville, FL 32223",
    "location": "Duval"
  },
  {
    "name": "HFI Web Design",
    "description": "Internet Marketing & Advertising",
    "phone": "(904) 699-3429",
    "address": " 4514 Julington Creek Rd  Jacksonville, FL 32258",
    "location": "Duval"
  },
  {
    "name": "Florida Safety Contractors Inc",
    "description": "Signs",
    "phone": "(904) 748-0144",
    "address": " 14770 Normandy Blvd  Jacksonville, FL 32234",
    "location": "Duval"
  },
  {
    "name": "Paypercallus",
    "description": "Advertising Specialties",
    "phone": "(630) 936-7112",
    "address": " 185 Celtic Wedding Dr  Jacksonville, FL 32259",
    "location": "Duval"
  },
  {
    "name": "enCode",
    "description": "Incentive Programs",
    "phone": "(904) 501-3042",
    "address": " Po Box 600534  Jacksonville, FL 32260",
    "location": "Duval"
  },
  {
    "name": "First Coast Graphics Inc",
    "description": "Embroidery",
    "phone": "(904) 940-9803",
    "address": " 6655 County Road 218  Jacksonville, FL 32234",
    "location": "Duval"
  }
]
