[
  {
    "name": "Chisholm Advertising",
    "description": "Advertising Agencies",
    "phone": "(305) 648-4712",
    "address": " 1205 SW 37th Ave  Miami, FL 33135",
    "location": "Flagler"
  },
  {
    "name": "Futura Advertising",
    "description": "Advertising Agencies",
    "phone": "(305) 443-0336",
    "address": " 120 Cibao Ct  Coral Gables, FL 33134",
    "location": "Flagler"
  },
  {
    "name": "South Eastern Health Mgmt",
    "description": "Advertising Agencies",
    "phone": "(305) 476-8186",
    "address": " 112 Avila Ct  Coral Gables, FL 33134",
    "location": "Flagler"
  },
  {
    "name": "Imagen Creative Group",
    "description": "Advertising Agencies",
    "phone": "(305) 774-9443",
    "address": " 800 S Douglas Rd  Coral Gables, FL 33134",
    "location": "Flagler"
  },
  {
    "name": "Ogilvy & Mather Advertising",
    "description": "Advertising Agencies",
    "phone": "(305) 448-6002",
    "address": " 800 S Douglas Rd  Coral Gables, FL 33134",
    "location": "Flagler"
  },
  {
    "name": "Accentmarketing Communications",
    "description": "Advertising Agencies",
    "phone": "(305) 461-1112",
    "address": " 800 S Douglas Rd Ste 100  Coral Gables, FL 33134",
    "location": "Flagler"
  },
  {
    "name": "Cooper Ddb",
    "description": "Advertising Agencies",
    "phone": "(305) 529-4300",
    "address": " 806 S Douglas Rd Fl 11  Coral Gables, FL 33134",
    "location": "Flagler"
  },
  {
    "name": "Noiseworks Media",
    "description": "Advertising Agencies",
    "phone": "(305) 418-0118",
    "address": " 814 Ponce De Leon Blvd  Coral Gables, FL 33134",
    "location": "Flagler"
  },
  {
    "name": "Arcoart Plus",
    "description": "Advertising Agencies",
    "phone": "(305) 447-2262",
    "address": " 3971 SW 8th St  Coral Gables, FL 33134",
    "location": "Flagler"
  },
  {
    "name": "Machado Garcia-Serra",
    "description": "Advertising Agencies",
    "phone": "(305) 444-4647",
    "address": " 1500 S Douglas Rd  Coral Gables, FL 33134",
    "location": "Flagler"
  },
  {
    "name": "Lemon Yellow",
    "description": "Advertising Agencies",
    "phone": "(305) 704-7096",
    "address": " 106 Madeira Ave  Coral Gables, FL 33134",
    "location": "Flagler"
  },
  {
    "name": "Arx Solution Inc",
    "description": "Advertising Agencies",
    "phone": "(305) 443-7733",
    "address": " 1805 Ponce De Leon Blvd  Coral Gables, FL 33134",
    "location": "Flagler"
  },
  {
    "name": "Shooger",
    "description": "Advertising Agencies",
    "phone": "(305) 704-7940",
    "address": " 1825 Ponce De Leon Blvd  Coral Gables, FL 33134",
    "location": "Flagler"
  },
  {
    "name": "La Huella Management Solutions",
    "description": "Advertising Agencies",
    "phone": "(786) 488-1092",
    "address": " 300 Madeira Ave  Coral Gables, FL 33134",
    "location": "Flagler"
  },
  {
    "name": "SKG Creative",
    "description": "Advertising Agencies",
    "phone": "(305) 758-9557",
    "address": " 2000 Ponce De Leon Blvd  Coral Gables, FL 33134",
    "location": "Flagler"
  },
  {
    "name": "Media Global Group",
    "description": "Advertising Agencies",
    "phone": "(786) 431-4555",
    "address": " 2000 Ponce De Leon Blvd  Coral Gables, FL 33134",
    "location": "Flagler"
  },
  {
    "name": "Grupo Uno International",
    "description": "Advertising Agencies",
    "phone": "(305) 448-6111",
    "address": " 2000 Ponce De Leon Blvd  Coral Gables, FL 33134",
    "location": "Flagler"
  },
  {
    "name": "2EZ2 Group Inc",
    "description": "Advertising Agencies",
    "phone": "(786) 261-0161",
    "address": " 2020 Ponce De Leon Blvd  Coral Gables, FL 33134",
    "location": "Flagler"
  },
  {
    "name": "gFour Marketing Group",
    "description": "Advertising Agencies",
    "phone": "(305) 856-8788",
    "address": " 2100 Ponce De Leon Blvd  Coral Gables, FL 33134",
    "location": "Flagler"
  },
  {
    "name": "Markham Yard",
    "description": "Advertising Agencies",
    "phone": "(305) 445-6642",
    "address": " 2121 Ponce De Leon Blvd  Coral Gables, FL 33134",
    "location": "Flagler"
  },
  {
    "name": "Siboney USA",
    "description": "Advertising Agencies",
    "phone": "(305) 373-2525",
    "address": " 1 Alhambra Plz  Coral Gables, FL 33134",
    "location": "Flagler"
  },
  {
    "name": "Eventus Online",
    "description": "Advertising Agencies",
    "phone": "(305) 774-7061",
    "address": " 147 Alhambra Cir  Coral Gables, FL 33134",
    "location": "Flagler"
  },
  {
    "name": "Reiser & Reiser",
    "description": "Advertising Agencies",
    "phone": "(305) 448-7797",
    "address": " 343 Alcazar Ave  Coral Gables, FL 33134",
    "location": "Flagler"
  },
  {
    "name": "America Economia",
    "description": "Advertising Agencies",
    "phone": "(305) 648-9071",
    "address": " 255 Alhambra Cir  Coral Gables, FL 33134",
    "location": "Flagler"
  },
  {
    "name": "Jls Creative Solutions",
    "description": "Advertising Agencies",
    "phone": "(786) 472-5933",
    "address": " 255 Alhambra Cir Ste 415  Coral Gables, FL 33134",
    "location": "Flagler"
  },
  {
    "name": "Vs Brooks Inc",
    "description": "Advertising Agencies",
    "phone": "(305) 443-3500",
    "address": " 255 Alhambra Cir Ste 850  Coral Gables, FL 33134",
    "location": "Flagler"
  },
  {
    "name": "Radancy",
    "description": "Advertising Agencies",
    "phone": "(305) 704-4788",
    "address": " 255 Alhambra Cir  Coral Gables, FL 33134",
    "location": "Flagler"
  },
  {
    "name": "GlueIQ",
    "description": "Advertising Agencies",
    "phone": "(305) 239-9440",
    "address": " 95 Merrick Way Ste 700  Coral Gables, FL 33134",
    "location": "Flagler"
  },
  {
    "name": "Inpulse Digital",
    "description": "Advertising Agencies",
    "phone": "(888) 880-8620",
    "address": " 95 Merrick Way  Coral Gables, FL 33134",
    "location": "Flagler"
  },
  {
    "name": "Grupouno International",
    "description": "Advertising Agencies",
    "phone": "(305) 448-6111",
    "address": " 2199 Ponce De Leon Blvd  Coral Gables, FL 33134",
    "location": "Flagler"
  },
  {
    "name": "Stealth Media Marketing",
    "description": "Advertising Agencies",
    "phone": "(786) 575-0220",
    "address": " 2222 Ponce De Leon Blvd 3rd Fl  Coral Gables, FL 33134",
    "location": "Flagler"
  },
  {
    "name": "Zubi Advertising",
    "description": "Advertising Agencies",
    "phone": "(305) 428-6175",
    "address": " 355 Alhambra Cir  Coral Gables, FL 33134",
    "location": "Flagler"
  },
  {
    "name": "Adn Communications",
    "description": "Advertising Agencies",
    "phone": "(305) 456-9163",
    "address": " 355 Alhambra Cir Ste 1500  Coral Gables, FL 33134",
    "location": "Flagler"
  },
  {
    "name": "internal media.design",
    "description": "Advertising Agencies",
    "phone": "(305) 482-3090",
    "address": " 1563 Columbus Blvd  Coral Gables, FL 33134",
    "location": "Flagler"
  },
  {
    "name": "Elite Productions",
    "description": "Advertising Agencies",
    "phone": "(305) 439-8254",
    "address": " 5455 SW 8th St  Coral Gables, FL 33134",
    "location": "Flagler"
  },
  {
    "name": "Toledo Creative Group",
    "description": "Advertising Agencies",
    "phone": "(305) 631-6954",
    "address": " 215 Sw 17th Ave, Suite 216-B  Miami, FL 33135",
    "location": "Flagler"
  },
  {
    "name": "Elf",
    "description": "Advertising Agencies",
    "phone": "(802) 735-1298",
    "address": " 20 Miracle Mile  Miami, FL 33234",
    "location": "Flagler"
  },
  {
    "name": "Pow Inc",
    "description": "Advertising Agencies",
    "phone": "(305) 438-0063",
    "address": " 1221 SW 27th Ave  Miami, FL 33135",
    "location": "Flagler"
  },
  {
    "name": "Miami Business Advertising",
    "description": "Advertising Agencies",
    "phone": "(305) 807-2413",
    "address": " 2529 SW 8th St  Miami, FL 33135",
    "location": "Flagler"
  },
  {
    "name": "Urban Connection Group LLC",
    "description": "Advertising Agencies",
    "phone": "(646) 893-5233",
    "address": " 2655 S Le Jeune Rd  Miami, FL 33134",
    "location": "Flagler"
  },
  {
    "name": "Yachting Advertising",
    "description": "Advertising Agencies",
    "phone": "(786) 514-7472",
    "address": " 3517 SW 26th St  Miami, FL 33133",
    "location": "Flagler"
  },
  {
    "name": "Charney Palacios & Co Ltd",
    "description": "Advertising Agencies",
    "phone": "(786) 388-6340",
    "address": " 5201 Waterford District Dr  Miami, FL 33126",
    "location": "Flagler"
  },
  {
    "name": "The Creative Image",
    "description": "Advertising Agencies",
    "phone": "(305) 204-2593",
    "address": " 5201 Waterford District Dr Ste 900  Miami, FL 33126",
    "location": "Flagler"
  },
  {
    "name": "Intercom Media",
    "description": "Advertising Agencies",
    "phone": "(212) 302-9199",
    "address": " 5201 Blue Lagoon Dr  Miami, FL 33126",
    "location": "Flagler"
  },
  {
    "name": "Pruitt, Tracy",
    "description": "Advertising Agencies",
    "phone": "(786) 953-6998",
    "address": " 2819 SW 25th Ter  Miami, FL 33133",
    "location": "Flagler"
  },
  {
    "name": "The Adsmith",
    "description": "Advertising Agencies",
    "phone": "(305) 491-5950",
    "address": " 814 NW 20th Ave  Miami, FL 33125",
    "location": "Flagler"
  },
  {
    "name": "Z Advertising Group",
    "description": "Advertising Agencies",
    "phone": "(786) 871-7286",
    "address": " 1750 SW 7th St  Miami, FL 33135",
    "location": "Flagler"
  },
  {
    "name": "Richard Maranon & Associates",
    "description": "Advertising Agencies",
    "phone": "(305) 854-2002",
    "address": " 2103 Coral Way  Miami, FL 33145",
    "location": "Flagler"
  },
  {
    "name": "The Hitter Inc",
    "description": "Advertising Agencies",
    "phone": "(305) 456-6043",
    "address": " 1830 NW 7th St Ste 218  Miami, FL 33125",
    "location": "Flagler"
  },
  {
    "name": "MSS Media",
    "description": "Advertising Agencies",
    "phone": "(305) 358-8868",
    "address": " 2100 Coral Way  Miami, FL 33145",
    "location": "Flagler"
  },
  {
    "name": "Parking Garage Advertising",
    "description": "Advertising Agencies",
    "phone": "(954) 558-4975",
    "address": " 1637 SW 8th St  Miami, FL 33135",
    "location": "Flagler"
  },
  {
    "name": "Tom Kukic Advertising-Art Inc",
    "description": "Advertising Agencies",
    "phone": "(305) 665-9050",
    "address": " 4041 NW 26th St  Miami, FL 33142",
    "location": "Flagler"
  },
  {
    "name": "Square One Branding",
    "description": "Advertising Agencies",
    "phone": "(786) 552-6343",
    "address": " 8201 Coral Way  Miami, FL 33155",
    "location": "Flagler"
  },
  {
    "name": "Group",
    "description": "Advertising Agencies",
    "phone": "(305) 477-6364",
    "address": " 2341 SW 10th St  Miami, FL 33135",
    "location": "Flagler"
  },
  {
    "name": "Adstream America",
    "description": "Advertising Agencies",
    "phone": "(786) 472-2615",
    "address": " 255 Giralda Ave  Coral Gables, FL 33134",
    "location": "Flagler"
  },
  {
    "name": "Biegen Schunack Inc",
    "description": "Advertising Agencies",
    "phone": "(305) 569-9154",
    "address": " 396 Alhambra Cir  Coral Gables, FL 33134",
    "location": "Flagler"
  },
  {
    "name": "Blanquier, Real Marketing",
    "description": "Advertising Agencies",
    "phone": "(305) 728-7178",
    "address": " 2332 Galiano St  Coral Gables, FL 33134",
    "location": "Flagler"
  },
  {
    "name": "Vanguard Comm",
    "description": "Advertising Agencies",
    "phone": "(305) 728-7146",
    "address": " 2332 Galiano St  Coral Gables, FL 33134",
    "location": "Flagler"
  },
  {
    "name": "Cps Advertising",
    "description": "Advertising Agencies",
    "phone": "(786) 362-5140",
    "address": " 280 Aragon Ave  Coral Gables, FL 33134",
    "location": "Flagler"
  },
  {
    "name": "Response Publishing",
    "description": "Advertising Agencies",
    "phone": "(305) 444-8278",
    "address": " 2519 Galiano St  Coral Gables, FL 33134",
    "location": "Flagler"
  },
  {
    "name": "Blue Daisy Media",
    "description": "Advertising Agencies",
    "phone": "(305) 442-4229",
    "address": " 2906 S Douglas Rd Ste 201  Coral Gables, FL 33134",
    "location": "Flagler"
  },
  {
    "name": "Platino International Group",
    "description": "Advertising Agencies",
    "phone": "(305) 392-3181",
    "address": " 333 Palermo Ave  Coral Gables, FL 33134",
    "location": "Flagler"
  },
  {
    "name": "Extra Advertising Inc",
    "description": "Advertising Agencies",
    "phone": "(305) 387-0074",
    "address": " 5455 SW 8th St  Coral Gables, FL 33134",
    "location": "Flagler"
  },
  {
    "name": "L Martinez Associates",
    "description": "Advertising Agencies",
    "phone": "(305) 476-9700",
    "address": " 327 Santander Ave  Coral Gables, FL 33134",
    "location": "Flagler"
  },
  {
    "name": "Ronin Advertising Group",
    "description": "Advertising Agencies",
    "phone": "(305) 444-6868",
    "address": " 400 University Dr  Coral Gables, FL 33134",
    "location": "Flagler"
  },
  {
    "name": "KSR Inc",
    "description": "Advertising Agencies",
    "phone": "(786) 999-1133",
    "address": " 3399 Ponce De Leon Blvd  Coral Gables, FL 33134",
    "location": "Flagler"
  },
  {
    "name": "Adstech",
    "description": "Advertising Agencies",
    "phone": "(305) 677-0592",
    "address": " 2050 Coral Way  Coral Gables, FL 33145",
    "location": "Flagler"
  },
  {
    "name": "Di Tu Services",
    "description": "Advertising Agencies",
    "phone": "(786) 452-1154",
    "address": " 1701 W Flagler St  Miami, FL 33135",
    "location": "Flagler"
  },
  {
    "name": "Marca",
    "description": "Advertising Agencies",
    "phone": "(305) 423-8300",
    "address": " 3390 Mary St  Miami, FL 33133",
    "location": "Flagler"
  },
  {
    "name": "Martin Schleifer Advertising",
    "description": "Advertising Agencies",
    "phone": "(305) 442-7272",
    "address": " 2915 SW 27th Ave  Miami, FL 33133",
    "location": "Flagler"
  },
  {
    "name": "Alonso & Company",
    "description": "Advertising Agencies",
    "phone": "(305) 854-5699",
    "address": " 1235 Coral Way Ste 101  Miami, FL 33145",
    "location": "Flagler"
  },
  {
    "name": "Crispin Porter & Bogusky Design",
    "description": "Advertising Agencies",
    "phone": "(305) 859-2070",
    "address": " 2699 S Bayshore Dr  Miami, FL 33133",
    "location": "Flagler"
  },
  {
    "name": "Tinsley Advertising",
    "description": "Advertising Agencies",
    "phone": "(305) 856-6060",
    "address": " 2000 S Dixie Hwy Ste 201  Miami, FL 33133",
    "location": "Flagler"
  },
  {
    "name": "Foreclosure Defense Team",
    "description": "Advertising Agencies",
    "phone": "(786) 953-7118",
    "address": " 2100 SW 24th St  Miami, FL 33145",
    "location": "Flagler"
  },
  {
    "name": "Out of the Blue Advertising",
    "description": "Advertising Agencies",
    "phone": "(305) 442-2431",
    "address": " 2424 S Dixie Hwy Ste 100  Miami, FL 33133",
    "location": "Flagler"
  },
  {
    "name": "Jay Lawrence Advertising Co",
    "description": "Advertising Agencies",
    "phone": "(305) 860-1200",
    "address": " 1840 Coral Way  Miami, FL 33145",
    "location": "Flagler"
  },
  {
    "name": "Amgw Agency",
    "description": "Advertising Agencies",
    "phone": "(305) 856-8650",
    "address": " 3150 SW 38th Ave  Miami, FL 33146",
    "location": "Flagler"
  },
  {
    "name": "McCann Worldgroup",
    "description": "Advertising Agencies",
    "phone": "(305) 269-3600",
    "address": " 5820 Waterford District Dr  Miami, FL 33126",
    "location": "Flagler"
  },
  {
    "name": "Criterion Global",
    "description": "Advertising Agencies",
    "phone": "(646) 330-4673",
    "address": " 2937 SW 27th Ave  Miami, FL 33133",
    "location": "Flagler"
  },
  {
    "name": "Worldwide Productions Inc",
    "description": "Advertising Agencies",
    "phone": "(305) 858-5060",
    "address": " 2140 S Dixie Hwy  Miami, FL 33133",
    "location": "Flagler"
  },
  {
    "name": "Kaptivo",
    "description": "Advertising Agencies",
    "phone": "(786) 452-7100",
    "address": " 3122 Ohio St  Miami, FL 33133",
    "location": "Flagler"
  },
  {
    "name": "Segre collaborative",
    "description": "Advertising Agencies",
    "phone": "(305) 442-1504",
    "address": " 2950 SW 27th Ave  Miami, FL 33133",
    "location": "Flagler"
  },
  {
    "name": "C & P Video Advertising System",
    "description": "Advertising Agencies",
    "phone": "(305) 649-4030",
    "address": " 1393 SW 1st St  Miami, FL 33135",
    "location": "Flagler"
  },
  {
    "name": "Think Track Inc",
    "description": "Advertising Agencies",
    "phone": "(305) 860-0303",
    "address": " 2000 S Dixie Hwy  Miami, FL 33133",
    "location": "Flagler"
  },
  {
    "name": "Adyouwish",
    "description": "Advertising Agencies",
    "phone": "(786) 777-9311",
    "address": " 2300 Jackson St  Miami, FL 33137",
    "location": "Flagler"
  },
  {
    "name": "Premier Group",
    "description": "Advertising Agencies",
    "phone": "(305) 567-3188",
    "address": " 703 NW 62nd Ave Ste 500  Miami, FL 33126",
    "location": "Flagler"
  },
  {
    "name": "Triumph Advertising",
    "description": "Advertising Agencies",
    "phone": "(305) 545-0168",
    "address": " 1143 W Flagler St  Miami, FL 33130",
    "location": "Flagler"
  },
  {
    "name": "Tekkell",
    "description": "Advertising Agencies",
    "phone": "(786) 391-7354",
    "address": " 141 Grand Ave  Miami, FL 33133",
    "location": "Flagler"
  },
  {
    "name": "Bendixen & Amandi International Inc",
    "description": "Advertising Agencies",
    "phone": "(305) 529-9916",
    "address": " 3250 Mary St  Miami, FL 33133",
    "location": "Flagler"
  },
  {
    "name": "Dollar Store",
    "description": "Advertising Agencies",
    "phone": "(305) 545-9270",
    "address": " 1104 W Flagler St  Miami, FL 33130",
    "location": "Flagler"
  },
  {
    "name": "C Com Group",
    "description": "Advertising Agencies",
    "phone": "(305) 447-4015",
    "address": " 2871 Oak Ave  Miami, FL 33133",
    "location": "Flagler"
  },
  {
    "name": "Minotti USA Inc",
    "description": "Advertising Agencies",
    "phone": "(305) 646-1741",
    "address": " 1825 Micanopy Ave  Miami, FL 33133",
    "location": "Flagler"
  },
  {
    "name": "Doubledome Digital Marketing",
    "description": "Advertising Agencies",
    "phone": "(786) 363-9868",
    "address": " 6303 Waterford District Dr  Miami, FL 33126",
    "location": "Flagler"
  },
  {
    "name": "Media Response Group",
    "description": "Advertising Agencies",
    "phone": "(305) 423-1473",
    "address": " 6303 Waterford District Dr  Miami, FL 33126",
    "location": "Flagler"
  },
  {
    "name": "Flobot",
    "description": "Advertising Agencies",
    "phone": "(754) 200-1322",
    "address": " 6303 Waterford District Dr  Miami, FL 33126",
    "location": "Flagler"
  },
  {
    "name": "Markham Unlimited",
    "description": "Advertising Agencies",
    "phone": "(305) 445-6642",
    "address": " 3326 Mary St Ste 601  Miami, FL 33133",
    "location": "Flagler"
  },
  {
    "name": "Ab+A Advertising",
    "description": "Advertising Agencies",
    "phone": "(305) 859-8989",
    "address": " 1235 Coral Way  Miami, FL 33145",
    "location": "Flagler"
  },
  {
    "name": "BSG World",
    "description": "Advertising Agencies",
    "phone": "(305) 854-5688",
    "address": " 3361 SW 3rd Ave  Miami, FL 33145",
    "location": "Flagler"
  },
  {
    "name": "Pantin J G R Public Relations",
    "description": "Advertising Agencies",
    "phone": "(305) 858-7277",
    "address": " 3361 SW 3rd Ave  Miami, FL 33145",
    "location": "Flagler"
  },
  {
    "name": "Beber Silverstein Productions",
    "description": "Advertising Agencies",
    "phone": "(305) 856-9800",
    "address": " 3361 SW 3rd Ave  Miami, FL 33145",
    "location": "Flagler"
  },
  {
    "name": "Hayday Advertising",
    "description": "Advertising Agencies",
    "phone": "(786) 410-2886",
    "address": " 3199 NW 36th St  Miami, FL 33142",
    "location": "Flagler"
  },
  {
    "name": "Media 8",
    "description": "Advertising Agencies",
    "phone": "(786) 623-5483",
    "address": " 3305 SW 1st Ave  Miami, FL 33145",
    "location": "Flagler"
  },
  {
    "name": "Sun & Sons",
    "description": "Advertising Agencies",
    "phone": "(303) 506-1371",
    "address": " 2980 Mcfarlane Rd  Miami, FL 33133",
    "location": "Flagler"
  },
  {
    "name": "Excel Advertising",
    "description": "Advertising Agencies",
    "phone": "(305) 856-7083",
    "address": " 2600 SW 3rd Ave  Miami, FL 33129",
    "location": "Flagler"
  },
  {
    "name": "Blanco-Lorenz",
    "description": "Advertising Agencies",
    "phone": "(305) 668-9637",
    "address": " 4000 Ponce De Leon Blvd Ste 470  Coral Gables, FL 33146",
    "location": "Flagler"
  },
  {
    "name": "Guava Moon Marketing & Comm",
    "description": "Advertising Agencies",
    "phone": "(305) 444-5575",
    "address": " 4000 Ponce De Leon Blvd Ste 460  Coral Gables, FL 33146",
    "location": "Flagler"
  },
  {
    "name": "Brandcom",
    "description": "Advertising Agencies",
    "phone": "(305) 728-5271",
    "address": " 4000 Ponce De Leon Blvd Ste 470  Coral Gables, FL 33146",
    "location": "Flagler"
  },
  {
    "name": "C-Com Group Inc",
    "description": "Advertising Agencies",
    "phone": "(305) 371-4030",
    "address": " 1790 Coral Way  Coral Gables, FL 33145",
    "location": "Flagler"
  },
  {
    "name": "Atkins Lopez Marti",
    "description": "Advertising Agencies",
    "phone": "(305) 669-8777",
    "address": " 1537 Saragossa Ave  Coral Gables, FL 33134",
    "location": "Flagler"
  },
  {
    "name": "Mobile Edge Media Group",
    "description": "Advertising Agencies",
    "phone": "(305) 609-8713",
    "address": " 6815 Edgewater Dr Delio Nunez  Coral Gables, FL 33133",
    "location": "Flagler"
  },
  {
    "name": "Nobox",
    "description": "Advertising Agencies",
    "phone": "(305) 571-2008",
    "address": " 3390 Mary St  Coconut Grove, FL 33133",
    "location": "Flagler"
  },
  {
    "name": "Global Distribution & Logistics",
    "description": "Advertising Agencies",
    "phone": "(305) 871-1807",
    "address": " 5275 NW 36th St  Miami Springs, FL 33166",
    "location": "Flagler"
  },
  {
    "name": "Alma D D B",
    "description": "Advertising Agencies",
    "phone": "(305) 666-2101",
    "address": " 770 S Dixie Hwy Ste 109  Coral Gables, FL 33146",
    "location": "Flagler"
  },
  {
    "name": "AVANZA | Hispanic Advertising + Branding Agency",
    "description": "Advertising Agencies",
    "phone": "(786) 565-7601",
    "address": " 5465 NW 36th St Ste 100  Miami Springs, FL 33166",
    "location": "Flagler"
  },
  {
    "name": "AVANZA | Integrated Branding & Advertising Agency",
    "description": "Advertising Agencies",
    "phone": "(786) 565-7601",
    "address": " 5465 NW 36th St Ste 100  Miami Springs, FL 33166",
    "location": "Flagler"
  },
  {
    "name": "Shepard Lobe Costa - Advertising",
    "description": "Advertising Agencies",
    "phone": "(305) 372-1430",
    "address": " 250 Bird Rd Ste 206  Coral Gables, FL 33146",
    "location": "Flagler"
  },
  {
    "name": "Nineteen Ninety Six",
    "description": "Advertising Agencies",
    "phone": "(305) 603-7811",
    "address": " 2665 S Bayshore Dr  Miami, FL 33133",
    "location": "Flagler"
  },
  {
    "name": "Shine Entertainment Med",
    "description": "Advertising Agencies",
    "phone": "(305) 860-9911",
    "address": " 520 SW 22nd Rd  Miami, FL 33129",
    "location": "Flagler"
  },
  {
    "name": "Add Ventures",
    "description": "Advertising Agencies",
    "phone": "(305) 569-7718",
    "address": " 3121 Commodore Plz  Miami, FL 33133",
    "location": "Flagler"
  },
  {
    "name": "Miami Billboard Advertising & SEO",
    "description": "Advertising Agencies",
    "phone": "(305) 370-9973",
    "address": " 501 Marlins Way  Miami, FL 33125",
    "location": "Flagler"
  },
  {
    "name": "Omd Usa",
    "description": "Advertising Agencies",
    "phone": "(305) 341-2530",
    "address": " 6205 Blue Lagoon Dr Ste 650  Miami, FL 33126",
    "location": "Flagler"
  },
  {
    "name": "Creative Minds Advertising",
    "description": "Advertising Agencies",
    "phone": "(305) 392-6313",
    "address": " 2801 NW 74th Ave  Miami, FL 33122",
    "location": "Flagler"
  },
  {
    "name": "Young & Rubicam",
    "description": "Advertising Agencies",
    "phone": "(305) 347-1900",
    "address": " 601 Brickell Key Dr  Miami, FL 33131",
    "location": "Flagler"
  },
  {
    "name": "OneAccord Partners",
    "description": "Advertising Agencies",
    "phone": "(305) 432-5210",
    "address": " 1865 Brickell Ave Apt A-1207  Miami, FL 33129",
    "location": "Flagler"
  },
  {
    "name": "Brain Switch Advertising",
    "description": "Advertising Agencies",
    "phone": "(305) 576-1415",
    "address": " 250 NW 23rd St  Miami, FL 33127",
    "location": "Flagler"
  },
  {
    "name": "Begante",
    "description": "Advertising Agencies",
    "phone": "(305) 925-0816",
    "address": " 1001 Brickell Bay  Miami, FL 33131",
    "location": "Flagler"
  },
  {
    "name": "Prediq Media",
    "description": "Advertising Agencies",
    "phone": "(800) 796-0201",
    "address": " 14 SW 2nd Ave  Miami, FL 33130",
    "location": "Flagler"
  },
  {
    "name": "Publitony USA LLC",
    "description": "Advertising Agencies",
    "phone": "(786) 607-1244",
    "address": " 1221 Brickell Ave  Miami, FL 33131",
    "location": "Flagler"
  },
  {
    "name": "Miami Daily Business Review",
    "description": "Advertising Agencies",
    "phone": "(305) 377-3721",
    "address": " 1 SE 3rd Ave  Miami, FL 33131",
    "location": "Flagler"
  },
  {
    "name": "B P Media & Partners",
    "description": "Advertising Agencies",
    "phone": "(305) 720-8535",
    "address": " 462 SW 15th Rd  Miami, FL 33129",
    "location": "Flagler"
  },
  {
    "name": "Trinitoba Inc",
    "description": "Advertising Agencies",
    "phone": "(305) 856-1012",
    "address": " 418 SW 10th St  Miami, FL 33130",
    "location": "Flagler"
  },
  {
    "name": "Brite Impressions Inc",
    "description": "Advertising Agencies",
    "phone": "(305) 269-0333",
    "address": " 7200 NW 7th St  Miami, FL 33126",
    "location": "Flagler"
  },
  {
    "name": "G & E Assoc",
    "description": "Advertising Agencies",
    "phone": "(786) 360-4820",
    "address": " 1234 NW 6th Ave  Miami, FL 33136",
    "location": "Flagler"
  },
  {
    "name": "Eminent Wealth Solutions",
    "description": "Advertising Agencies",
    "phone": "(888) 807-4482",
    "address": " 1150 NW 72nd Ave  Miami, FL 33126",
    "location": "Flagler"
  },
  {
    "name": "Iffective",
    "description": "Advertising Agencies",
    "phone": "(305) 215-7229",
    "address": " 1951 NW 7th Ave  Miami, FL 33136",
    "location": "Flagler"
  },
  {
    "name": "Avadora USA",
    "description": "Advertising Agencies",
    "phone": "(786) 518-2486",
    "address": " 1800 SW 1st Ave  Miami, FL 33129",
    "location": "Flagler"
  },
  {
    "name": "First Florida",
    "description": "Advertising Agencies",
    "phone": "(305) 846-9694",
    "address": " 228 SW 10th St  Miami, FL 33130",
    "location": "Flagler"
  },
  {
    "name": "Frost & Sullivan",
    "description": "Advertising Agencies",
    "phone": "(786) 220-7020",
    "address": " 175 SW 7th St  Miami, FL 33130",
    "location": "Flagler"
  },
  {
    "name": "Miami Seo",
    "description": "Advertising Agencies",
    "phone": "(918) 919-3226",
    "address": " 150 W Flagler St  Miami, FL 33130",
    "location": "Flagler"
  },
  {
    "name": "White Shark Media",
    "description": "Advertising Agencies",
    "phone": "(786) 728-9231",
    "address": " 120 SW 8th St Ste 113  Miami, FL 33130",
    "location": "Flagler"
  },
  {
    "name": "SEO Smooth",
    "description": "Advertising Agencies",
    "phone": "(305) 563-3037",
    "address": " 66 W Flagler St Ste 900-128  Miami, FL 33130",
    "location": "Flagler"
  },
  {
    "name": "Yacht Music Group",
    "description": "Advertising Agencies",
    "phone": "(407) 627-9628",
    "address": " 66 W Flagler St  Miami, FL 33130",
    "location": "Flagler"
  },
  {
    "name": "Marly Media",
    "description": "Advertising Agencies",
    "phone": "(409) 996-2759",
    "address": " 7437 Coral Way  Miami, FL 33155",
    "location": "Flagler"
  },
  {
    "name": "Florida Advertising Balloons",
    "description": "Advertising Agencies",
    "phone": "(800) 805-0276",
    "address": " 80 SW 8th St  Miami, FL 33130",
    "location": "Flagler"
  },
  {
    "name": "Media Planning International",
    "description": "Advertising Agencies",
    "phone": "(305) 377-1907",
    "address": " 80 SW 8th St  Miami, FL 33130",
    "location": "Flagler"
  },
  {
    "name": "Promo Digital Media Group",
    "description": "Advertising Agencies",
    "phone": "(786) 378-9020",
    "address": " 50 SW 10th St  Miami, FL 33130",
    "location": "Flagler"
  },
  {
    "name": "Tag Advertising",
    "description": "Advertising Agencies",
    "phone": "(305) 577-9988",
    "address": " 75 SW 15th Rd  Miami, FL 33129",
    "location": "Flagler"
  },
  {
    "name": "Usdirectory.com",
    "description": "Advertising Agencies",
    "phone": "(305) 244-8771",
    "address": " 1000 NW 1st Ave  Miami, FL 33136",
    "location": "Flagler"
  },
  {
    "name": "SEO Miami - Moonlight SEO - Miami SEO Expert",
    "description": "Advertising Agencies",
    "phone": "(786) 529-7624",
    "address": " 28 W Flagler St Ste 1200-b  Miami, FL 33130",
    "location": "Flagler"
  },
  {
    "name": "Target Digital Marketing Miami",
    "description": "Advertising Agencies",
    "phone": "(888) 457-3353",
    "address": " 800 N Miami Ave  Miami, FL 33136",
    "location": "Flagler"
  },
  {
    "name": "Rocket Seo",
    "description": "Advertising Agencies",
    "phone": "(305) 363-3134",
    "address": " 1200 Brickell Ave  Miami, FL 33131",
    "location": "Flagler"
  },
  {
    "name": "Campaign180",
    "description": "Advertising Agencies",
    "phone": "(888) 487-8630",
    "address": " 1200 Brickell Ave Ste 800  Miami, FL 33131",
    "location": "Flagler"
  },
  {
    "name": "The Kluger Agency",
    "description": "Advertising Agencies",
    "phone": "(305) 639-8748",
    "address": " 1200 Brickell Ave Ste 1950  Miami, FL 33131",
    "location": "Flagler"
  },
  {
    "name": "USA Man Super",
    "description": "Advertising Agencies",
    "phone": "(786) 360-2535",
    "address": " 1441 Brickell Ave Ste 1400  Miami, FL 33131",
    "location": "Flagler"
  },
  {
    "name": "The M Network Inc",
    "description": "Advertising Agencies",
    "phone": "(305) 571-1455",
    "address": " 14 NE 1st Ave  Miami, FL 33132",
    "location": "Flagler"
  },
  {
    "name": "Paper Street Media",
    "description": "Advertising Agencies",
    "phone": "(305) 364-5663",
    "address": " 14 NE 1st Ave  Miami, FL 33132",
    "location": "Flagler"
  },
  {
    "name": "Img",
    "description": "Advertising Agencies",
    "phone": "(305) 381-6896",
    "address": " 1110 Brickell Ave  Miami, FL 33131",
    "location": "Flagler"
  },
  {
    "name": "Free Buggy Ride",
    "description": "Advertising Agencies",
    "phone": "(305) 925-5611",
    "address": " 100 SE 2nd St  Miami, FL 33131",
    "location": "Flagler"
  },
  {
    "name": "Igt Media Holdings, Inc.",
    "description": "Advertising Agencies",
    "phone": "(305) 573-2800",
    "address": " 21 SE 1st Ave Ste 300  Miami, FL 33131",
    "location": "Flagler"
  },
  {
    "name": "Ooh USA Corp",
    "description": "Advertising Agencies",
    "phone": "(305) 603-7129",
    "address": " 1000 Brickell Ave  Miami, FL 33131",
    "location": "Flagler"
  },
  {
    "name": "Benamor Inc",
    "description": "Advertising Agencies",
    "phone": "(305) 400-4961",
    "address": " 117 NE 1st Ave  Miami, FL 33132",
    "location": "Flagler"
  },
  {
    "name": "Lit Social",
    "description": "Advertising Agencies",
    "phone": "(305) 250-2268",
    "address": " 117 NE 1st Ave  Miami, FL 33132",
    "location": "Flagler"
  },
  {
    "name": "MRM Worldwide",
    "description": "Advertising Agencies",
    "phone": "(305) 371-8655",
    "address": " 1201 Brickell Ave Ste 600  Miami, FL 33131",
    "location": "Flagler"
  },
  {
    "name": "Tibint",
    "description": "Advertising Agencies",
    "phone": "(786) 410-7566",
    "address": " 1111 Brickell Ave 10th Fl  Miami, FL 33131",
    "location": "Flagler"
  },
  {
    "name": "Drive Social Media - Miami",
    "description": "Advertising Agencies",
    "phone": "(786) 688-3833",
    "address": " 1111 Brickell Ave  Miami, FL 33131",
    "location": "Flagler"
  },
  {
    "name": "Wild Pixel Media",
    "description": "Advertising Agencies",
    "phone": "(786) 678-5353",
    "address": " 1101 Brickell Ave  Miami, FL 33131",
    "location": "Flagler"
  },
  {
    "name": "BVK/Meka Marketing Communications",
    "description": "Advertising Agencies",
    "phone": "(305) 372-0028",
    "address": " 848 Brickell Ave  Miami, FL 33131",
    "location": "Flagler"
  },
  {
    "name": "Hunter-Hamersmith & Associates Advertising Inc",
    "description": "Advertising Agencies",
    "phone": "(305) 895-3492",
    "address": " 725 NE 125th St  North Miami, FL 33161",
    "location": "Flagler"
  },
  {
    "name": "HH Advertising Inc",
    "description": "Advertising Agencies",
    "phone": "(305) 895-8430",
    "address": " 725 NE 125th St  North Miami, FL 33161",
    "location": "Flagler"
  },
  {
    "name": "Tropic Survival Advertising & Marketing",
    "description": "Advertising Agencies",
    "phone": "(305) 899-7229",
    "address": " 1125 NE 125th St Ste 400  North Miami, FL 33161",
    "location": "Flagler"
  },
  {
    "name": "Advertising",
    "description": "Advertising Specialties",
    "phone": "(786) 773-2499",
    "address": " 2280 W 84th St  Hialeah, FL 33016",
    "location": "Flagler"
  },
  {
    "name": "On Advertising Inc",
    "description": "Public Relations Counselors",
    "phone": "(786) 301-4117",
    "address": " 1800 Sans Souci Blvd  North Miami, FL 33181",
    "location": "Flagler"
  },
  {
    "name": "MVP Advertising",
    "description": "Advertising Specialties",
    "phone": "(305) 628-0770",
    "address": " 4980 NW 165th St  Miami Lakes, FL 33014",
    "location": "Flagler"
  },
  {
    "name": "Prodigy Advertising",
    "description": "Advertising Specialties",
    "phone": "(305) 328-8515",
    "address": " 18001 Old Cutler Rd Ste 429  Palmetto Bay, FL 33157",
    "location": "Flagler"
  },
  {
    "name": "Bluelion Advertising",
    "description": "Advertising Agencies",
    "phone": "(305) 971-7021",
    "address": " 9120 SW 162nd St  Palmetto Bay, FL 33157",
    "location": "Flagler"
  },
  {
    "name": "Coral Advertising Inc",
    "description": "Advertising Agencies",
    "phone": "(305) 252-0405",
    "address": " 8650 SW 144th St  Palmetto Bay, FL 33158",
    "location": "Flagler"
  },
  {
    "name": "Gimmick Advertising LTD Inc",
    "description": "Advertising Specialties",
    "phone": "(305) 893-5580",
    "address": " 1745 NE 124th St  North Miami, FL 33181",
    "location": "Flagler"
  },
  {
    "name": "Behr Advertising, Inc.",
    "description": "Advertising Agencies",
    "phone": "(305) 674-8406",
    "address": " 1801 NE 123rd St Ste 314  North Miami, FL 33181",
    "location": "Flagler"
  },
  {
    "name": "Green Dot Advertising",
    "description": "Advertising Agencies",
    "phone": "(305) 674-8406",
    "address": " 1801 NE 123rd St  North Miami, FL 33181",
    "location": "Flagler"
  },
  {
    "name": "Miami Production Advertising",
    "description": "Advertising-Broadcast & Film",
    "phone": "(786) 360-4058",
    "address": " 12955 Biscayne Blvd  North Miami, FL 33181",
    "location": "Flagler"
  },
  {
    "name": "Advertising Updated Inc",
    "description": "Advertising Agencies",
    "phone": "(305) 944-6718",
    "address": " 1248 NE 154th St  North Miami Beach, FL 33162",
    "location": "Flagler"
  },
  {
    "name": "Joint Advertising",
    "description": "Direct Mail Advertising",
    "phone": "(305) 252-1002",
    "address": " 8625 SW 184th Ter  Cutler Bay, FL 33157",
    "location": "Flagler"
  },
  {
    "name": "Levy Advertising",
    "description": "Advertising Agencies",
    "phone": "(305) 592-5389",
    "address": " 4241 W 108th St  Hialeah, FL 33018",
    "location": "Flagler"
  },
  {
    "name": "Carter Outdoor Advertising",
    "description": "Outdoor Advertising",
    "phone": "(305) 669-8669",
    "address": " 10675 SW 186th St  Cutler Bay, FL 33157",
    "location": "Flagler"
  },
  {
    "name": "Menda Group Advertising",
    "description": "Advertising Agencies",
    "phone": "(954) 436-9290",
    "address": " 3638 SW 162nd Ave  Miramar, FL 33027",
    "location": "Flagler"
  },
  {
    "name": "Englehardt Advertising",
    "description": "Advertising Agencies",
    "phone": "(954) 927-2886",
    "address": " 2450 Hollywood Blvd  Hollywood, FL 33020",
    "location": "Flagler"
  },
  {
    "name": "Colin Advertising",
    "description": "Advertising Agencies",
    "phone": "(305) 932-3128",
    "address": " 19111 Collins Ave  Sunny Isles Beach, FL 33160",
    "location": "Flagler"
  },
  {
    "name": "Edco Advertising Specialties",
    "description": "Advertising Specialties",
    "phone": "(954) 964-2466",
    "address": " 5634 Johnson St  Hollywood, FL 33021",
    "location": "Flagler"
  },
  {
    "name": "Boat Advertising",
    "description": "Boat Equipment & Supplies",
    "phone": "(954) 343-8810",
    "address": " 1835 E Hallandale Beach Blvd  Hallandale Beach, FL 33009",
    "location": "Flagler"
  },
  {
    "name": "Advertising Profits From Home",
    "description": "Hospital Equipment & Supplies",
    "phone": "(954) 889-4529",
    "address": " 2413 Dewey St  Hollywood, FL 33020",
    "location": "Flagler"
  },
  {
    "name": "Advertising Excellence, Inc.",
    "description": "Advertising Agencies",
    "phone": "(954) 522-8772",
    "address": " PO Box 220555  Hollywood, FL 33022",
    "location": "Flagler"
  },
  {
    "name": "Mc2 Advertising",
    "description": "Advertising Agencies",
    "phone": "(954) 374-9925",
    "address": " 3350 SW 148th Ave  Miramar, FL 33027",
    "location": "Flagler"
  },
  {
    "name": "Adtech Electric Advertising",
    "description": "Advertising Agencies",
    "phone": "(786) 533-3210",
    "address": " 221 W Hallandale Beach Blvd  Hallandale Beach, FL 33009",
    "location": "Flagler"
  },
  {
    "name": "FreeAdvertisingNetwork.org",
    "description": "Marketing Programs & Services",
    "phone": "(954) 864-5578",
    "address": " 2080 S Ocean Dr Apt 104  Hallandale Beach, FL 33009",
    "location": "Flagler"
  },
  {
    "name": "Engelhardt Advertising",
    "description": "Advertising Agencies",
    "phone": "(954) 613-5139",
    "address": " 4000 Hollywood Blvd  Hollywood, FL 33021",
    "location": "Flagler"
  },
  {
    "name": "Coastal Advertising & Consulting Corp",
    "description": "Advertising Agencies",
    "phone": "(954) 920-0644",
    "address": " 2334 Hollywood Blvd  Hollywood, FL 33020",
    "location": "Flagler"
  },
  {
    "name": "Jakubisin Ronald & Associates Inc Advertising & Marketing",
    "description": "Advertising Agencies",
    "phone": "(954) 922-5052",
    "address": " 1841 Monroe St  Hollywood, FL 33020",
    "location": "Flagler"
  },
  {
    "name": "Solomon Snow Marketing & Advertising",
    "description": "Marketing Consultants",
    "phone": "(954) 920-9646",
    "address": " 2321 Hollywood Blvd  Hollywood, FL 33020",
    "location": "Flagler"
  },
  {
    "name": "Salamon Snow Marketing & Advertising",
    "description": "Marketing Programs & Services",
    "phone": "(954) 367-0531",
    "address": " 1942 Harrison St  Hollywood, FL 33020",
    "location": "Flagler"
  },
  {
    "name": "Edison Advertising Corp",
    "description": "Advertising-Promotional Products",
    "phone": "(954) 443-4101",
    "address": " 10611 London St  Hollywood, FL 33026",
    "location": "Flagler"
  },
  {
    "name": "Awesome Advertising",
    "description": "Advertising Agencies",
    "phone": "(954) 445-7706",
    "address": " 6440 Pershing St  Hollywood, FL 33024",
    "location": "Flagler"
  },
  {
    "name": "Fascinations Imprinted Advertising",
    "description": "Advertising-Promotional Products",
    "phone": "(954) 436-9555",
    "address": " 1554 NW 182nd Ave  Pembroke Pines, FL 33029",
    "location": "Flagler"
  },
  {
    "name": "Villa's Clara Advertising Consultants",
    "description": "Real Estate Management",
    "phone": "(786) 601-7297",
    "address": " 23659 SW 133rd Ave  Homestead, FL 33032",
    "location": "Flagler"
  },
  {
    "name": "Automotive Advertising Associates",
    "description": "Advertising Specialties",
    "phone": "(954) 434-4100",
    "address": " 16261 Oneida Pl  Davie, FL 33331",
    "location": "Flagler"
  },
  {
    "name": "Genius Advertising Agency",
    "description": "Printing Services",
    "phone": "(954) 587-0046",
    "address": " 9000 Sheridan St  Hollywood, FL 33024",
    "location": "Flagler"
  },
  {
    "name": "Spanish Voices Marketing & Advertising",
    "description": "Marketing Consultants",
    "phone": "(954) 981-7949",
    "address": " 121 S 61st Ter  Hollywood, FL 33023",
    "location": "Flagler"
  },
  {
    "name": "Promotional Innovative Advertising",
    "description": "Advertising-Promotional Products",
    "phone": "(954) 437-7591",
    "address": " 11569 Gorham Dr  Hollywood, FL 33026",
    "location": "Flagler"
  },
  {
    "name": "Roger Deutsch Advertising",
    "description": "Advertising Agencies",
    "phone": "(954) 473-0600",
    "address": " 1761 SW 120th Ter  Davie, FL 33325",
    "location": "Flagler"
  },
  {
    "name": "Hardcore Advertising",
    "description": "Internet Marketing & Advertising",
    "phone": "(954) 636-7030",
    "address": " 502 SE 11th Ct  Fort Lauderdale, FL 33316",
    "location": "Flagler"
  },
  {
    "name": "Advertising For Surgeons",
    "description": "Advertising Agencies",
    "phone": "(833) 311-1004",
    "address": " 110 SE 6th St  Fort Lauderdale, FL 33301",
    "location": "Flagler"
  },
  {
    "name": "Rieback & David Integrated Marketing and Advertising",
    "description": "Internet Marketing & Advertising",
    "phone": "(561) 358-1119",
    "address": " 772 NW 100th Ter  Plantation, FL 33324",
    "location": "Flagler"
  },
  {
    "name": "Gold Coast Advertising",
    "description": "Advertising Specialties",
    "phone": "(954) 791-6131",
    "address": " 3941 SW 47th St  Fort Lauderdale, FL 33312",
    "location": "Flagler"
  },
  {
    "name": "Designed Advertising Inc",
    "description": "Advertising Specialties",
    "phone": "(954) 583-6762",
    "address": " 5936 SW 44th St  Davie, FL 33314",
    "location": "Flagler"
  },
  {
    "name": "AM Publicidad Advertising Org",
    "description": "Advertising Agencies",
    "phone": "(954) 391-8557",
    "address": " 233 N Federal Hwy  Dania, FL 33004",
    "location": "Flagler"
  },
  {
    "name": "Loud And Clear Advertising Inc",
    "description": "Advertising Agencies",
    "phone": "(305) 247-0777",
    "address": " 28852 S Dixie Hwy  Homestead, FL 33033",
    "location": "Flagler"
  },
  {
    "name": "Mobile Advertising Technology",
    "description": "Advertising Agencies",
    "phone": "(786) 787-0413",
    "address": " 3402 SW 26th Ter  Fort Lauderdale, FL 33312",
    "location": "Flagler"
  },
  {
    "name": "Media Concepts & Advertising",
    "description": "Advertising Specialties",
    "phone": "(954) 949-0540",
    "address": " 2031 SW 70th Ave Ste C21  Davie, FL 33317",
    "location": "Flagler"
  },
  {
    "name": "Rand Searchlight Advertising",
    "description": "Advertising Agencies",
    "phone": "(954) 476-7620",
    "address": " 11330 SW 17th St  Davie, FL 33325",
    "location": "Flagler"
  },
  {
    "name": "Adfinity Advertising and Signs",
    "description": "Advertising Specialties",
    "phone": "(754) 223-4798",
    "address": " 1414 E Harmony Lake Cir  Davie, FL 33324",
    "location": "Flagler"
  },
  {
    "name": "Lipof Advertising",
    "description": "Advertising Agencies",
    "phone": "(954) 472-9999",
    "address": " 8030 Peters Rd Ste D  Plantation, FL 33324",
    "location": "Flagler"
  },
  {
    "name": "Ck Advertising & Design",
    "description": "Graphic Designers",
    "phone": "(954) 356-9928",
    "address": " 933 SW 17th St  Fort Lauderdale, FL 33315",
    "location": "Flagler"
  },
  {
    "name": "Windmill Advertising Group",
    "description": "Advertising Specialties",
    "phone": "(954) 385-1350",
    "address": " 1675 N Commerce Pkwy  Weston, FL 33326",
    "location": "Flagler"
  },
  {
    "name": "Golden Traffic Advertising",
    "description": "Advertising-Shoppers Publications",
    "phone": "(202) 350-1872",
    "address": " 801 S State Road 7  Plantation, FL 33317",
    "location": "Flagler"
  },
  {
    "name": "Arena Advertising & Sports Marketing",
    "description": "Advertising Agencies",
    "phone": "(954) 533-8556",
    "address": " 11870 W State Road 84  Davie, FL 33325",
    "location": "Flagler"
  },
  {
    "name": "UCA Advertising",
    "description": "Advertising Agencies",
    "phone": "(954) 372-4606",
    "address": " 8211 W Broward Blvd  Plantation, FL 33324",
    "location": "Flagler"
  },
  {
    "name": "R&R Publications & Advertising",
    "description": "Advertising-Shoppers Publications",
    "phone": "(954) 867-8838",
    "address": " 7027 W Broward Blvd # 158  Plantation, FL 33317",
    "location": "Flagler"
  },
  {
    "name": "Laser Advertising",
    "description": "Advertising Agencies",
    "phone": "(954) 760-4667",
    "address": " 1500 Cordova Rd  Fort Lauderdale, FL 33316",
    "location": "Flagler"
  },
  {
    "name": "The Advertising Department",
    "description": "Advertising Agencies",
    "phone": "(954) 769-3930",
    "address": " 227 SW 2nd Ave  Fort Lauderdale, FL 33301",
    "location": "Flagler"
  },
  {
    "name": "Gana Gana Land Advertising & Design, Inc.",
    "description": "Landscaping & Lawn Services",
    "phone": "(954) 452-0441",
    "address": " 8232 NW 8th Pl  Plantation, FL 33324",
    "location": "Flagler"
  },
  {
    "name": "Ambit Advertising and Public Relations",
    "description": "Advertising Agencies",
    "phone": "(954) 568-2100",
    "address": " 401 E Las Olas Blvd  Fort Lauderdale, FL 33301",
    "location": "Flagler"
  },
  {
    "name": "Interspace Airport Advertising",
    "description": "Advertising Agencies",
    "phone": "(954) 359-5099",
    "address": " 50 Terminal Dr  Fort Lauderdale, FL 33315",
    "location": "Flagler"
  },
  {
    "name": "Aeronet Advertising",
    "description": "Web Site Hosting",
    "phone": "(954) 476-2407",
    "address": " 1970 SW 115th Ave  Davie, FL 33325",
    "location": "Flagler"
  },
  {
    "name": "Martini & Partners Advertising",
    "description": "Advertising Specialties",
    "phone": "(954) 562-7950",
    "address": " 2248 SW 14th Ct  Fort Lauderdale, FL 33312",
    "location": "Flagler"
  },
  {
    "name": "Adbit's Advertising & Pr",
    "description": "Advertising Agencies",
    "phone": "(954) 467-8420",
    "address": " 1003 SE 17th St  Fort Lauderdale, FL 33316",
    "location": "Flagler"
  },
  {
    "name": "Downtown Advertising",
    "description": "Advertising Agencies",
    "phone": "(954) 376-4780",
    "address": " 4 W Las Olas Blvd  Fort Lauderdale, FL 33301",
    "location": "Flagler"
  },
  {
    "name": "Tower Advertising Group",
    "description": "Advertising Specialties",
    "phone": "(954) 627-3450",
    "address": " 110 E Broward Blvd  Fort Lauderdale, FL 33301",
    "location": "Flagler"
  },
  {
    "name": "Harris & Drury Advertising",
    "description": "Advertising Agencies",
    "phone": "(954) 489-0611",
    "address": " 1901 W Cypress Creek Rd  Fort Lauderdale, FL 33309",
    "location": "Flagler"
  },
  {
    "name": "D Signs for Mobile Graphics Advertising",
    "description": "Signs",
    "phone": "(954) 733-3764",
    "address": " 3405 Lime Hill Rd  Lauderhill, FL 33319",
    "location": "Flagler"
  },
  {
    "name": "Creative Advertising Promotions",
    "description": "Clothing Stores",
    "phone": "(954) 623-3000",
    "address": " 1975 E Sunrise Blvd Ste 816  Fort Lauderdale, FL 33304",
    "location": "Flagler"
  },
  {
    "name": "Sofibiz Advertisement",
    "description": "Advertising Agencies",
    "phone": "(954) 870-7190",
    "address": " 7481 W Oakland Park Blvd  Tamarac, FL 33319",
    "location": "Flagler"
  },
  {
    "name": "Springboard Advertising/Design",
    "description": "Internet Marketing & Advertising",
    "phone": "(954) 655-8368",
    "address": " 408 NE 6th St  Fort Lauderdale, FL 33304",
    "location": "Flagler"
  },
  {
    "name": "PLP Advertising",
    "description": "Advertising Agencies",
    "phone": "(954) 567-1455",
    "address": " 200 NE 44th St  Oakland Park, FL 33334",
    "location": "Flagler"
  },
  {
    "name": "Zebra Advertisement",
    "description": "Advertising Agencies",
    "phone": "(305) 974-4204",
    "address": " 800 E Broward Blvd  Fort Lauderdale, FL 33301",
    "location": "Flagler"
  },
  {
    "name": "Advertising Concepts Of America Inc",
    "description": "Commercials-Radio & Television",
    "phone": "(954) 764-8864",
    "address": " 233 NE 3rd Ave  Fort Lauderdale, FL 33301",
    "location": "Flagler"
  },
  {
    "name": "Graphic Advertising",
    "description": "Graphic Designers",
    "phone": "(954) 587-1451",
    "address": " 3291 W Sunrise Blvd  Fort Lauderdale, FL 33311",
    "location": "Flagler"
  },
  {
    "name": "Kind Design Advertising",
    "description": "Advertising Agencies",
    "phone": "(954) 467-5463",
    "address": " 901 Progresso Dr  Fort Lauderdale, FL 33304",
    "location": "Flagler"
  },
  {
    "name": "Myers Myers & Adams Advertising Inc",
    "description": "Advertising Agencies",
    "phone": "(954) 523-6262",
    "address": " 938 N Victoria Park Rd  Fort Lauderdale, FL 33304",
    "location": "Flagler"
  },
  {
    "name": "Truckside Advertising Inc",
    "description": "Advertising Agencies",
    "phone": "(954) 557-7339",
    "address": " 1975 E Sunrise Blvd Ste 800  Fort Lauderdale, FL 33304",
    "location": "Flagler"
  },
  {
    "name": "Mass Traffic Advertising",
    "description": "Advertising Agencies",
    "phone": "(202) 350-1872",
    "address": " 2598 East Sunrise Blvd  Fort Lauderdale, FL 33304",
    "location": "Flagler"
  },
  {
    "name": "Boca Advertising",
    "description": "Advertising Agencies",
    "phone": "(954) 302-1844",
    "address": " 124 Glades Cir Ste 139  Weston, FL 33327",
    "location": "Flagler"
  },
  {
    "name": "ADVERTISING SPECIALTIES INC.",
    "description": "Directory & Guide Advertising",
    "phone": "(888) 920-7284",
    "address": " 2950 Glades Cir Ste 16  Weston, FL 33327",
    "location": "Flagler"
  },
  {
    "name": "Torque Advertising",
    "description": "Advertising Agencies",
    "phone": "(954) 566-4963",
    "address": " 1719 NE 17th St  Fort Lauderdale, FL 33305",
    "location": "Flagler"
  },
  {
    "name": "Brainstorms Advertising",
    "description": "Advertising Agencies",
    "phone": "(954) 564-2424",
    "address": " 2201 Wilton Dr  Wilton Manors, FL 33305",
    "location": "Flagler"
  },
  {
    "name": "Emagine Creations Advertising",
    "description": "Advertising Agencies",
    "phone": "(954) 406-6800",
    "address": " 3626 NW 82nd Ter  Sunrise, FL 33351",
    "location": "Flagler"
  },
  {
    "name": "Anything But Advertising",
    "description": "Advertising Agencies",
    "phone": "(407) 227-8867",
    "address": " 2601 NE 14th Ave  Wilton Manors, FL 33334",
    "location": "Flagler"
  },
  {
    "name": "Experience Advertising",
    "description": "Advertising Specialties",
    "phone": "(954) 742-0345",
    "address": " 10218 NW 47th St  Sunrise, FL 33351",
    "location": "Flagler"
  },
  {
    "name": "H and H Advertising Solutions Inc",
    "description": "Advertising Specialties",
    "phone": "(954) 530-1705",
    "address": " 1699 E Oakland Park Blvd  Oakland Park, FL 33334",
    "location": "Flagler"
  },
  {
    "name": "Madsen Advertising",
    "description": "Print Advertising",
    "phone": "(954) 990-6549",
    "address": " 3455 NE 12th Ter Ste 20  Oakland Park, FL 33334",
    "location": "Flagler"
  },
  {
    "name": "Jdoc Advertising and Marketing",
    "description": "Advertising Specialties",
    "phone": "(954) 530-8628",
    "address": " 2734 E Oakland Park Blvd Ste 110  Fort Lauderdale, FL 33306",
    "location": "Flagler"
  },
  {
    "name": "Jdoc Advertising & Marketing",
    "description": "Advertising Agencies",
    "phone": "(954) 909-5948",
    "address": " 2787 E Oakland Park Blvd  Fort Lauderdale, FL 33306",
    "location": "Flagler"
  },
  {
    "name": "Baxter Martin Advertising",
    "description": "Advertising Agencies",
    "phone": "(954) 563-0602",
    "address": " 3471 N Federal Hwy  Fort Lauderdale, FL 33306",
    "location": "Flagler"
  },
  {
    "name": "Advertising agency Intl INC",
    "description": "Advertising-Promotional Products",
    "phone": "(954) 734-9015",
    "address": " 3511 W Commercial Blvd Ste 1301  Fort Lauderdale, FL 33309",
    "location": "Flagler"
  },
  {
    "name": "Fox Advertising",
    "description": "Advertising Agencies",
    "phone": "(954) 369-0604",
    "address": " 2881 E Oakland Park Blvd  Fort Lauderdale, FL 33306",
    "location": "Flagler"
  },
  {
    "name": "Herman Advertising",
    "description": "Advertising Agencies",
    "phone": "(954) 565-3102",
    "address": " 450 NE 44th St  Oakland Park, FL 33334",
    "location": "Flagler"
  },
  {
    "name": "Zimmerman Advertising",
    "description": "Outdoor Advertising",
    "phone": "(954) 644-4000",
    "address": " 2200 W Commercial Blvd  Fort Lauderdale, FL 33309",
    "location": "Flagler"
  },
  {
    "name": "Aaron Advertising Inc",
    "description": "Advertising Agencies",
    "phone": "(954) 566-4030",
    "address": " 3500 Galt Ocean Dr  Fort Lauderdale, FL 33308",
    "location": "Flagler"
  },
  {
    "name": "Advanced Media Advertising",
    "description": "Advertising-Broadcast & Film",
    "phone": "(805) 637-5200",
    "address": " Serving Southeast Florida  Fort Lauderdale, FL 33307",
    "location": "Flagler"
  },
  {
    "name": "Polaris Advertising LLC",
    "description": "Internet Marketing & Advertising",
    "phone": "(818) 208-5818",
    "address": " 1326 E Commercial Blvd PMB 3036  Fort Lauderdale, FL 33334",
    "location": "Flagler"
  },
  {
    "name": "M P Advertising",
    "description": "Printing Services-Commercial",
    "phone": "(954) 971-6220",
    "address": " 6033 NW 31st Ave  Fort Lauderdale, FL 33309",
    "location": "Flagler"
  },
  {
    "name": "John Forsyth Advertising",
    "description": "Advertising Agencies",
    "phone": "(954) 938-2050",
    "address": " 5200 N Federal Hwy  Fort Lauderdale, FL 33308",
    "location": "Flagler"
  },
  {
    "name": "Greene Beech Advertising Design Group",
    "description": "Advertising Specialties",
    "phone": "(954) 771-6500",
    "address": " 509 NE 3rd Ave  Fort Lauderdale, FL 33301",
    "location": "Flagler"
  },
  {
    "name": "Direct Web Advertising",
    "description": "Advertising Specialties",
    "phone": "(954) 762-3404",
    "address": " 1511 NE 4th Pl  Fort Lauderdale, FL 33301",
    "location": "Flagler"
  },
  {
    "name": "Seitz Inc Advertising & Promotion",
    "description": "Advertising Agencies",
    "phone": "(954) 970-3394",
    "address": " 1350 NW 9th Ave  Fort Lauderdale, FL 33311",
    "location": "Flagler"
  },
  {
    "name": "Aaron Advertising",
    "description": "Advertising Agencies",
    "phone": "(954) 381-8000",
    "address": " 4825 N Dixie Hwy  Oakland Park, FL 33334",
    "location": "Flagler"
  },
  {
    "name": "Brand X Advertising",
    "description": "Advertising Agencies",
    "phone": "(954) 972-7453",
    "address": " 6855 NW 23rd Ter  Fort Lauderdale, FL 33309",
    "location": "Flagler"
  },
  {
    "name": "Transformatic Advertising",
    "description": "Marketing Programs & Services",
    "phone": "(954) 573-0148",
    "address": " 8771 Holly Ct  Tamarac, FL 33321",
    "location": "Flagler"
  },
  {
    "name": "Iman Advertising",
    "description": "Advertising Agencies",
    "phone": "(844) 462-6836",
    "address": " 8050 N University Dr  Tamarac, FL 33321",
    "location": "Flagler"
  },
  {
    "name": "Big Card Advertising",
    "description": "Advertising-Shoppers Publications",
    "phone": "(954) 773-6241",
    "address": " 2637 East Atlantic Blvd.  Pompano Beach, FL 33062",
    "location": "Flagler"
  },
  {
    "name": "JB Advertising",
    "description": "Advertising Specialties",
    "phone": "(954) 298-9530",
    "address": " 1300 SW 82nd Ave  North Lauderdale, FL 33068",
    "location": "Flagler"
  },
  {
    "name": "C R Advertising Associates",
    "description": "Advertising Specialties",
    "phone": "(954) 771-7858",
    "address": " 5554 N Federal Hwy  Fort Lauderdale, FL 33308",
    "location": "Flagler"
  },
  {
    "name": "James Ross Advertising",
    "description": "Advertising Agencies",
    "phone": "(954) 974-6640",
    "address": " 1180 SW 36th Ave  Pompano Beach, FL 33069",
    "location": "Flagler"
  },
  {
    "name": "Phoenix Publications & Advertising, Inc.",
    "description": "Directory & Guide Advertising",
    "phone": "(954) 786-0227",
    "address": " 2637 E Atlantic Blvd # 171  Pompano Beach, FL 33062",
    "location": "Flagler"
  },
  {
    "name": "Treatment Advertising Solutions",
    "description": "Advertising Specialties",
    "phone": "(954) 960-5153",
    "address": " 2641 E Atlantic Blvd Ste 309  Pompano Beach, FL 33062",
    "location": "Flagler"
  },
  {
    "name": "Allied Advertising",
    "description": "Advertising Agencies",
    "phone": "(954) 229-9030",
    "address": " 6400 N Andrews Ave  Fort Lauderdale, FL 33309",
    "location": "Flagler"
  },
  {
    "name": "Facebook social media advertising",
    "description": "Internet Marketing & Advertising",
    "phone": "(305) 896-5471",
    "address": " 2450 W 82nd St  hialeah, FL 33016",
    "location": "Flagler"
  },
  {
    "name": "Instant Signs",
    "description": "Document Imaging",
    "phone": "(786) 802-1641",
    "address": " 4701 SW 72nd Ave  Miami, FL 33155",
    "location": "Flagler"
  },
  {
    "name": "National Claims Consultants",
    "description": "Advertising Agencies",
    "phone": "(786) 438-0305",
    "address": " 4909 SW 74th Ct  Miami, FL 33155",
    "location": "Flagler"
  },
  {
    "name": "Triple S International Inc",
    "description": "Exporters",
    "phone": "(305) 859-3248",
    "address": " 8645 NW 61st St  Miami, FL 33166",
    "location": "Flagler"
  },
  {
    "name": "Green DOT Advertsing",
    "description": "Advertising Agencies",
    "phone": "(305) 674-8406",
    "address": " 5400 NE 4th Ct Ste 3  Miami, FL 33137",
    "location": "Flagler"
  },
  {
    "name": "Rafa Advertisting Corp",
    "description": "Advertising Agencies",
    "phone": "(305) 887-8879",
    "address": " 9016 NW 105th Way  Medley, FL 33178",
    "location": "Flagler"
  },
  {
    "name": "Clear Channel Outdoor",
    "description": "Outdoor Advertising",
    "phone": "(786) 530-5039",
    "address": " 5800 NW 77th Ct  Doral, FL 33166",
    "location": "Flagler"
  },
  {
    "name": "JMG Adverstising",
    "description": "Advertising Agencies",
    "phone": "(954) 965-9791",
    "address": " 2544 N State Road 7  Hollywood, FL 33021",
    "location": "Flagler"
  },
  {
    "name": "Prospect Plastics",
    "description": "Signs",
    "phone": "(754) 900-4447",
    "address": " 836 NE 44th St  Oakland Park, FL 33334",
    "location": "Flagler"
  },
  {
    "name": "Gratefull Thread",
    "description": "T-Shirts",
    "phone": "(954) 572-8383",
    "address": " 10158 NW 47th St  Sunrise, FL 33351",
    "location": "Flagler"
  },
  {
    "name": "Reel Web Adveritising Inc",
    "description": "Advertising Specialties",
    "phone": "(954) 771-3325",
    "address": " 4520 NE 16th Ave  Oakland Park, FL 33334",
    "location": "Flagler"
  }
]
