[
  {
    "name": "Sunshine Advertising",
    "description": "Signs",
    "phone": "(850) 878-2000",
    "address": " 2017 Coffee Ln  Tallahassee, FL 32303",
    "location": "Gadsden"
  },
  {
    "name": "Tallahassee Advertiser",
    "description": "Print Advertising",
    "phone": "(850) 574-0520",
    "address": " 3471 N Monroe St  Tallahassee, FL 32303",
    "location": "Gadsden"
  },
  {
    "name": "STREET ADVERTISING...",
    "description": "Advertising Agencies",
    "phone": "(850) 274-3153",
    "address": " 480 W Tennessee St  Tallahassee, FL 32301",
    "location": "Gadsden"
  },
  {
    "name": "Florida Outdoor Advertising Association",
    "description": "Advertising Agencies",
    "phone": "(850) 224-5838",
    "address": " 314 N Gadsden St  Tallahassee, FL 32301",
    "location": "Gadsden"
  },
  {
    "name": "Hunter Owens Advertising",
    "description": "Advertising Agencies",
    "phone": "(850) 514-2211",
    "address": " 3351 N Monroe St  Tallahassee, FL 32303",
    "location": "Gadsden"
  },
  {
    "name": "The Pod Advertising",
    "description": "Internet Marketing & Advertising",
    "phone": "(850) 597-8374",
    "address": " 502 E Park Ave  Tallahassee, FL 32301",
    "location": "Gadsden"
  },
  {
    "name": "Cade & Associates Advertising",
    "description": "Advertising Agencies",
    "phone": "(850) 385-0300",
    "address": " 1645 Metropolitan Blvd  Tallahassee, FL 32308",
    "location": "Gadsden"
  },
  {
    "name": "Uzell Advertising",
    "description": "Advertising Agencies",
    "phone": "(850) 201-1991",
    "address": " 3522 Thomasville Rd Ste 300  Tallahassee, FL 32309",
    "location": "Gadsden"
  },
  {
    "name": "Pod Advertising",
    "description": "Advertising Agencies",
    "phone": "(850) 597-8374",
    "address": " 124 Marriott Dr  Tallahassee, FL 32301",
    "location": "Gadsden"
  },
  {
    "name": "Franceschi Advertising & Public Relations",
    "description": "Public Relations Counselors",
    "phone": "(850) 385-2900",
    "address": " 1911 Capital Cir NE  Tallahassee, FL 32308",
    "location": "Gadsden"
  },
  {
    "name": "Alcom Marketing & Advertising Inc",
    "description": "Advertising Specialties",
    "phone": "(850) 385-7762",
    "address": " 1827 Capital Cir NE  Tallahassee, FL 32308",
    "location": "Gadsden"
  },
  {
    "name": "Goodson J S & Partners Advertising",
    "description": "Advertising Agencies",
    "phone": "(850) 878-2322",
    "address": " 2829 Par Ln  Tallahassee, FL 32301",
    "location": "Gadsden"
  },
  {
    "name": "Alcom Marketing & Advertising",
    "description": "Advertising Specialties",
    "phone": "(850) 385-7762",
    "address": " 508 Capital Cir SE  Tallahassee, FL 32301",
    "location": "Gadsden"
  },
  {
    "name": "Lamar Advertising Co",
    "description": "Advertising Agencies",
    "phone": "(850) 877-4184",
    "address": " 4706 Capital Cir SW  Tallahassee, FL 32305",
    "location": "Gadsden"
  },
  {
    "name": "Adventures In Advertising",
    "description": "Advertising Agencies",
    "phone": "(850) 224-6819",
    "address": " 292 N Magnolia Dr  Tallahassee, FL 32301",
    "location": "Gadsden"
  },
  {
    "name": "Adventures in Advertising",
    "description": "Advertising Agencies",
    "phone": "(850) 224-6819",
    "address": " 507 Concord Rd  Tallahassee, FL 32308",
    "location": "Gadsden"
  },
  {
    "name": "Tallahassee Advertising",
    "description": "Advertising Agencies",
    "phone": "(850) 728-4322",
    "address": " 1311 Executive Center Dr  Tallahassee, FL 32301",
    "location": "Gadsden"
  },
  {
    "name": "Century Advertising",
    "description": "Bail Bonds",
    "phone": "(229) 243-7543",
    "address": " 834 Spring Creek Rd  Bainbridge, GA 39817",
    "location": "Gadsden"
  },
  {
    "name": "Advertising Guru",
    "description": "Advertising Agencies",
    "phone": "(229) 307-1972",
    "address": " 205 Bob Dixon Ln  Cairo, GA 39828",
    "location": "Gadsden"
  },
  {
    "name": "Ziffer Stansberrv Advertising & Public Relations",
    "description": "Public Relations Counselors",
    "phone": "(850) 668-0010",
    "address": " 3166 Baringer Hill Dr  Tallahassee, FL 32311",
    "location": "Gadsden"
  },
  {
    "name": "Perez Lynch & Partners Advertising",
    "description": "Advertising Agencies",
    "phone": "(850) 224-7204",
    "address": " 8629 Coach Rd  Tallahassee, FL 32309",
    "location": "Gadsden"
  },
  {
    "name": "Durra-Print",
    "description": "Advertising Specialties",
    "phone": "(850) 583-6395",
    "address": " 3044 W Tharpe St  Tallahassee, FL 32303",
    "location": "Gadsden"
  },
  {
    "name": "Emerald Coast Striping",
    "description": "Signs",
    "phone": "(850) 574-3831",
    "address": " 4454 Entrepot Blvd.  Tallahassee, FL 32310",
    "location": "Gadsden"
  },
  {
    "name": "Signs by Design of North Florida, Inc.",
    "description": "Communications Services",
    "phone": "(844) 457-5858",
    "address": " 6766 Circle J Dr  Tallahassee, FL 32312",
    "location": "Gadsden"
  }
]
