[
  {
    "name": "Wide Advertising",
    "description": "Advertising Agencies",
    "phone": "(407) 518-9712",
    "address": " 1700 Kelley Ave  Kissimmee, FL 34744",
    "location": "Gilchrist"
  },
  {
    "name": "Advertising Mania",
    "description": "Advertising Specialties",
    "phone": "(407) 846-1655",
    "address": " 1124 E Donegan Ave  Kissimmee, FL 34744",
    "location": "Gilchrist"
  },
  {
    "name": "Kempf; Affordable Advertising",
    "description": "Marketing Consultants",
    "phone": "(407) 390-0690",
    "address": " 3217 Running Bear Way  Kissimmee, FL 34746",
    "location": "Gilchrist"
  },
  {
    "name": "Affordable Advertising Kempf",
    "description": "Advertising Agencies",
    "phone": "(407) 239-1105",
    "address": " 5300 W Irlo Bronson Memorial Hwy  Kissimmee, FL 34746",
    "location": "Gilchrist"
  },
  {
    "name": "Vantage Advertising Trade Show",
    "description": "Advertising Agencies",
    "phone": "(315) 350-3058",
    "address": " 6000 W Osceola Pkwy  Kissimmee, FL 34746",
    "location": "Gilchrist"
  },
  {
    "name": "Dabbs Advertising",
    "description": "Advertising Agencies",
    "phone": "(407) 240-7096",
    "address": " 2714 Lone Feather Dr  Orlando, FL 32837",
    "location": "Gilchrist"
  },
  {
    "name": "Advertising and Classified",
    "description": "Advertising Specialties",
    "phone": "(407) 891-0662",
    "address": " 1102 Pennsylvania Ave  Saint Cloud, FL 34769",
    "location": "Gilchrist"
  },
  {
    "name": "Signal Outdoor Advertising",
    "description": "Transit Advertising",
    "phone": "(407) 856-7079",
    "address": " 7616 Southland Blvd Ste 114  Orlando, FL 32809",
    "location": "Gilchrist"
  },
  {
    "name": "Advertising Mania Inc",
    "description": "Advertising Agencies",
    "phone": "(407) 846-1655",
    "address": " 1050 Dean St  Saint Cloud, FL 34771",
    "location": "Gilchrist"
  },
  {
    "name": "Advertising Mania 2",
    "description": "Advertising Specialties",
    "phone": "(407) 498-0505",
    "address": " 1420 S Narcoossee Rd  Saint Cloud, FL 34771",
    "location": "Gilchrist"
  },
  {
    "name": "Global Advertising",
    "description": "Transit Advertising",
    "phone": "(407) 203-5812",
    "address": " 1707 Orlando Central Pkwy Ste 430  Orlando, FL 32809",
    "location": "Gilchrist"
  },
  {
    "name": "Bee Idea Advertising",
    "description": "Advertising Agencies",
    "phone": "(407) 351-3976",
    "address": " 7250 S Kirkman Rd  Orlando, FL 32819",
    "location": "Gilchrist"
  },
  {
    "name": "Quantum Leap Advertising",
    "description": "Advertising Agencies",
    "phone": "(407) 396-6300",
    "address": " 7901 Kingspointe Pkwy Ste 17  Orlando, FL 32819",
    "location": "Gilchrist"
  },
  {
    "name": "BMP Advertising",
    "description": "Television Stations & Broadcast Companies",
    "phone": "(866) 996-2673",
    "address": " 1650 Sand Lake Rd Ste 301  Orlando, FL 32809",
    "location": "Gilchrist"
  },
  {
    "name": "Florida Legal Advertising Inc",
    "description": "Legal Forms",
    "phone": "(407) 286-0807",
    "address": " 5728 Major Blvd Ste 610  Orlando, FL 32819",
    "location": "Gilchrist"
  },
  {
    "name": "Allure Advertising",
    "description": "Product Design, Development & Marketing",
    "phone": "(407) 719-4567",
    "address": " 5517 Hansel Ave Ste B  Orlando, FL 32809",
    "location": "Gilchrist"
  },
  {
    "name": "MakeSense Advertising",
    "description": "Directory & Guide Advertising",
    "phone": "(407) 255-2515",
    "address": " 5027 Commander Dr  Orlando, FL 32822",
    "location": "Gilchrist"
  },
  {
    "name": "All the way up Advertising & Promotions",
    "description": "Outdoor Advertising",
    "phone": "(585) 448-6804",
    "address": " 5969 Lee Vista Blvd  Orlando, FL 32822",
    "location": "Gilchrist"
  },
  {
    "name": "Radio Advertising 407-704-3271",
    "description": "Entertainment Agencies & Bureaus",
    "phone": "(407) 704-3282",
    "address": " 5530 Chrishire Way  Orlando, FL 32822",
    "location": "Gilchrist"
  },
  {
    "name": "Astonish Advertising",
    "description": "Advertising Specialties",
    "phone": "(321) 202-5949",
    "address": " 5301 Rosegay Ct  Orlando, FL 32811",
    "location": "Gilchrist"
  },
  {
    "name": "Nationwide Newspapers Advertising",
    "description": "Advertising Agencies",
    "phone": "(407) 909-1644",
    "address": " 5955 Masters Blvd  Orlando, FL 32819",
    "location": "Gilchrist"
  },
  {
    "name": "Advantage Advertising and Marketing",
    "description": "Copy Writers",
    "phone": "(407) 730-4172",
    "address": " 5132 Dockside Dr  Orlando, FL 32822",
    "location": "Gilchrist"
  },
  {
    "name": "LED Truck Advertising",
    "description": "Advertising Agencies",
    "phone": "(407) 577-4175",
    "address": " 400 Callawalk Ct  Davenport, FL 33896",
    "location": "Gilchrist"
  },
  {
    "name": "Florida Newspaper Advertising Network",
    "description": "Newspapers",
    "phone": "(407) 420-6100",
    "address": " 633 N Orange Ave  Orlando, FL 32801",
    "location": "Gilchrist"
  },
  {
    "name": "Royall Advertising",
    "description": "Marketing Programs & Services",
    "phone": "(407) 401-7479",
    "address": " 14 E Washington St  Orlando, FL 32801",
    "location": "Gilchrist"
  },
  {
    "name": "Advertising In Florida",
    "description": "Internet Marketing & Advertising",
    "phone": "(407) 675-3515",
    "address": " 111 N Orange Ave, 8th Floor, Suite 800  Orlando, FL 32801",
    "location": "Gilchrist"
  },
  {
    "name": "Bright Rain Advertising",
    "description": "Advertising Agencies",
    "phone": "(407) 440-3017",
    "address": " 733 W Smith St  Orlando, FL 32804",
    "location": "Gilchrist"
  },
  {
    "name": "Rcp Advertising & Marketing Inc",
    "description": "Advertising Agencies",
    "phone": "(407) 578-5955",
    "address": " 7849 Saint Andrews Cir  Orlando, FL 32835",
    "location": "Gilchrist"
  },
  {
    "name": "Higher Advertising & Pr Inc",
    "description": "Advertising Specialties",
    "phone": "(407) 447-1340",
    "address": " 30 S Magnolia Ave Ste 250  Orlando, FL 32801",
    "location": "Gilchrist"
  },
  {
    "name": "Creative Advertising Network",
    "description": "Advertising Agencies",
    "phone": "(407) 210-6566",
    "address": " 301 E Pine St  Orlando, FL 32801",
    "location": "Gilchrist"
  },
  {
    "name": "Dayner Hall Marketing & Advertising",
    "description": "Advertising Agencies",
    "phone": "(407) 206-1630",
    "address": " 621 E Pine St  Orlando, FL 32801",
    "location": "Gilchrist"
  },
  {
    "name": "VCI & Associates Advertising",
    "description": "Vacation Time Sharing Plans",
    "phone": "(866) 678-3204",
    "address": " 37 N Orange Ave Ste 617  Orlando, FL 32801",
    "location": "Gilchrist"
  },
  {
    "name": "Aura Advertising and Modeling Agency",
    "description": "Advertising Agencies",
    "phone": "(321) 230-9751",
    "address": " 37 N Orange Ave Ste 500  Orlando, FL 32801",
    "location": "Gilchrist"
  },
  {
    "name": "WHOISCARRUS Advertising",
    "description": "Advertising Agencies",
    "phone": "(407) 477-2528",
    "address": " 416 N Ferncreek Ave Ste A  Orlando, FL 32803",
    "location": "Gilchrist"
  },
  {
    "name": "CGS Advertising Group Inc",
    "description": "Advertising Agencies",
    "phone": "(407) 316-8070",
    "address": " 1212 Mount Vernon St  Orlando, FL 32803",
    "location": "Gilchrist"
  },
  {
    "name": "Grand Design Advertising Inc",
    "description": "Advertising Agencies",
    "phone": "(407) 599-0759",
    "address": " 7516 Old Winter Garden Rd  Orlando, FL 32835",
    "location": "Gilchrist"
  },
  {
    "name": "Kelso Outdoor Advertising",
    "description": "Transit Advertising",
    "phone": "(407) 648-7001",
    "address": " 212 Pasadena Pl  Orlando, FL 32803",
    "location": "Gilchrist"
  },
  {
    "name": "Jackson Advertising Inc",
    "description": "Advertising Agencies",
    "phone": "(407) 849-9995",
    "address": " 912 Highland Ave  Orlando, FL 32803",
    "location": "Gilchrist"
  },
  {
    "name": "Central Florida Mobile Advertisement",
    "description": "Advertising Specialties",
    "phone": "(407) 883-3169",
    "address": " 344 Canoe Trail Ln  Orlando, FL 32825",
    "location": "Gilchrist"
  },
  {
    "name": "Lamar Outdoor Advertising",
    "description": "Outdoor Advertising",
    "phone": "(407) 316-0036",
    "address": " 1468 N Goldenrod Rd  Orlando, FL 32807",
    "location": "Gilchrist"
  },
  {
    "name": "JKR Advertising & Marketing",
    "description": "Advertising Agencies",
    "phone": "(321) 397-0777",
    "address": " 1 S Orange Ave  Orlando, FL 32801",
    "location": "Gilchrist"
  },
  {
    "name": "Push Button Productions-Radio Advertising",
    "description": "Buttons-Advertising",
    "phone": "(888) 494-7874",
    "address": " 1 S Orange Ave Ste 306  Orlando, FL 32801",
    "location": "Gilchrist"
  },
  {
    "name": "United Advertising Agency Inc",
    "description": "Advertising Agencies",
    "phone": "(407) 422-2818",
    "address": " 612 N Orange Ave  Orlando, FL 32801",
    "location": "Gilchrist"
  },
  {
    "name": "The Group Advertising",
    "description": "Internet Marketing & Advertising",
    "phone": "(407) 898-2409",
    "address": " 1221 N Mills Ave Suite B  Orlando, FL 32803",
    "location": "Gilchrist"
  },
  {
    "name": "Capstone Advertising, Inc.",
    "description": "Advertising Specialties",
    "phone": "(863) 225-3670",
    "address": " 752 Lady Diana Dr  Davenport, FL 33837",
    "location": "Gilchrist"
  },
  {
    "name": "Maxmeda Outdoor Advertising",
    "description": "Advertising Agencies",
    "phone": "(407) 716-6547",
    "address": " 847 Golfview Ter  Winter Park, FL 32789",
    "location": "Gilchrist"
  },
  {
    "name": "MP advertising.com",
    "description": "Advertising Agencies",
    "phone": "(407) 324-3255",
    "address": " PO Box 3052 E. Jefferson Street  Orlando, FL 32802",
    "location": "Gilchrist"
  },
  {
    "name": "The Outdoor Advertising Specialists",
    "description": "Outdoor Advertising",
    "phone": "(407) 272-4010",
    "address": " 13350 W Colonial Dr Ste 330  Winter Garden, FL 34787",
    "location": "Gilchrist"
  },
  {
    "name": "Stalder Green Advertising",
    "description": "Advertising Agencies",
    "phone": "(407) 645-1113",
    "address": " 1101 N Kentucky Ave  Winter Park, FL 32789",
    "location": "Gilchrist"
  },
  {
    "name": "Lawyers Group Advertising",
    "description": "Advertising Agencies",
    "phone": "(321) 972-5620",
    "address": " 2729 W Fairbanks Ave  Winter Park, FL 32789",
    "location": "Gilchrist"
  },
  {
    "name": "A Plus Advertisement and Body Rental",
    "description": "Rental Service Stores & Yards",
    "phone": "(407) 250-6397",
    "address": " 10632 Jane Eyre Dr  Orlando, FL 32825",
    "location": "Gilchrist"
  },
  {
    "name": "A & A Advertising Specialties",
    "description": "Advertising-Promotional Products",
    "phone": "(407) 381-5799",
    "address": " 2414 Teton Stone Run  Orlando, FL 32828",
    "location": "Gilchrist"
  },
  {
    "name": "Continental Outdoor Advertising",
    "description": "Outdoor Advertising",
    "phone": "(407) 628-9988",
    "address": " 2250 Lee Rd  Winter Park, FL 32789",
    "location": "Gilchrist"
  },
  {
    "name": "Jose Aldamuy Advertising",
    "description": "Advertising Agencies",
    "phone": "(407) 877-8451",
    "address": " 102 W Story Rd  Winter Garden, FL 34787",
    "location": "Gilchrist"
  },
  {
    "name": "Stadler-Green Advertising",
    "description": "Advertising Agencies",
    "phone": "(407) 667-4800",
    "address": " 1800 Pembrook Dr  Orlando, FL 32810",
    "location": "Gilchrist"
  },
  {
    "name": "Free Online Advertising",
    "description": "Internet Marketing & Advertising",
    "phone": "(866) 238-5791",
    "address": " 1875 Knight Ave  Orlando, FL 32826",
    "location": "Gilchrist"
  },
  {
    "name": "Frank Murphy Advertising",
    "description": "Outdoor Advertising",
    "phone": "(407) 539-2771",
    "address": " 9029 Lake Hope Dr  Maitland, FL 32751",
    "location": "Gilchrist"
  },
  {
    "name": "Jerry Defalco Advertising",
    "description": "Advertising Agencies",
    "phone": "(407) 661-3131",
    "address": " 1060 Maitland Center Commons Blvd Ste 410  Maitland, FL 32751",
    "location": "Gilchrist"
  },
  {
    "name": "Bernard Hodes Advertising Inc",
    "description": "Advertising Agencies",
    "phone": "(407) 740-5002",
    "address": " 1101 N Lake Destiny Rd Ste 300  Maitland, FL 32751",
    "location": "Gilchrist"
  },
  {
    "name": "Sid Paterson Advertising",
    "description": "Advertising Specialties",
    "phone": "(407) 542-6008",
    "address": " 2937 Ashford Park Pl  Oviedo, FL 32765",
    "location": "Gilchrist"
  },
  {
    "name": "Community Services Advertising",
    "description": "Social Service Organizations",
    "phone": "(407) 644-2699",
    "address": " 533 W New England Ave  Winter Park, FL 32789",
    "location": "Gilchrist"
  },
  {
    "name": "DeHarris Advertising & Promotions",
    "description": "Advertising-Promotional Products",
    "phone": "(407) 202-2370",
    "address": " 934 S Central Ave  Apopka, FL 32703",
    "location": "Gilchrist"
  },
  {
    "name": "Su Advertising Inc",
    "description": "Advertising Specialties",
    "phone": "(407) 737-3605",
    "address": " 1417 Sherman St Ste 202  Orlando, FL 32828",
    "location": "Gilchrist"
  },
  {
    "name": "No Limit Marketing and Advertising",
    "description": "Internet Marketing & Advertising",
    "phone": "(321) 400-6116",
    "address": " 2789 Wrights Rd Ste 1009  Oviedo, FL 32765",
    "location": "Gilchrist"
  },
  {
    "name": "Gillman Advertising Specialties",
    "description": "Advertising Agencies",
    "phone": "(407) 331-5111",
    "address": " 657 Maitland Ave  Altamonte Springs, FL 32701",
    "location": "Gilchrist"
  },
  {
    "name": "Signal Out Door Advertising",
    "description": "Advertising Specialties",
    "phone": "(407) 856-7079",
    "address": " 101 Sunnytown Rd Ste 312  Casselberry, FL 32707",
    "location": "Gilchrist"
  },
  {
    "name": "Quick Advertising, Inc.",
    "description": "Signs",
    "phone": "(407) 774-0003",
    "address": " 3030 E Semoran Blvd Ste 156  Apopka, FL 32703",
    "location": "Gilchrist"
  },
  {
    "name": "Genius Advertising & Marketing",
    "description": "Advertising Agencies",
    "phone": "(407) 682-3037",
    "address": " 864 Little Bend Rd  Altamonte Springs, FL 32714",
    "location": "Gilchrist"
  },
  {
    "name": "Tc Commercial Advertising Sales",
    "description": "Advertising Specialties",
    "phone": "(888) 224-4836",
    "address": " 911 N State Road 434  Altamonte Springs, FL 32714",
    "location": "Gilchrist"
  },
  {
    "name": "Go Digital Advertising",
    "description": "Internet Marketing & Advertising",
    "phone": "(407) 497-7198",
    "address": " 2735 W State Road 434  Longwood, FL 32779",
    "location": "Gilchrist"
  },
  {
    "name": "JKR Advertising & Marketings",
    "description": "Advertising Agencies",
    "phone": "(321) 397-0777",
    "address": " 195 Wekiva Springs Rd  Longwood, FL 32779",
    "location": "Gilchrist"
  },
  {
    "name": "DeFalco Advertising",
    "description": "Advertising Agencies",
    "phone": "(407) 551-0303",
    "address": " 1441 S Grant St  Longwood, FL 32750",
    "location": "Gilchrist"
  },
  {
    "name": "Fax IT Advertising",
    "description": "Advertising Agencies",
    "phone": "(407) 339-4555",
    "address": " 1499 Robert St  Longwood, FL 32750",
    "location": "Gilchrist"
  },
  {
    "name": "Chance Advertising Agency",
    "description": "Audio-Visual Creative Services",
    "phone": "(407) 788-0028",
    "address": " 2484 W. Sr 434 #208  Longwood, FL 32779",
    "location": "Gilchrist"
  },
  {
    "name": "Nationwide Marketing and Advertising",
    "description": "Advertising Agencies",
    "phone": "(407) 814-3929",
    "address": " 1077 W Orange Blossom Trl  Apopka, FL 32712",
    "location": "Gilchrist"
  },
  {
    "name": "Divine Outdoor Advertising Inc",
    "description": "Outdoor Advertising",
    "phone": "(352) 394-4850",
    "address": " 11410 Cypress Dr  Clermont, FL 34711",
    "location": "Gilchrist"
  },
  {
    "name": "Gilbert Manjura Marketing and Advertising",
    "description": "Advertising Agencies",
    "phone": "(407) 261-5739",
    "address": " 346 Freeman St  Longwood, FL 32750",
    "location": "Gilchrist"
  },
  {
    "name": "Advantage Signs & Advertising",
    "description": "Signs",
    "phone": "(407) 339-7446",
    "address": " 1983 Corporate Sq  Longwood, FL 32750",
    "location": "Gilchrist"
  },
  {
    "name": "Innovative Advertising Inc",
    "description": "Advertising Agencies",
    "phone": "(407) 814-7800",
    "address": " 2436 Cedar Knoll Dr  Apopka, FL 32712",
    "location": "Gilchrist"
  },
  {
    "name": "The Advertiser Of Polk County",
    "description": "Newspapers",
    "phone": "(863) 299-2201",
    "address": " 1122 5th St SW  Winter Haven, FL 33880",
    "location": "Gilchrist"
  },
  {
    "name": "Shiver Outdoor Advertising",
    "description": "Transit Advertising",
    "phone": "(407) 889-7734",
    "address": " 3367 N Washington St  Zellwood, FL 32798",
    "location": "Gilchrist"
  },
  {
    "name": "Action Signs & Advertising",
    "description": "Signs",
    "phone": "(863) 678-0500",
    "address": " 107 E Polk Ave  Lake Wales, FL 33853",
    "location": "Gilchrist"
  },
  {
    "name": "Blue Skies Advertising Inc",
    "description": "Advertising Specialties",
    "phone": "(407) 687-2961",
    "address": " 204 Teakwood Ct  Lake Mary, FL 32746",
    "location": "Gilchrist"
  },
  {
    "name": "Advertising Specialty Institute",
    "description": "Advertising Agencies",
    "phone": "(407) 430-3698",
    "address": " 4300 W Lake Mary Blvd  Lake Mary, FL 32746",
    "location": "Gilchrist"
  },
  {
    "name": "Advertising Solutions & Printing",
    "description": "Advertising Agencies",
    "phone": "(863) 291-6808",
    "address": " 3191 Recker Hwy  Winter Haven, FL 33880",
    "location": "Gilchrist"
  },
  {
    "name": "Iceberg Advertising",
    "description": "Print Advertising",
    "phone": "(407) 486-8478",
    "address": " 3415 W Lake Mary Blvd  Lake Mary, FL 32746",
    "location": "Gilchrist"
  },
  {
    "name": "Evok Advertising",
    "description": "Advertising Agencies",
    "phone": "(407) 302-4416",
    "address": " 152 N 4th St  Lake Mary, FL 32746",
    "location": "Gilchrist"
  },
  {
    "name": "Marketleverage Interactive Advertising",
    "description": "Advertising Specialties",
    "phone": "(407) 268-7648",
    "address": " 1515 International Pkwy  Lake Mary, FL 32746",
    "location": "Gilchrist"
  },
  {
    "name": "Advertising Networks of Florida",
    "description": "Advertising-Shoppers Publications",
    "phone": "(866) 742-1373",
    "address": " 610 Crescent Executive Ct Ste 112  Lake Mary, FL 32746",
    "location": "Gilchrist"
  },
  {
    "name": "Evok Advertising & Design Inc - CLOSED",
    "description": "Advertising Agencies",
    "phone": "(321) 281-8105",
    "address": " 2500 Kunze Ave  Orlando, FL 32806",
    "location": "Gilchrist"
  },
  {
    "name": "Outdoor Images Inc",
    "description": "Signs",
    "phone": "(321) 270-0560",
    "address": " 4061 Forrestal Ave Unit 2  Orlando, FL 32806",
    "location": "Gilchrist"
  },
  {
    "name": "Signal Outdoor Advertisin",
    "description": "Outdoor Advertising",
    "phone": "(407) 856-7079",
    "address": " 3740 All American Blvd  Orlando, FL 32810",
    "location": "Gilchrist"
  },
  {
    "name": "Gulf State Signs",
    "description": "Audio-Visual Creative Services",
    "phone": "(863) 967-0659",
    "address": " 1305 42nd St NW  Winter Haven, FL 33881",
    "location": "Gilchrist"
  },
  {
    "name": "Sunstate Awnings",
    "description": "Building Contractors-Commercial & Industrial",
    "phone": "(386) 868-4507",
    "address": " 50 Keyes Ave  Sanford, FL 32773",
    "location": "Gilchrist"
  }
]
