[
  {
    "name": "Afrovisions Pr Advertising Inc",
    "description": "Advertising Agencies",
    "phone": "(305) 949-8239",
    "address": " 1348 NE 147th St  Miami, FL 33161",
    "location": "Glades"
  },
  {
    "name": "Ninth Wonder Marketing & Advertising Corp.",
    "description": "Internet Marketing & Advertising",
    "phone": "(305) 707-0742",
    "address": " 18350 NW 2nd Ave  miami, FL 33169",
    "location": "Glades"
  },
  {
    "name": "GERDI DISCUA MEDIA ADVERTISING",
    "description": "Radio & Television Broadcasting Schools",
    "phone": "(786) 702-7777",
    "address": " 13499 Biscayne Blvd  Miami, FL 33179",
    "location": "Glades"
  },
  {
    "name": "Syndicate Marketing And Advertising",
    "description": "Marketing Consultants",
    "phone": "(305) 454-9614",
    "address": " 18800 NW 2nd Ave Ste 117  Miami, FL 33169",
    "location": "Glades"
  },
  {
    "name": "Extreme Advertising",
    "description": "Marketing Programs & Services",
    "phone": "(305) 761-1434",
    "address": " 18730 NW 8th Ave  Miami, FL 33169",
    "location": "Glades"
  },
  {
    "name": "Matrix2 Advertising",
    "description": "Interactive Media",
    "phone": "(305) 591-7672",
    "address": " 1903 NW 97th St  Miami, FL 33147",
    "location": "Glades"
  },
  {
    "name": "Starlight Advertising Specialty",
    "description": "Advertising Agencies",
    "phone": "(305) 438-0098",
    "address": " 3550 Biscayne Blvd  Miami, FL 33137",
    "location": "Glades"
  },
  {
    "name": "Barnstormers Aerial Advertising",
    "description": "Advertising-Aerial",
    "phone": "(866) 458-1268",
    "address": " 3259 Biscayne Blvd  Miami, FL 33181",
    "location": "Glades"
  },
  {
    "name": "Rapid Media Advertising",
    "description": "Marketing Consultants",
    "phone": "(786) 373-8082",
    "address": " 3000 Biscayne Blvd  Miami, FL 33137",
    "location": "Glades"
  },
  {
    "name": "Arena Advertising Inc",
    "description": "Advertising Agencies",
    "phone": "(305) 466-5551",
    "address": " 3370 NE 190th St  Miami, FL 33180",
    "location": "Glades"
  },
  {
    "name": "Jofre Advertising",
    "description": "Advertising Specialties",
    "phone": "(305) 740-8199",
    "address": " 8520 NW 31st Ct  Miami, FL 33147",
    "location": "Glades"
  },
  {
    "name": "Opg Media Advertising Inc",
    "description": "Advertising Agencies",
    "phone": "(786) 704-1401",
    "address": " 5305 NW 2nd Ave  Miami, FL 33127",
    "location": "Glades"
  },
  {
    "name": "Gold Coast Advertising Associates Inc",
    "description": "Advertising Agencies",
    "phone": "(305) 576-4141",
    "address": " 4141 NE 2nd Ave  Miami, FL 33137",
    "location": "Glades"
  },
  {
    "name": "Thinkpenny Advertising and Design",
    "description": "Advertising Specialties",
    "phone": "(305) 576-7500",
    "address": " 29 NE 40th St  Miami, FL 33137",
    "location": "Glades"
  },
  {
    "name": "Concept Cafe Advertising",
    "description": "Coffee Shops",
    "phone": "(305) 856-4567",
    "address": " 3930 NE 2nd Ave Ste 200  Miami, FL 33137",
    "location": "Glades"
  },
  {
    "name": "Union Aquarius Advertising Inc",
    "description": "Advertising Specialties",
    "phone": "(305) 629-8232",
    "address": " 737 NW 36th St  Miami, FL 33127",
    "location": "Glades"
  },
  {
    "name": "D V Advertising",
    "description": "Advertising Agencies",
    "phone": "(786) 542-6625",
    "address": " 3050 Biscayne Blvd  Miami, FL 33137",
    "location": "Glades"
  },
  {
    "name": "Executive Advertising Group",
    "description": "Advertising Agencies",
    "phone": "(305) 597-5454",
    "address": " 2930 Biscayne Blvd  Miami, FL 33137",
    "location": "Glades"
  },
  {
    "name": "Beber Slverstein Partners Advertising",
    "description": "Advertising Agencies",
    "phone": "(305) 856-9800",
    "address": " 89 NE 27th St  Miami, FL 33137",
    "location": "Glades"
  },
  {
    "name": "Hayday Advertising",
    "description": "Advertising Agencies",
    "phone": "(786) 410-2886",
    "address": " 3199 NW 36th St  Miami, FL 33142",
    "location": "Glades"
  },
  {
    "name": "Sarmiento Advertising Group",
    "description": "Advertising Specialties",
    "phone": "(305) 400-9991",
    "address": " 2610 N Miami Ave  Miami, FL 33127",
    "location": "Glades"
  },
  {
    "name": "Brain Switch Advertising",
    "description": "Advertising Agencies",
    "phone": "(305) 576-1415",
    "address": " 250 NW 23rd St  Miami, FL 33127",
    "location": "Glades"
  },
  {
    "name": "ADVERTISING TECHNOLOGIES",
    "description": "Technology-Research & Development",
    "phone": "(786) 409-1653",
    "address": " 555 NE 15th St Ste 200  Miami, FL 33132",
    "location": "Glades"
  },
  {
    "name": "New York Times Advertising Office",
    "description": "Newspapers",
    "phone": "(305) 379-1601",
    "address": " 1000 Biscayne Blvd  Miami, FL 33132",
    "location": "Glades"
  },
  {
    "name": "Fury Advertising",
    "description": "Business Coaches & Consultants",
    "phone": "(305) 394-5626",
    "address": " 990 Biscayne Blvd  Miami, FL 33132",
    "location": "Glades"
  },
  {
    "name": "Next Step Advertising Inc",
    "description": "Newspapers",
    "phone": "(305) 371-4428",
    "address": " 1444 Biscayne Blvd  Miami, FL 33132",
    "location": "Glades"
  },
  {
    "name": "Tinsley Advertising",
    "description": "Advertising Agencies",
    "phone": "(305) 856-6060",
    "address": " 2000 S Dixie Hwy Ste 201  Miami, FL 33133",
    "location": "Glades"
  },
  {
    "name": "International Brazilian Advertising Corp",
    "description": "Publishers-Periodical",
    "phone": "(305) 374-5235",
    "address": " 905 Brickell Bay Dr  Miami, FL 33131",
    "location": "Glades"
  },
  {
    "name": "AB ADVERTISING INC",
    "description": "Advertising-Promotional Products",
    "phone": "(786) 720-4648",
    "address": " 229 SW 32nd Court Rd  Miami, FL 33135",
    "location": "Glades"
  },
  {
    "name": "Protected Internet Advertising LLC",
    "description": "Internet Consultants",
    "phone": "(786) 233-0597",
    "address": " 6955 NW 52nd St  Miami, FL 33166",
    "location": "Glades"
  },
  {
    "name": "Jemsu Miami Seo & Digital Advertising",
    "description": "Advertising Agencies",
    "phone": "(305) 440-4946",
    "address": " 601 Brickell Key Dr  Miami, FL 33131",
    "location": "Glades"
  },
  {
    "name": "Florida Advertising Balloons",
    "description": "Advertising Agencies",
    "phone": "(800) 805-0276",
    "address": " 80 SW 8th St  Miami, FL 33130",
    "location": "Glades"
  },
  {
    "name": "Ab+A Advertising",
    "description": "Advertising Agencies",
    "phone": "(305) 859-8989",
    "address": " 1235 Coral Way  Miami, FL 33145",
    "location": "Glades"
  },
  {
    "name": "MSM Advertising & Logistics",
    "description": "Advertising-Promotional Products",
    "phone": "(786) 717-7558",
    "address": " 7311 NW 12th St #17  Miami, FL 33126",
    "location": "Glades"
  },
  {
    "name": "Yachting Advertising",
    "description": "Advertising Agencies",
    "phone": "(786) 514-7472",
    "address": " 3517 SW 26th St  Miami, FL 33133",
    "location": "Glades"
  },
  {
    "name": "Play Advertising",
    "description": "Marketing Consultants",
    "phone": "(305) 571-3515",
    "address": " 7371 SW 8th St  Miami, FL 33144",
    "location": "Glades"
  },
  {
    "name": "Bodner Advertising",
    "description": "Advertising Specialties",
    "phone": "(305) 874-7070",
    "address": " 5600 NW 36th St  Miami, FL 33166",
    "location": "Glades"
  },
  {
    "name": "Mev Advertising",
    "description": "Computer Online Services",
    "phone": "(800) 386-4524",
    "address": " 66 W Flagler St Ste 502  Miami, FL 33130",
    "location": "Glades"
  },
  {
    "name": "Triumph Advertising",
    "description": "Advertising Agencies",
    "phone": "(305) 545-0168",
    "address": " 1143 W Flagler St  Miami, FL 33130",
    "location": "Glades"
  },
  {
    "name": "FWC Advertising",
    "description": "Advertising Agencies",
    "phone": "(305) 913-1337",
    "address": " 201 S Biscayne Blvd  Miami, FL 33131",
    "location": "Glades"
  },
  {
    "name": "C & P Video Advertising System",
    "description": "Advertising Agencies",
    "phone": "(305) 649-4030",
    "address": " 1393 SW 1st St  Miami, FL 33135",
    "location": "Glades"
  },
  {
    "name": "Z Advertising Group",
    "description": "Advertising Agencies",
    "phone": "(786) 871-7286",
    "address": " 175 SW 7th St Ste 2107  Miami, FL 33130",
    "location": "Glades"
  },
  {
    "name": "SMART ADVERTISING",
    "description": "Product Design, Development & Marketing",
    "phone": "(786) 357-1422",
    "address": " 8054 NW 64th St  Miami, FL 33166",
    "location": "Glades"
  },
  {
    "name": "Global Advertising Inc",
    "description": "Advertising Specialties",
    "phone": "(305) 477-1020",
    "address": " 8282 NW 66th St  Miami, FL 33166",
    "location": "Glades"
  },
  {
    "name": "Parking Garage Advertising",
    "description": "Advertising Agencies",
    "phone": "(954) 558-4975",
    "address": " 1637 SW 8th St  Miami, FL 33135",
    "location": "Glades"
  },
  {
    "name": "Kaos Advertising",
    "description": "Advertising Specialties",
    "phone": "(305) 381-8383",
    "address": " 1110 Brickell Ave Ste 804  Miami, FL 33131",
    "location": "Glades"
  },
  {
    "name": "Handy Advertising",
    "description": "Advertising Specialties",
    "phone": "(786) 433-8140",
    "address": " 7950 NW 53rd St  Miami, FL 33166",
    "location": "Glades"
  },
  {
    "name": "Las Advertising Specialties",
    "description": "Advertising Specialties",
    "phone": "(305) 463-9482",
    "address": " 3399 NW 72nd Ave Ste 117  Miami, FL 33122",
    "location": "Glades"
  },
  {
    "name": "Miami Business Advertising",
    "description": "Advertising Agencies",
    "phone": "(305) 807-2413",
    "address": " 2529 SW 8th St  Miami, FL 33135",
    "location": "Glades"
  },
  {
    "name": "Union Aquarius Advertising",
    "description": "Advertising Agencies",
    "phone": "(305) 594-0626",
    "address": " 7374 NW 35th Ter  Miami, FL 33122",
    "location": "Glades"
  },
  {
    "name": "Tag Advertising",
    "description": "Advertising Agencies",
    "phone": "(305) 577-9988",
    "address": " 75 SW 15th Rd  Miami, FL 33129",
    "location": "Glades"
  },
  {
    "name": "Goal Advertising",
    "description": "Advertising Specialties",
    "phone": "(305) 463-9466",
    "address": " 2365 NW 70th Ave  Miami, FL 33122",
    "location": "Glades"
  },
  {
    "name": "Excel Advertising",
    "description": "Advertising Agencies",
    "phone": "(305) 856-7083",
    "address": " 2600 SW 3rd Ave  Miami, FL 33129",
    "location": "Glades"
  },
  {
    "name": "Innovo Advertising",
    "description": "Marketing Programs & Services",
    "phone": "(305) 741-2591",
    "address": " 6101 Waterford District Dr  Miami, FL 33126",
    "location": "Glades"
  },
  {
    "name": "Florida Advertising and Marketing Corp",
    "description": "Advertising Agencies",
    "phone": "(786) 718-1578",
    "address": " 7500 NW 25th St Ste 292  Miami, FL 33122",
    "location": "Glades"
  },
  {
    "name": "Chisholm Advertising",
    "description": "Advertising Agencies",
    "phone": "(305) 648-4712",
    "address": " 1205 SW 37th Ave  Miami, FL 33135",
    "location": "Glades"
  },
  {
    "name": "Jay Lawrence Advertising Co",
    "description": "Advertising Agencies",
    "phone": "(305) 860-1200",
    "address": " 1840 Coral Way  Miami, FL 33145",
    "location": "Glades"
  },
  {
    "name": "Creative Hands Advertising & Promotions Inc",
    "description": "T-Shirts",
    "phone": "(305) 264-1040",
    "address": " 240 NW 62nd Ave  Miami, FL 33126",
    "location": "Glades"
  },
  {
    "name": "Superior Mobile Advertising",
    "description": "Advertising Specialties",
    "phone": "(305) 266-5676",
    "address": " 777 NW 72nd Ave  Miami, FL 33126",
    "location": "Glades"
  },
  {
    "name": "Out of the Blue Advertising",
    "description": "Advertising Agencies",
    "phone": "(305) 442-2431",
    "address": " 2424 S Dixie Hwy Ste 100  Miami, FL 33133",
    "location": "Glades"
  },
  {
    "name": "Martin Schleifer Advertising",
    "description": "Advertising Agencies",
    "phone": "(305) 442-7272",
    "address": " 2915 SW 27th Ave  Miami, FL 33133",
    "location": "Glades"
  },
  {
    "name": "SBS Advertising & Sales",
    "description": "Advertising-Broadcast & Film",
    "phone": "(305) 446-3900",
    "address": " 2601 S Bayshore Dr  Miami, FL 33133",
    "location": "Glades"
  },
  {
    "name": "National Advertising USA, Inc.",
    "description": "Internet Marketing & Advertising",
    "phone": "(786) 393-2394",
    "address": " 275 Fontainebleau Blvd Apt 170  Miami, FL 33172",
    "location": "Glades"
  },
  {
    "name": "Fys Advertising",
    "description": "Advertising-Promotional Products",
    "phone": "(786) 641-5100",
    "address": " 175 Fontainebleau Blvd  Miami, FL 33172",
    "location": "Glades"
  },
  {
    "name": "Innova Hispanic Advertising , Inc.",
    "description": "Advertising Specialties",
    "phone": "(305) 424-9020",
    "address": " 90 SW 3rd St  Miami, FL 33130",
    "location": "Glades"
  },
  {
    "name": "Miami Billboard Advertising & SEO",
    "description": "Advertising Agencies",
    "phone": "(305) 370-9973",
    "address": " 501 Marlins Way  Miami, FL 33125",
    "location": "Glades"
  },
  {
    "name": "Internet Marketing & Advertising",
    "description": "Advertising Agencies",
    "phone": "(786) 220-1080",
    "address": " 46 SE 1st St  Miami, FL 33131",
    "location": "Glades"
  },
  {
    "name": "Creative Minds Advertising",
    "description": "Advertising Agencies",
    "phone": "(305) 392-6313",
    "address": " 2801 NW 74th Ave  Miami, FL 33122",
    "location": "Glades"
  },
  {
    "name": "Inter Americas International Advertising",
    "description": "Advertising Specialties",
    "phone": "(305) 592-1202",
    "address": " 1900 NW 92nd Ave  Miami, FL 33172",
    "location": "Glades"
  },
  {
    "name": "Cexi Prints & Advertising Inc.",
    "description": "Print Advertising",
    "phone": "(786) 401-7935",
    "address": " 210 N Miami Ave  Miami, FL 33128",
    "location": "Glades"
  },
  {
    "name": "Bargay Advertising",
    "description": "Advertising-Promotional Products",
    "phone": "(305) 221-9299",
    "address": " 911 SW 122nd Ave  Miami, FL 33184",
    "location": "Glades"
  },
  {
    "name": "Alea Advertising",
    "description": "Advertising Agencies",
    "phone": "(786) 533-8660",
    "address": " 13812 SW 8th St  Miami, FL 33184",
    "location": "Glades"
  },
  {
    "name": "Majors Advertising",
    "description": "Advertising Specialties",
    "phone": "(305) 266-6734",
    "address": " 7360 Coral Way  Miami, FL 33155",
    "location": "Glades"
  },
  {
    "name": "Direct Response Advertising",
    "description": "Advertising Specialties",
    "phone": "(305) 554-1516",
    "address": " 8746 SW 8th St  Miami, FL 33174",
    "location": "Glades"
  },
  {
    "name": "Specialty Advertising",
    "description": "Advertising Agencies",
    "phone": "(786) 566-3753",
    "address": " 8701 SW 12th St  Miami, FL 33174",
    "location": "Glades"
  },
  {
    "name": "Jr Specialty Advertising",
    "description": "Advertising Specialties",
    "phone": "(305) 267-3977",
    "address": " 8340 SW 18th St  Miami, FL 33155",
    "location": "Glades"
  },
  {
    "name": "Signal Outdoor Advertising",
    "description": "Outdoor Advertising",
    "phone": "(305) 969-6100",
    "address": " 1835 NW 112th Ave  Miami, FL 33172",
    "location": "Glades"
  },
  {
    "name": "Advertising Unlimited Corp",
    "description": "Advertising Specialties",
    "phone": "(786) 452-7605",
    "address": " 9600 SW 8th St  Miami, FL 33174",
    "location": "Glades"
  },
  {
    "name": "Mexico Advertising Inc",
    "description": "Advertising Agencies",
    "phone": "(786) 409-2811",
    "address": " 4180 SW 74th Ct Ste 207  Miami, FL 33155",
    "location": "Glades"
  },
  {
    "name": "A Roxana Advertising Specialties Inc",
    "description": "Advertising Specialties",
    "phone": "(305) 221-0702",
    "address": " 9657 SW 18th Ter  Miami, FL 33165",
    "location": "Glades"
  },
  {
    "name": "Advertising Adone",
    "description": "Advertising Agencies",
    "phone": "(786) 637-2976",
    "address": " 4711 SW 75th Ave  Miami, FL 33155",
    "location": "Glades"
  },
  {
    "name": "Rebrand Advertising",
    "description": "Print Advertising",
    "phone": "(786) 360-6848",
    "address": " 5001 SW 74th Ct Ste 209  miami, FL 33155",
    "location": "Glades"
  },
  {
    "name": "Playbill Magazine Advertising",
    "description": "Publishers-Periodical",
    "phone": "(305) 665-9001",
    "address": " 5470 SW 70th Pl N  Miami, FL 33155",
    "location": "Glades"
  },
  {
    "name": "Adone Advertising",
    "description": "Advertising Specialties",
    "phone": "(786) 637-2976",
    "address": " 4033 SW 96th Ave  Miami, FL 33165",
    "location": "Glades"
  },
  {
    "name": "Video & Advertising Productions",
    "description": "Advertising-Broadcast & Film",
    "phone": "(786) 355-9531",
    "address": " 4941 SW 87th Pl  Miami, FL 33165",
    "location": "Glades"
  },
  {
    "name": "Calvet Advertising",
    "description": "Advertising-Promotional Products",
    "phone": "(305) 275-9969",
    "address": " 12454 NW 7th Ln  Miami, FL 33182",
    "location": "Glades"
  },
  {
    "name": "Florida Advertising Group",
    "description": "Advertising Agencies",
    "phone": "(305) 988-5192",
    "address": " 11890 SW 8th St  Miami, FL 33184",
    "location": "Glades"
  },
  {
    "name": "Christopher Advertising Group",
    "description": "Advertising Agencies",
    "phone": "(305) 777-0319",
    "address": " 5900 SW 96th St  Miami, FL 33156",
    "location": "Glades"
  },
  {
    "name": "Gmg Advertising",
    "description": "Advertising Agencies",
    "phone": "(305) 752-2512",
    "address": " 13500 SW 88th St  Miami, FL 33186",
    "location": "Glades"
  },
  {
    "name": "Blackdog Advertising & Design",
    "description": "Directory & Guide Advertising",
    "phone": "(305) 253-8388",
    "address": " 8771 SW 129th Ter  Miami, FL 33176",
    "location": "Glades"
  },
  {
    "name": "Integrity Advertising Group",
    "description": "Advertising Agencies",
    "phone": "(305) 799-0226",
    "address": " 7520 SW 107th Ave  Miami, FL 33173",
    "location": "Glades"
  },
  {
    "name": "A Roxana Advertising",
    "description": "Advertising Agencies",
    "phone": "(305) 221-0702",
    "address": " 10221 SW 82nd Ct  Miami, FL 33156",
    "location": "Glades"
  },
  {
    "name": "Poller & Jordan Advertising Agency",
    "description": "Advertising Specialties",
    "phone": "(305) 598-0835",
    "address": " 11125 SW 113th Pl  Miami, FL 33176",
    "location": "Glades"
  },
  {
    "name": "Allstar Advertising, Inc",
    "description": "Advertising-Promotional Products",
    "phone": "(305) 803-8622",
    "address": " 13725 SW 84th St  Miami, FL 33183",
    "location": "Glades"
  },
  {
    "name": "Ana Advertising Inc",
    "description": "Advertising Agencies",
    "phone": "(305) 477-6175",
    "address": " 8000 SW 149th Ave  Miami, FL 33193",
    "location": "Glades"
  },
  {
    "name": "Roundrock Advertising",
    "description": "Advertising Agencies",
    "phone": "(305) 484-1734",
    "address": " 7430 SW 153rd Pl  Miami, FL 33193",
    "location": "Glades"
  },
  {
    "name": "Advertising Consumer Corp",
    "description": "Advertising Agencies",
    "phone": "(305) 408-4454",
    "address": " 13855 SW 102nd Ter  Miami, FL 33186",
    "location": "Glades"
  },
  {
    "name": "merchandising, advertising",
    "description": "Merchandising Service",
    "phone": "(786) 413-5253",
    "address": " 12485 SW 122nd Ct  Miami, FL 33186",
    "location": "Glades"
  },
  {
    "name": "Bluelion Advertising",
    "description": "Advertising Agencies",
    "phone": "(305) 971-2152",
    "address": " 15715 S Dixie Hwy  Miami, FL 33157",
    "location": "Glades"
  },
  {
    "name": "LVL Advertising and Marketing Group",
    "description": "Internet Marketing & Advertising",
    "phone": "(786) 657-4577",
    "address": " 15041 SW 89th Terrace Rd  Miami, FL 33196",
    "location": "Glades"
  },
  {
    "name": "Extra Advertising",
    "description": "Advertising Agencies",
    "phone": "(305) 387-0074",
    "address": " 15744 SW 85th Ln  Miami, FL 33193",
    "location": "Glades"
  },
  {
    "name": "Mojo Media Miami International Advertising & Interactive",
    "description": "Advertising Agencies",
    "phone": "(786) 274-6656",
    "address": " 9563 SW 145th Ct  Miami, FL 33186",
    "location": "Glades"
  },
  {
    "name": "Group M Advertising & Design",
    "description": "Graphic Designers",
    "phone": "(305) 235-2538",
    "address": " 12350 SW 132nd Ct  Miami, FL 33186",
    "location": "Glades"
  },
  {
    "name": "Grace Marketing & Advertising",
    "description": "Marketing Programs & Services",
    "phone": "(305) 255-3926",
    "address": " 12360 SW 132nd Ct  Miami, FL 33186",
    "location": "Glades"
  },
  {
    "name": "Additives Advertising Co",
    "description": "Advertising Agencies",
    "phone": "(305) 256-9603",
    "address": " 13305 SW 124th St  Miami, FL 33186",
    "location": "Glades"
  },
  {
    "name": "Nac Telemarketing & Advertising",
    "description": "Telemarketing Services",
    "phone": "(786) 662-3964",
    "address": " 13131 SW 132nd St  Miami, FL 33186",
    "location": "Glades"
  },
  {
    "name": "Jireh Advertising Service",
    "description": "Advertising Specialties",
    "phone": "(786) 391-1722",
    "address": " 13210 SW 132nd Ave  Miami, FL 33186",
    "location": "Glades"
  },
  {
    "name": "Dyls Advertising Group Corp",
    "description": "Advertising Agencies",
    "phone": "(305) 971-9827",
    "address": " 13501 SW 128th St  Miami, FL 33186",
    "location": "Glades"
  },
  {
    "name": "Liz Advertising",
    "description": "Advertising Agencies",
    "phone": "(786) 219-4251",
    "address": " 14221 SW 120th St Ste 101  Miami, FL 33186",
    "location": "Glades"
  },
  {
    "name": "Ad One Advertising",
    "description": "Advertising Specialties",
    "phone": "(786) 701-9623",
    "address": " 13390 SW 131st St  Miami, FL 33186",
    "location": "Glades"
  },
  {
    "name": "Miami Advertising Specialties",
    "description": "Advertising-Promotional Products",
    "phone": "(305) 382-4942",
    "address": " 11901 SW 144th Ct  Miami, FL 33186",
    "location": "Glades"
  },
  {
    "name": "Bilmor With Advertising Specialty",
    "description": "Advertising Agencies",
    "phone": "(305) 232-3323",
    "address": " 16155 SW 117th Ave  Miami, FL 33177",
    "location": "Glades"
  },
  {
    "name": "Dekabes Advertising",
    "description": "Advertising Agencies",
    "phone": "(305) 252-0869",
    "address": " 14485 SW 173rd St  Miami, FL 33177",
    "location": "Glades"
  },
  {
    "name": "Tinsley Advertising - CLOSED",
    "description": "Advertising Agencies",
    "phone": "(305) 582-5362",
    "address": " 2660 Brickell Ave  Miami, FL 33129",
    "location": "Glades"
  },
  {
    "name": "The New York Times Advertising Office - CLOSED",
    "description": "Newspapers",
    "phone": "(305) 379-1601",
    "address": " 100 Biscayne Blvd Ste 3020  Miami, FL 33132",
    "location": "Glades"
  },
  {
    "name": "Advertise In Miami For Free",
    "description": "Marketing Programs & Services",
    "phone": "(305) 654-9370",
    "address": " 192 NE 111th St  Miami, FL 33161",
    "location": "Glades"
  },
  {
    "name": "Zebra Advertisement",
    "description": "Advertising Agencies",
    "phone": "(305) 974-4204",
    "address": " 1021 Ives Dairy Rd Ste 212  Miami, FL 33179",
    "location": "Glades"
  },
  {
    "name": "Advertising Updated Inc",
    "description": "Advertising Agencies",
    "phone": "(305) 944-6718",
    "address": " 1248 NE 154th St  North Miami Beach, FL 33162",
    "location": "Glades"
  },
  {
    "name": "Moro Advertising Solutions",
    "description": "Advertising Agencies",
    "phone": "(305) 681-2252",
    "address": " 545 NW 129th St  North Miami, FL 33168",
    "location": "Glades"
  },
  {
    "name": "Cns Marketing Advertising Promotion",
    "description": "Marketing Programs & Services",
    "phone": "(786) 312-1067",
    "address": " 13051 NW 7th Ave  North Miami, FL 33168",
    "location": "Glades"
  },
  {
    "name": "Hunter-Hamersmith & Associates Advertising Inc",
    "description": "Advertising Agencies",
    "phone": "(305) 895-3492",
    "address": " 725 NE 125th St  North Miami, FL 33161",
    "location": "Glades"
  },
  {
    "name": "HH Advertising Inc",
    "description": "Advertising Agencies",
    "phone": "(305) 895-8430",
    "address": " 725 NE 125th St  North Miami, FL 33161",
    "location": "Glades"
  },
  {
    "name": "Tropic Survival Advertising & Marketing",
    "description": "Advertising Agencies",
    "phone": "(305) 899-7229",
    "address": " 1125 NE 125th St Ste 400  North Miami, FL 33161",
    "location": "Glades"
  },
  {
    "name": "Miami Production Advertising",
    "description": "Advertising-Broadcast & Film",
    "phone": "(786) 360-4058",
    "address": " 12955 Biscayne Blvd  North Miami, FL 33181",
    "location": "Glades"
  },
  {
    "name": "Gimmick Advertising LTD Inc",
    "description": "Advertising Specialties",
    "phone": "(305) 893-5580",
    "address": " 1745 NE 124th St  North Miami, FL 33181",
    "location": "Glades"
  },
  {
    "name": "Green Dot Advertising",
    "description": "Advertising Agencies",
    "phone": "(305) 674-8406",
    "address": " 1801 NE 123rd St  North Miami, FL 33181",
    "location": "Glades"
  },
  {
    "name": "On Advertising Inc",
    "description": "Public Relations Counselors",
    "phone": "(786) 301-4117",
    "address": " 1800 Sans Souci Blvd  North Miami, FL 33181",
    "location": "Glades"
  },
  {
    "name": "Fortune McHale Advertising Agency Inc",
    "description": "Advertising Specialties",
    "phone": "(305) 751-8111",
    "address": " 9301 NE 6th Ave  Miami Shores, FL 33138",
    "location": "Glades"
  },
  {
    "name": "Wizard Advertising Corp",
    "description": "Advertising Specialties",
    "phone": "(786) 212-1628",
    "address": " 9190 Biscayne Blvd  Miami Shores, FL 33138",
    "location": "Glades"
  },
  {
    "name": "MVP Advertising",
    "description": "Advertising Specialties",
    "phone": "(305) 628-0770",
    "address": " 4980 NW 165th St  Miami Lakes, FL 33014",
    "location": "Glades"
  },
  {
    "name": "Garber & Goodman Advertising",
    "description": "Advertising Agencies",
    "phone": "(305) 673-5177",
    "address": " 300 W 41st St  Miami Beach, FL 33140",
    "location": "Glades"
  },
  {
    "name": "Englehardt Advertising",
    "description": "Advertising Agencies",
    "phone": "(954) 927-2886",
    "address": " 2450 Hollywood Blvd  Hollywood, FL 33020",
    "location": "Glades"
  },
  {
    "name": "Colin Advertising",
    "description": "Advertising Agencies",
    "phone": "(305) 932-3128",
    "address": " 19111 Collins Ave  Sunny Isles Beach, FL 33160",
    "location": "Glades"
  },
  {
    "name": "White Raven Advertising",
    "description": "Graphic Designers",
    "phone": "(305) 338-0117",
    "address": " 1085 E 14th St  Hialeah, FL 33010",
    "location": "Glades"
  },
  {
    "name": "Alluring Advertising",
    "description": "Advertising Agencies",
    "phone": "(786) 369-8100",
    "address": " 1275 W 47th Pl  Hialeah, FL 33012",
    "location": "Glades"
  },
  {
    "name": "Edco Advertising Specialties",
    "description": "Advertising Specialties",
    "phone": "(954) 964-2466",
    "address": " 5634 Johnson St  Hollywood, FL 33021",
    "location": "Glades"
  },
  {
    "name": "Boat Advertising",
    "description": "Boat Equipment & Supplies",
    "phone": "(954) 343-8810",
    "address": " 1835 E Hallandale Beach Blvd  Hallandale Beach, FL 33009",
    "location": "Glades"
  },
  {
    "name": "Advertising Profits From Home",
    "description": "Hospital Equipment & Supplies",
    "phone": "(954) 889-4529",
    "address": " 2413 Dewey St  Hollywood, FL 33020",
    "location": "Glades"
  },
  {
    "name": "Advertising Excellence, Inc.",
    "description": "Advertising Agencies",
    "phone": "(954) 522-8772",
    "address": " PO Box 220555  Hollywood, FL 33022",
    "location": "Glades"
  },
  {
    "name": "Adtech Electric Advertising",
    "description": "Advertising Agencies",
    "phone": "(786) 533-3210",
    "address": " 221 W Hallandale Beach Blvd  Hallandale Beach, FL 33009",
    "location": "Glades"
  },
  {
    "name": "Engelhardt Advertising",
    "description": "Advertising Agencies",
    "phone": "(954) 613-5139",
    "address": " 4000 Hollywood Blvd  Hollywood, FL 33021",
    "location": "Glades"
  },
  {
    "name": "Coastal Advertising & Consulting Corp",
    "description": "Advertising Agencies",
    "phone": "(954) 920-0644",
    "address": " 2334 Hollywood Blvd  Hollywood, FL 33020",
    "location": "Glades"
  },
  {
    "name": "Solomon Snow Marketing & Advertising",
    "description": "Marketing Consultants",
    "phone": "(954) 920-9646",
    "address": " 2321 Hollywood Blvd  Hollywood, FL 33020",
    "location": "Glades"
  },
  {
    "name": "Jakubisin Ronald & Associates Inc Advertising & Marketing",
    "description": "Advertising Agencies",
    "phone": "(954) 922-5052",
    "address": " 1841 Monroe St  Hollywood, FL 33020",
    "location": "Glades"
  },
  {
    "name": "Salamon Snow Marketing & Advertising",
    "description": "Marketing Programs & Services",
    "phone": "(954) 367-0531",
    "address": " 1942 Harrison St  Hollywood, FL 33020",
    "location": "Glades"
  },
  {
    "name": "Spanish Voices Marketing & Advertising",
    "description": "Marketing Consultants",
    "phone": "(954) 981-7949",
    "address": " 121 S 61st Ter  Hollywood, FL 33023",
    "location": "Glades"
  },
  {
    "name": "Tom Kukic Advertising-Art Inc",
    "description": "Advertising Agencies",
    "phone": "(305) 665-9050",
    "address": " 4041 NW 26th St  Miami, FL 33142",
    "location": "Glades"
  },
  {
    "name": "Plus Vision Advertisement",
    "description": "Advertising Agencies",
    "phone": "(786) 452-8460",
    "address": " 12460 SW 8th St  Miami, FL 33184",
    "location": "Glades"
  },
  {
    "name": "Behr Advertising, Inc.",
    "description": "Advertising Agencies",
    "phone": "(305) 674-8406",
    "address": " 1801 NE 123rd St Ste 314  North Miami, FL 33181",
    "location": "Glades"
  },
  {
    "name": "Universal Advertising & Printing",
    "description": "Advertising Agencies",
    "phone": "(305) 824-0717",
    "address": " 1691 W 37th St  Hialeah, FL 33012",
    "location": "Glades"
  },
  {
    "name": "AJTV Advertising Inc",
    "description": "Advertising Agencies",
    "phone": "(305) 709-8282",
    "address": " 8600 NW South River Dr Ste 102  Medley, FL 33166",
    "location": "Glades"
  },
  {
    "name": "JONACC Advertising & Marketing/Screenprinting & Embroidery",
    "description": "Print Advertising",
    "phone": "(786) 991-3695",
    "address": " 2043 W 62nd St  Hialeah, FL 33016",
    "location": "Glades"
  },
  {
    "name": "Advertising",
    "description": "Advertising Specialties",
    "phone": "(786) 773-2499",
    "address": " 2280 W 84th St  Hialeah, FL 33016",
    "location": "Glades"
  },
  {
    "name": "Rab Point Advertising",
    "description": "Marketing Programs & Services",
    "phone": "(786) 362-6197",
    "address": " 10220 NW 80th Ave  Hialeah Gardens, FL 33016",
    "location": "Glades"
  },
  {
    "name": "Adfinity Advertising & Signs",
    "description": "Advertising Specialties",
    "phone": "(786) 801-1498",
    "address": " 9901 NW 80th Ave  Miami Lakes, FL 33016",
    "location": "Glades"
  },
  {
    "name": "Three Zero Five Advertising",
    "description": "Advertising Agencies",
    "phone": "(786) 409-4017",
    "address": " 8137 NW 74th Ave  Medley, FL 33166",
    "location": "Glades"
  },
  {
    "name": "Primary Advertising Group",
    "description": "Advertising Agencies",
    "phone": "(305) 805-8800",
    "address": " 8125 NW 74th Ave Unit 3  Medley, FL 33166",
    "location": "Glades"
  },
  {
    "name": "FreeAdvertisingNetwork.org",
    "description": "Marketing Programs & Services",
    "phone": "(954) 864-5578",
    "address": " 2080 S Ocean Dr Apt 104  Hallandale Beach, FL 33009",
    "location": "Glades"
  },
  {
    "name": "Conceptual Advertising",
    "description": "Advertising Specialties",
    "phone": "(305) 871-2778",
    "address": " 6355 NW 36th St  Virginia Gardens, FL 33166",
    "location": "Glades"
  },
  {
    "name": "Zubi Advertising",
    "description": "Advertising Agencies",
    "phone": "(305) 428-6175",
    "address": " 355 Alhambra Cir  Coral Gables, FL 33134",
    "location": "Glades"
  },
  {
    "name": "Menda Group Advertising",
    "description": "Advertising Agencies",
    "phone": "(954) 436-9290",
    "address": " 3638 SW 162nd Ave  Miramar, FL 33027",
    "location": "Glades"
  },
  {
    "name": "Shepard Lobe Costa - Advertising",
    "description": "Advertising Agencies",
    "phone": "(305) 372-1430",
    "address": " 250 Bird Rd Ste 206  Coral Gables, FL 33146",
    "location": "Glades"
  },
  {
    "name": "Link Advertising Inc",
    "description": "Advertising Specialties",
    "phone": "(305) 640-1849",
    "address": " 9600 NW 25th St  Doral, FL 33172",
    "location": "Glades"
  },
  {
    "name": "Get Found Now Miami Advertising Agency",
    "description": "Internet Marketing & Advertising",
    "phone": "(305) 440-1190",
    "address": " 6350 NW 39th Ter  Virginia Gardens, FL 33166",
    "location": "Glades"
  },
  {
    "name": "AA Advertising LLC",
    "description": "Advertising-Promotional Products",
    "phone": "(786) 356-2871",
    "address": " 9808 NW 80th Ave  Miami Lakes, FL 33016",
    "location": "Glades"
  },
  {
    "name": "AVANZA | Hispanic Advertising + Branding Agency",
    "description": "Advertising Agencies",
    "phone": "(786) 565-7601",
    "address": " 5465 NW 36th St Ste 100  Miami Springs, FL 33166",
    "location": "Glades"
  },
  {
    "name": "AVANZA | Integrated Branding & Advertising Agency",
    "description": "Advertising Agencies",
    "phone": "(786) 565-7601",
    "address": " 5465 NW 36th St Ste 100  Miami Springs, FL 33166",
    "location": "Glades"
  },
  {
    "name": "Ronin Advertising Group",
    "description": "Advertising Agencies",
    "phone": "(305) 444-6868",
    "address": " 400 University Dr  Coral Gables, FL 33134",
    "location": "Glades"
  },
  {
    "name": "BRAINWAVE ADVERTISING LLC",
    "description": "Marketing Programs & Services",
    "phone": "(305) 938-5599",
    "address": " 10145 NW 19th St  Doral, FL 33172",
    "location": "Glades"
  },
  {
    "name": "DDM Advertising Inc",
    "description": "Advertising Agencies",
    "phone": "(786) 534-7344",
    "address": " 245 18th St  Miami Beach, FL 33139",
    "location": "Glades"
  },
  {
    "name": "Hello Advertising",
    "description": "Advertising Agencies",
    "phone": "(786) 542-6952",
    "address": " 5161 NW 79th Ave  Doral, FL 33166",
    "location": "Glades"
  },
  {
    "name": "Urban Advertising of America",
    "description": "Advertising Agencies",
    "phone": "(305) 779-2455",
    "address": " 8330 NW 58th St  Doral, FL 33166",
    "location": "Glades"
  },
  {
    "name": "Futura Advertising",
    "description": "Advertising Agencies",
    "phone": "(305) 443-0336",
    "address": " 120 Cibao Ct  Coral Gables, FL 33134",
    "location": "Glades"
  },
  {
    "name": "Ogilvy & Mather Advertising",
    "description": "Advertising Agencies",
    "phone": "(305) 448-6002",
    "address": " 800 S Douglas Rd  Coral Gables, FL 33134",
    "location": "Glades"
  },
  {
    "name": "Promolens Advertising & Marketing",
    "description": "Advertising Agencies",
    "phone": "(305) 500-9797",
    "address": " 8001 NW 36th St  Doral, FL 33166",
    "location": "Glades"
  },
  {
    "name": "S+P+A Advertising",
    "description": "Advertising Agencies",
    "phone": "(305) 967-7410",
    "address": " 8009 NW 36th St Ste 230  Doral, FL 33166",
    "location": "Glades"
  },
  {
    "name": "ANA Advertising",
    "description": "Advertising Agencies",
    "phone": "(305) 477-6175",
    "address": " 8045 NW 36th St Ste 504  Doral, FL 33166",
    "location": "Glades"
  },
  {
    "name": "EGE Creative & Advertising Design",
    "description": "Advertising Agencies",
    "phone": "(305) 463-8439",
    "address": " 8181 NW 36th St  Doral, FL 33166",
    "location": "Glades"
  },
  {
    "name": "Levy Advertising",
    "description": "Advertising Agencies",
    "phone": "(305) 592-5389",
    "address": " 4241 W 108th St  Hialeah, FL 33018",
    "location": "Glades"
  },
  {
    "name": "Liz Advertising Inc",
    "description": "Business Coaches & Consultants",
    "phone": "(305) 406-2909",
    "address": " 3401 NW 82nd Ave  Doral, FL 33122",
    "location": "Glades"
  },
  {
    "name": "Extra Advertising Inc",
    "description": "Advertising Agencies",
    "phone": "(305) 387-0074",
    "address": " 5455 SW 8th St  Coral Gables, FL 33134",
    "location": "Glades"
  },
  {
    "name": "Digigraphix Advertising",
    "description": "Signs",
    "phone": "(305) 513-0096",
    "address": " 1707 NW 79th Ave  Doral, FL 33126",
    "location": "Glades"
  },
  {
    "name": "305 Advertising",
    "description": "Advertising Specialties",
    "phone": "(305) 591-8525",
    "address": " 9831 NW 58th St Unit 147  Doral, FL 33178",
    "location": "Glades"
  },
  {
    "name": "Ronin L Advertising Group",
    "description": "Advertising Specialties",
    "phone": "(305) 444-6868",
    "address": " 724 Madeira Ave  Coral Gables, FL 33134",
    "location": "Glades"
  },
  {
    "name": "Michelsen Advertising",
    "description": "Advertising Agencies",
    "phone": "(305) 446-5442",
    "address": " 9850 NW 41st St  Doral, FL 33178",
    "location": "Glades"
  },
  {
    "name": "Screenbox Advertising",
    "description": "Advertising Agencies",
    "phone": "(305) 608-2369",
    "address": " 9649 NW 33rd St  Doral, FL 33172",
    "location": "Glades"
  },
  {
    "name": "Sunshine Advertising",
    "description": "Demonstration Service",
    "phone": "(305) 266-8825",
    "address": " 2452 NW 94th Ave  Doral, FL 33172",
    "location": "Glades"
  },
  {
    "name": "Miami Internet Advertising",
    "description": "Internet Marketing & Advertising",
    "phone": "(786) 800-2550",
    "address": " 10773 NW 58th St  Doral, FL 33178",
    "location": "Glades"
  },
  {
    "name": "Michelsen Advertising, Inc.",
    "description": "Advertising Specialties",
    "phone": "(305) 446-5211",
    "address": " 9590 NW 25th St  Doral, FL 33172",
    "location": "Glades"
  },
  {
    "name": "ADVERTISING WATER CORP",
    "description": "Advertising-Promotional Products",
    "phone": "(305) 219-4448",
    "address": " 1501 NW 97th Ave  Doral, FL 33172",
    "location": "Glades"
  },
  {
    "name": "Cps Advertising",
    "description": "Advertising Agencies",
    "phone": "(786) 362-5140",
    "address": " 280 Aragon Ave  Coral Gables, FL 33134",
    "location": "Glades"
  },
  {
    "name": "Awesome Advertising",
    "description": "Advertising Agencies",
    "phone": "(954) 445-7706",
    "address": " 6440 Pershing St  Hollywood, FL 33024",
    "location": "Glades"
  },
  {
    "name": "Edison Advertising Corp",
    "description": "Advertising-Promotional Products",
    "phone": "(954) 443-4101",
    "address": " 10611 London St  Hollywood, FL 33026",
    "location": "Glades"
  },
  {
    "name": "Mc2 Advertising",
    "description": "Advertising Agencies",
    "phone": "(954) 374-9925",
    "address": " 3350 SW 148th Ave  Miramar, FL 33027",
    "location": "Glades"
  },
  {
    "name": "Gold Coast Advertising",
    "description": "Advertising Specialties",
    "phone": "(954) 791-6131",
    "address": " 3941 SW 47th St  Fort Lauderdale, FL 33312",
    "location": "Glades"
  },
  {
    "name": "AM Publicidad Advertising Org",
    "description": "Advertising Agencies",
    "phone": "(954) 391-8557",
    "address": " 233 N Federal Hwy  Dania, FL 33004",
    "location": "Glades"
  },
  {
    "name": "Designed Advertising Inc",
    "description": "Advertising Specialties",
    "phone": "(954) 583-6762",
    "address": " 5936 SW 44th St  Davie, FL 33314",
    "location": "Glades"
  },
  {
    "name": "Mobile Advertising Technology",
    "description": "Advertising Agencies",
    "phone": "(786) 787-0413",
    "address": " 3402 SW 26th Ter  Fort Lauderdale, FL 33312",
    "location": "Glades"
  },
  {
    "name": "Media Concepts & Advertising",
    "description": "Advertising Specialties",
    "phone": "(954) 949-0540",
    "address": " 2031 SW 70th Ave Ste C21  Davie, FL 33317",
    "location": "Glades"
  },
  {
    "name": "Genius Advertising Agency",
    "description": "Printing Services",
    "phone": "(954) 587-0046",
    "address": " 9000 Sheridan St  Hollywood, FL 33024",
    "location": "Glades"
  },
  {
    "name": "Promotional Innovative Advertising",
    "description": "Advertising-Promotional Products",
    "phone": "(954) 437-7591",
    "address": " 11569 Gorham Dr  Hollywood, FL 33026",
    "location": "Glades"
  },
  {
    "name": "Interspace Airport Advertising",
    "description": "Advertising Agencies",
    "phone": "(954) 359-5099",
    "address": " 50 Terminal Dr  Fort Lauderdale, FL 33315",
    "location": "Glades"
  },
  {
    "name": "Roger Deutsch Advertising",
    "description": "Advertising Agencies",
    "phone": "(954) 473-0600",
    "address": " 1761 SW 120th Ter  Davie, FL 33325",
    "location": "Glades"
  },
  {
    "name": "B & L Advertising",
    "description": "Advertising Agencies",
    "phone": "(305) 321-7120",
    "address": " 1320 S Dixie Hwy  Coral Gables, FL 33146",
    "location": "Glades"
  },
  {
    "name": "Internet Advertising & Marketing Miami, SEO Miami",
    "description": "Internet Marketing & Advertising",
    "phone": "(305) 331-4893",
    "address": " 1205 Mariposa Ave  Coral Gables, FL 33146",
    "location": "Glades"
  },
  {
    "name": "Sheng CHI Advertising",
    "description": "Advertising Agencies",
    "phone": "(305) 200-3004",
    "address": " 3300 NW 112th Ave Unit 13  Doral, FL 33172",
    "location": "Glades"
  },
  {
    "name": "Cdmas Advertising",
    "description": "Advertising Specialties",
    "phone": "(305) 477-1677",
    "address": " 1414 NW 107th Ave  Sweetwater, FL 33172",
    "location": "Glades"
  },
  {
    "name": "Clarity Advertising & Design",
    "description": "Advertising Agencies",
    "phone": "(305) 436-7242",
    "address": " 1414 NW 107th Ave Ste 414  Sweetwater, FL 33172",
    "location": "Glades"
  },
  {
    "name": "Pixel Graphics Advertising",
    "description": "Advertising Agencies",
    "phone": "(305) 718-0595",
    "address": " 1414 NW 107th Ave Ste 215  Sweetwater, FL 33172",
    "location": "Glades"
  },
  {
    "name": "Branyc Advertising",
    "description": "Advertising Agencies",
    "phone": "(305) 361-3729",
    "address": " 151 Crandon Blvd  Key Biscayne, FL 33149",
    "location": "Glades"
  },
  {
    "name": "Advertising Edge",
    "description": "Advertising Specialties",
    "phone": "(786) 953-7846",
    "address": " 1500 San Remo Ave  Coral Gables, FL 33146",
    "location": "Glades"
  },
  {
    "name": "Creative Advertising Promotions",
    "description": "Clothing Stores",
    "phone": "(954) 623-3000",
    "address": " 1975 E Sunrise Blvd Ste 816  Fort Lauderdale, FL 33304",
    "location": "Glades"
  },
  {
    "name": "Hardcore Advertising",
    "description": "Internet Marketing & Advertising",
    "phone": "(954) 636-7030",
    "address": " 502 SE 11th Ct  Fort Lauderdale, FL 33316",
    "location": "Glades"
  },
  {
    "name": "Advertising For Surgeons",
    "description": "Advertising Agencies",
    "phone": "(833) 311-1004",
    "address": " 110 SE 6th St  Fort Lauderdale, FL 33301",
    "location": "Glades"
  },
  {
    "name": "Springboard Advertising/Design",
    "description": "Internet Marketing & Advertising",
    "phone": "(954) 655-8368",
    "address": " 408 NE 6th St  Fort Lauderdale, FL 33304",
    "location": "Glades"
  },
  {
    "name": "Rieback & David Integrated Marketing and Advertising",
    "description": "Internet Marketing & Advertising",
    "phone": "(561) 358-1119",
    "address": " 772 NW 100th Ter  Plantation, FL 33324",
    "location": "Glades"
  },
  {
    "name": "Ck Advertising & Design",
    "description": "Graphic Designers",
    "phone": "(954) 356-9928",
    "address": " 933 SW 17th St  Fort Lauderdale, FL 33315",
    "location": "Glades"
  },
  {
    "name": "Golden Traffic Advertising",
    "description": "Advertising-Shoppers Publications",
    "phone": "(202) 350-1872",
    "address": " 801 S State Road 7  Plantation, FL 33317",
    "location": "Glades"
  },
  {
    "name": "Laser Advertising",
    "description": "Advertising Agencies",
    "phone": "(954) 760-4667",
    "address": " 1500 Cordova Rd  Fort Lauderdale, FL 33316",
    "location": "Glades"
  },
  {
    "name": "Lipof Advertising",
    "description": "Advertising Agencies",
    "phone": "(954) 472-9999",
    "address": " 8030 Peters Rd Ste D  Plantation, FL 33324",
    "location": "Glades"
  },
  {
    "name": "Automotive Advertising Associates",
    "description": "Advertising Specialties",
    "phone": "(954) 434-4100",
    "address": " 16261 Oneida Pl  Davie, FL 33331",
    "location": "Glades"
  },
  {
    "name": "Fascinations Imprinted Advertising",
    "description": "Advertising-Promotional Products",
    "phone": "(954) 436-9555",
    "address": " 1554 NW 182nd Ave  Pembroke Pines, FL 33029",
    "location": "Glades"
  },
  {
    "name": "Rand Searchlight Advertising",
    "description": "Advertising Agencies",
    "phone": "(954) 476-7620",
    "address": " 11330 SW 17th St  Davie, FL 33325",
    "location": "Glades"
  },
  {
    "name": "Adfinity Advertising and Signs",
    "description": "Advertising Specialties",
    "phone": "(754) 223-4798",
    "address": " 1414 E Harmony Lake Cir  Davie, FL 33324",
    "location": "Glades"
  },
  {
    "name": "The Advertising Department",
    "description": "Advertising Agencies",
    "phone": "(954) 769-3930",
    "address": " 227 SW 2nd Ave  Fort Lauderdale, FL 33301",
    "location": "Glades"
  },
  {
    "name": "R&R Publications & Advertising",
    "description": "Advertising-Shoppers Publications",
    "phone": "(954) 867-8838",
    "address": " 7027 W Broward Blvd # 158  Plantation, FL 33317",
    "location": "Glades"
  },
  {
    "name": "Ambit Advertising and Public Relations",
    "description": "Advertising Agencies",
    "phone": "(954) 568-2100",
    "address": " 401 E Las Olas Blvd  Fort Lauderdale, FL 33301",
    "location": "Glades"
  },
  {
    "name": "UCA Advertising",
    "description": "Advertising Agencies",
    "phone": "(954) 372-4606",
    "address": " 8211 W Broward Blvd  Plantation, FL 33324",
    "location": "Glades"
  },
  {
    "name": "Advertising Concepts Of America Inc",
    "description": "Commercials-Radio & Television",
    "phone": "(954) 764-8864",
    "address": " 233 NE 3rd Ave  Fort Lauderdale, FL 33301",
    "location": "Glades"
  },
  {
    "name": "Arena Advertising & Sports Marketing",
    "description": "Advertising Agencies",
    "phone": "(954) 533-8556",
    "address": " 11870 W State Road 84  Davie, FL 33325",
    "location": "Glades"
  },
  {
    "name": "Graphic Advertising",
    "description": "Graphic Designers",
    "phone": "(954) 587-1451",
    "address": " 3291 W Sunrise Blvd  Fort Lauderdale, FL 33311",
    "location": "Glades"
  },
  {
    "name": "Kind Design Advertising",
    "description": "Advertising Agencies",
    "phone": "(954) 467-5463",
    "address": " 901 Progresso Dr  Fort Lauderdale, FL 33304",
    "location": "Glades"
  },
  {
    "name": "Gana Gana Land Advertising & Design, Inc.",
    "description": "Landscaping & Lawn Services",
    "phone": "(954) 452-0441",
    "address": " 8232 NW 8th Pl  Plantation, FL 33324",
    "location": "Glades"
  },
  {
    "name": "Myers Myers & Adams Advertising Inc",
    "description": "Advertising Agencies",
    "phone": "(954) 523-6262",
    "address": " 938 N Victoria Park Rd  Fort Lauderdale, FL 33304",
    "location": "Glades"
  },
  {
    "name": "Truckside Advertising Inc",
    "description": "Advertising Agencies",
    "phone": "(954) 557-7339",
    "address": " 1975 E Sunrise Blvd Ste 800  Fort Lauderdale, FL 33304",
    "location": "Glades"
  },
  {
    "name": "Mass Traffic Advertising",
    "description": "Advertising Agencies",
    "phone": "(202) 350-1872",
    "address": " 2598 East Sunrise Blvd  Fort Lauderdale, FL 33304",
    "location": "Glades"
  },
  {
    "name": "Downtown Advertising",
    "description": "Advertising Agencies",
    "phone": "(954) 376-4780",
    "address": " 1040 Seminole Dr  Fort Lauderdale, FL 33304",
    "location": "Glades"
  },
  {
    "name": "Windmill Advertising Group",
    "description": "Advertising Specialties",
    "phone": "(954) 385-1350",
    "address": " 1675 N Commerce Pkwy  Weston, FL 33326",
    "location": "Glades"
  },
  {
    "name": "Torque Advertising",
    "description": "Advertising Agencies",
    "phone": "(954) 566-4963",
    "address": " 1719 NE 17th St  Fort Lauderdale, FL 33305",
    "location": "Glades"
  },
  {
    "name": "Brainstorms Advertising",
    "description": "Advertising Agencies",
    "phone": "(954) 564-2424",
    "address": " 2201 Wilton Dr  Wilton Manors, FL 33305",
    "location": "Glades"
  },
  {
    "name": "Martini & Partners Advertising",
    "description": "Advertising Specialties",
    "phone": "(954) 562-7950",
    "address": " 2248 SW 14th Ct  Fort Lauderdale, FL 33312",
    "location": "Glades"
  },
  {
    "name": "Adbit's Advertising & Pr",
    "description": "Advertising Agencies",
    "phone": "(954) 467-8420",
    "address": " 1003 SE 17th St  Fort Lauderdale, FL 33316",
    "location": "Glades"
  },
  {
    "name": "Aeronet Advertising",
    "description": "Web Site Hosting",
    "phone": "(954) 476-2407",
    "address": " 1970 SW 115th Ave  Davie, FL 33325",
    "location": "Glades"
  },
  {
    "name": "Tower Advertising Group",
    "description": "Advertising Specialties",
    "phone": "(954) 627-3450",
    "address": " 110 E Broward Blvd  Fort Lauderdale, FL 33301",
    "location": "Glades"
  },
  {
    "name": "Greene Beech Advertising Design Group",
    "description": "Advertising Specialties",
    "phone": "(954) 771-6500",
    "address": " 509 NE 3rd Ave  Fort Lauderdale, FL 33301",
    "location": "Glades"
  },
  {
    "name": "Direct Web Advertising",
    "description": "Advertising Specialties",
    "phone": "(954) 762-3404",
    "address": " 1511 NE 4th Pl  Fort Lauderdale, FL 33301",
    "location": "Glades"
  },
  {
    "name": "Seitz Inc Advertising & Promotion",
    "description": "Advertising Agencies",
    "phone": "(954) 970-3394",
    "address": " 1350 NW 9th Ave  Fort Lauderdale, FL 33311",
    "location": "Glades"
  },
  {
    "name": "Harris & Drury Advertising",
    "description": "Advertising Agencies",
    "phone": "(954) 489-0611",
    "address": " 1901 W Cypress Creek Rd  Fort Lauderdale, FL 33309",
    "location": "Glades"
  },
  {
    "name": "D Signs for Mobile Graphics Advertising",
    "description": "Signs",
    "phone": "(954) 733-3764",
    "address": " 3405 Lime Hill Rd  Lauderhill, FL 33319",
    "location": "Glades"
  },
  {
    "name": "Herman Advertising",
    "description": "Advertising Agencies",
    "phone": "(954) 772-0503",
    "address": " 6400 N Andrews Ave  Fort Lauderdale, FL 33309",
    "location": "Glades"
  },
  {
    "name": "Carter Outdoor Advertising",
    "description": "Outdoor Advertising",
    "phone": "(305) 278-8282",
    "address": " 14731 Sailfish Dr  Coral Gables, FL 33158",
    "location": "Glades"
  },
  {
    "name": "Coral Advertising Inc",
    "description": "Advertising Agencies",
    "phone": "(305) 252-0405",
    "address": " 8650 SW 144th St  Palmetto Bay, FL 33158",
    "location": "Glades"
  },
  {
    "name": "Brand X Advertising",
    "description": "Advertising Agencies",
    "phone": "(954) 972-7453",
    "address": " 6855 NW 23rd Ter  Fort Lauderdale, FL 33309",
    "location": "Glades"
  },
  {
    "name": "Sofibiz Advertisement",
    "description": "Advertising Agencies",
    "phone": "(954) 870-7190",
    "address": " 7481 W Oakland Park Blvd  Tamarac, FL 33319",
    "location": "Glades"
  },
  {
    "name": "PLP Advertising",
    "description": "Advertising Agencies",
    "phone": "(954) 567-1455",
    "address": " 200 NE 44th St  Oakland Park, FL 33334",
    "location": "Glades"
  },
  {
    "name": "Zimmerman Advertising",
    "description": "Advertising Agencies",
    "phone": "(954) 644-4000",
    "address": " 6600 N Andrews Ave  Fort Lauderdale, FL 33309",
    "location": "Glades"
  },
  {
    "name": "Transformatic Advertising",
    "description": "Marketing Programs & Services",
    "phone": "(954) 573-0148",
    "address": " 8771 Holly Ct  Tamarac, FL 33321",
    "location": "Glades"
  },
  {
    "name": "Iman Advertising",
    "description": "Advertising Agencies",
    "phone": "(844) 462-6836",
    "address": " 8050 N University Dr  Tamarac, FL 33321",
    "location": "Glades"
  },
  {
    "name": "Anything But Advertising",
    "description": "Advertising Agencies",
    "phone": "(407) 227-8867",
    "address": " 2601 NE 14th Ave  Wilton Manors, FL 33334",
    "location": "Glades"
  },
  {
    "name": "H and H Advertising Solutions Inc",
    "description": "Advertising Specialties",
    "phone": "(954) 530-1705",
    "address": " 1699 E Oakland Park Blvd  Oakland Park, FL 33334",
    "location": "Glades"
  },
  {
    "name": "Madsen Advertising",
    "description": "Print Advertising",
    "phone": "(954) 990-6549",
    "address": " 3455 NE 12th Ter Ste 20  Oakland Park, FL 33334",
    "location": "Glades"
  },
  {
    "name": "Emagine Creations Advertising",
    "description": "Advertising Agencies",
    "phone": "(954) 406-6800",
    "address": " 3626 NW 82nd Ter  Sunrise, FL 33351",
    "location": "Glades"
  },
  {
    "name": "Jdoc Advertising and Marketing",
    "description": "Advertising Specialties",
    "phone": "(954) 530-8628",
    "address": " 2734 E Oakland Park Blvd Ste 110  Fort Lauderdale, FL 33306",
    "location": "Glades"
  },
  {
    "name": "Jdoc Advertising & Marketing",
    "description": "Advertising Agencies",
    "phone": "(954) 909-5948",
    "address": " 2787 E Oakland Park Blvd  Fort Lauderdale, FL 33306",
    "location": "Glades"
  },
  {
    "name": "Fox Advertising",
    "description": "Advertising Agencies",
    "phone": "(954) 369-0604",
    "address": " 2881 E Oakland Park Blvd  Fort Lauderdale, FL 33306",
    "location": "Glades"
  },
  {
    "name": "Baxter Martin Advertising",
    "description": "Advertising Agencies",
    "phone": "(954) 563-0602",
    "address": " 3471 N Federal Hwy  Fort Lauderdale, FL 33306",
    "location": "Glades"
  },
  {
    "name": "Aaron Advertising Inc",
    "description": "Advertising Agencies",
    "phone": "(954) 566-4030",
    "address": " 3500 Galt Ocean Dr  Fort Lauderdale, FL 33308",
    "location": "Glades"
  },
  {
    "name": "Advertising agency Intl INC",
    "description": "Advertising-Promotional Products",
    "phone": "(954) 734-9015",
    "address": " 3511 W Commercial Blvd Ste 1301  Fort Lauderdale, FL 33309",
    "location": "Glades"
  },
  {
    "name": "Advanced Media Advertising",
    "description": "Advertising-Broadcast & Film",
    "phone": "(805) 637-5200",
    "address": " Serving Southeast Florida  Fort Lauderdale, FL 33307",
    "location": "Glades"
  },
  {
    "name": "Polaris Advertising LLC",
    "description": "Internet Marketing & Advertising",
    "phone": "(818) 208-5818",
    "address": " 1326 E Commercial Blvd PMB 3036  Fort Lauderdale, FL 33334",
    "location": "Glades"
  },
  {
    "name": "Experience Advertising",
    "description": "Advertising Specialties",
    "phone": "(954) 742-0345",
    "address": " 10218 NW 47th St  Sunrise, FL 33351",
    "location": "Glades"
  },
  {
    "name": "M P Advertising",
    "description": "Printing Services-Commercial",
    "phone": "(954) 971-6220",
    "address": " 6033 NW 31st Ave  Fort Lauderdale, FL 33309",
    "location": "Glades"
  },
  {
    "name": "John Forsyth Advertising",
    "description": "Advertising Agencies",
    "phone": "(954) 938-2050",
    "address": " 5200 N Federal Hwy  Fort Lauderdale, FL 33308",
    "location": "Glades"
  },
  {
    "name": "C R Advertising Associates",
    "description": "Advertising Specialties",
    "phone": "(954) 771-7858",
    "address": " 5554 N Federal Hwy  Fort Lauderdale, FL 33308",
    "location": "Glades"
  },
  {
    "name": "Boca Advertising",
    "description": "Advertising Agencies",
    "phone": "(954) 302-1844",
    "address": " 124 Glades Cir Ste 139  Weston, FL 33327",
    "location": "Glades"
  },
  {
    "name": "JB Advertising",
    "description": "Advertising Specialties",
    "phone": "(954) 298-9530",
    "address": " 1300 SW 82nd Ave  North Lauderdale, FL 33068",
    "location": "Glades"
  },
  {
    "name": "James Ross Advertising",
    "description": "Advertising Agencies",
    "phone": "(954) 974-6640",
    "address": " 1180 SW 36th Ave  Pompano Beach, FL 33069",
    "location": "Glades"
  },
  {
    "name": "ADVERTISING SPECIALTIES INC.",
    "description": "Directory & Guide Advertising",
    "phone": "(888) 920-7284",
    "address": " 2950 Glades Cir Ste 16  Weston, FL 33327",
    "location": "Glades"
  },
  {
    "name": "Aaron Advertising",
    "description": "Advertising Agencies",
    "phone": "(954) 381-8000",
    "address": " 4825 N Dixie Hwy  Oakland Park, FL 33334",
    "location": "Glades"
  },
  {
    "name": "Allied Advertising",
    "description": "Advertising Agencies",
    "phone": "(954) 229-9030",
    "address": " 6400 N Andrews Ave  Fort Lauderdale, FL 33309",
    "location": "Glades"
  },
  {
    "name": "Prodigy Advertising",
    "description": "Advertising Specialties",
    "phone": "(305) 328-8515",
    "address": " 18001 Old Cutler Rd Ste 429  Palmetto Bay, FL 33157",
    "location": "Glades"
  },
  {
    "name": "National Advertising Company",
    "description": "Advertising Agencies",
    "phone": "(561) 737-8686",
    "address": " 2640 NW 17th Ln  Pompano Beach, FL 33064",
    "location": "Glades"
  },
  {
    "name": "Joint Advertising",
    "description": "Direct Mail Advertising",
    "phone": "(305) 252-1002",
    "address": " 8625 SW 184th Ter  Cutler Bay, FL 33157",
    "location": "Glades"
  },
  {
    "name": "Big Card Advertising",
    "description": "Advertising-Shoppers Publications",
    "phone": "(954) 773-6241",
    "address": " 2637 East Atlantic Blvd.  Pompano Beach, FL 33062",
    "location": "Glades"
  },
  {
    "name": "Phoenix Publications & Advertising, Inc.",
    "description": "Directory & Guide Advertising",
    "phone": "(954) 786-0227",
    "address": " 2637 E Atlantic Blvd # 171  Pompano Beach, FL 33062",
    "location": "Glades"
  },
  {
    "name": "Treatment Advertising Solutions",
    "description": "Advertising Specialties",
    "phone": "(954) 960-5153",
    "address": " 2641 E Atlantic Blvd Ste 309  Pompano Beach, FL 33062",
    "location": "Glades"
  },
  {
    "name": "art&mkt advertising",
    "description": "Advertising Agencies",
    "phone": "(954) 907-1358",
    "address": " 830 Coral Ridge Dr  Coral Springs, FL 33071",
    "location": "Glades"
  },
  {
    "name": "Collins Media and Advertising",
    "description": "Advertising Agencies",
    "phone": "(954) 532-3532",
    "address": " 1799 N State Road 7  Margate, FL 33063",
    "location": "Glades"
  },
  {
    "name": "Rossi Hedglon Advertising Inc",
    "description": "Advertising Agencies",
    "phone": "(954) 545-1551",
    "address": " 2348 NE 8th Ct  Pompano Beach, FL 33062",
    "location": "Glades"
  },
  {
    "name": "First Advertising & Marketing Group",
    "description": "Advertising Agencies",
    "phone": "(954) 984-4701",
    "address": " 1791 Blount Rd  Pompano Beach, FL 33069",
    "location": "Glades"
  },
  {
    "name": "Mediaone Advertising Service",
    "description": "Advertising Agencies",
    "phone": "(954) 532-6100",
    "address": " 141 NW 16th St  Pompano Beach, FL 33060",
    "location": "Glades"
  },
  {
    "name": "Internet Advertising Group",
    "description": "Advertising Specialties",
    "phone": "(954) 510-1204",
    "address": " 3111 N University Dr  Coral Springs, FL 33065",
    "location": "Glades"
  },
  {
    "name": "Baliza Advertising",
    "description": "Advertising Agencies",
    "phone": "(954) 637-8741",
    "address": " 3860 N Powerline Rd  Pompano Beach, FL 33073",
    "location": "Glades"
  },
  {
    "name": "Adpro Advertising",
    "description": "Advertising Agencies",
    "phone": "(954) 708-4073",
    "address": " 3639 Coral Springs Dr  Coral Springs, FL 33065",
    "location": "Glades"
  },
  {
    "name": "Larket Advertising",
    "description": "Direct Mail Advertising",
    "phone": "(954) 597-6733",
    "address": " 3766 NE 3rd Ave  Pompano Beach, FL 33064",
    "location": "Glades"
  },
  {
    "name": "Advertising Agency International",
    "description": "Advertising Agencies",
    "phone": "(954) 603-5353",
    "address": " 3928 Coral Ridge Dr  Coral Springs, FL 33065",
    "location": "Glades"
  },
  {
    "name": "Gold Coast Advertising Inc",
    "description": "Advertising Specialties",
    "phone": "(954) 522-3338",
    "address": " 4141 NE 2nd Ave  Deerfield Beach, FL 33064",
    "location": "Glades"
  },
  {
    "name": "Carrera Advertising",
    "description": "Advertising Agencies",
    "phone": "(954) 360-9111",
    "address": " 600 Fairway Dr  Deerfield Beach, FL 33441",
    "location": "Glades"
  },
  {
    "name": "Tr3sAdvertising Website Services",
    "description": "Internet Marketing & Advertising",
    "phone": "(786) 519-4449",
    "address": " 5841 Riverside Dr  Coral Springs, FL 33067",
    "location": "Glades"
  },
  {
    "name": "Big Mouth Marketing d/b/a Big Mouth Advertising",
    "description": "Advertising Agencies",
    "phone": "(954) 354-0441",
    "address": " 1071 SW 30th Ave  Deerfield Beach, FL 33442",
    "location": "Glades"
  },
  {
    "name": "Advertising Sol Treatment",
    "description": "Advertising Specialties",
    "phone": "(954) 420-9725",
    "address": " 1239 E Newport Center Dr  Deerfield Beach, FL 33442",
    "location": "Glades"
  },
  {
    "name": "Crash Advertising Group",
    "description": "Advertising Agencies",
    "phone": "(754) 333-8567",
    "address": " 201 SE 15th Ter Ste 104  Deerfield Beach, FL 33441",
    "location": "Glades"
  },
  {
    "name": "Communication Advertising",
    "description": "Advertising Agencies",
    "phone": "(954) 481-1930",
    "address": " 2363 Deer Creek Trl  Deerfield Beach, FL 33442",
    "location": "Glades"
  },
  {
    "name": "Dega Advertising",
    "description": "Advertising Agencies",
    "phone": "(561) 430-5784",
    "address": " 23123 State Road 7  Boca Raton, FL 33428",
    "location": "Glades"
  },
  {
    "name": "Pinnacle Advertising",
    "description": "Direct Mail Advertising",
    "phone": "(561) 338-3940",
    "address": " 1515 S Federal Hwy Ste 406  Boca Raton, FL 33432",
    "location": "Glades"
  },
  {
    "name": "W G W Advertising Inc",
    "description": "Advertising Agencies",
    "phone": "(561) 392-3341",
    "address": " 398 Camino Gardens Blvd  Boca Raton, FL 33432",
    "location": "Glades"
  },
  {
    "name": "Advertising Specialties, Inc.",
    "description": "Advertising Specialties",
    "phone": "(877) 274-6684",
    "address": " 160 W Camino Real  Boca Raton, FL 33432",
    "location": "Glades"
  },
  {
    "name": "Above and Beyond Advertising",
    "description": "Advertising Agencies",
    "phone": "(561) 702-4690",
    "address": " 160 W Camino Real  Boca Raton, FL 33432",
    "location": "Glades"
  },
  {
    "name": "Villa's Clara Advertising Consultants",
    "description": "Real Estate Management",
    "phone": "(786) 601-7297",
    "address": " 23659 SW 133rd Ave  Homestead, FL 33032",
    "location": "Glades"
  },
  {
    "name": "Advertising Specialty & More",
    "description": "Advertising Agencies",
    "phone": "(561) 353-1515",
    "address": " 21652 Hammock Point Dr  Boca Raton, FL 33433",
    "location": "Glades"
  },
  {
    "name": "Sandford Advertising Inc",
    "description": "Publishers",
    "phone": "(561) 477-3764",
    "address": " 21219 Lago Cir Apt 5i  Boca Raton, FL 33433",
    "location": "Glades"
  },
  {
    "name": "Cannon Advertising",
    "description": "Used Boxes",
    "phone": "(561) 394-2700",
    "address": " 240 W Palmetto Park Rd  Boca Raton, FL 33432",
    "location": "Glades"
  },
  {
    "name": "Advertising Specialities",
    "description": "Advertising Agencies",
    "phone": "(561) 353-1515",
    "address": " 1420 NW Boca Raton Blvd  Boca Raton, FL 33432",
    "location": "Glades"
  },
  {
    "name": "Loud And Clear Advertising Inc",
    "description": "Advertising Agencies",
    "phone": "(305) 247-0777",
    "address": " 28852 S Dixie Hwy  Homestead, FL 33033",
    "location": "Glades"
  },
  {
    "name": "Facebook social media advertising",
    "description": "Internet Marketing & Advertising",
    "phone": "(305) 896-5471",
    "address": " 2450 W 82nd St  hialeah, FL 33016",
    "location": "Glades"
  },
  {
    "name": "Green DOT Advertsing",
    "description": "Advertising Agencies",
    "phone": "(305) 674-8406",
    "address": " 5400 NE 4th Ct Ste 3  Miami, FL 33137",
    "location": "Glades"
  },
  {
    "name": "Triple S International Inc",
    "description": "Exporters",
    "phone": "(305) 859-3248",
    "address": " 8645 NW 61st St  Miami, FL 33166",
    "location": "Glades"
  },
  {
    "name": "Instant Signs",
    "description": "Document Imaging",
    "phone": "(786) 802-1641",
    "address": " 4701 SW 72nd Ave  Miami, FL 33155",
    "location": "Glades"
  },
  {
    "name": "National Claims Consultants",
    "description": "Advertising Agencies",
    "phone": "(786) 438-0305",
    "address": " 4909 SW 74th Ct  Miami, FL 33155",
    "location": "Glades"
  },
  {
    "name": "JMG Adverstising",
    "description": "Advertising Agencies",
    "phone": "(954) 965-9791",
    "address": " 2544 N State Road 7  Hollywood, FL 33021",
    "location": "Glades"
  },
  {
    "name": "Rafa Advertisting Corp",
    "description": "Advertising Agencies",
    "phone": "(305) 887-8879",
    "address": " 9016 NW 105th Way  Medley, FL 33178",
    "location": "Glades"
  },
  {
    "name": "Clear Channel Outdoor",
    "description": "Outdoor Advertising",
    "phone": "(786) 530-5039",
    "address": " 5800 NW 77th Ct  Doral, FL 33166",
    "location": "Glades"
  },
  {
    "name": "Prospect Plastics",
    "description": "Signs",
    "phone": "(754) 900-4447",
    "address": " 836 NE 44th St  Oakland Park, FL 33334",
    "location": "Glades"
  },
  {
    "name": "Gratefull Thread",
    "description": "T-Shirts",
    "phone": "(954) 572-8383",
    "address": " 10158 NW 47th St  Sunrise, FL 33351",
    "location": "Glades"
  },
  {
    "name": "Reel Web Adveritising Inc",
    "description": "Advertising Specialties",
    "phone": "(954) 771-3325",
    "address": " 4520 NE 16th Ave  Oakland Park, FL 33334",
    "location": "Glades"
  },
  {
    "name": "Pesavi Advertisimg Design Inc.",
    "description": "Advertising Agencies",
    "phone": "(561) 926-1190",
    "address": " 5533 Pacific Blvd Apt 4201  Boca Raton, FL 33433",
    "location": "Glades"
  },
  {
    "name": "Trainor Metal Products",
    "description": "Spray Painting & Finishing",
    "phone": "(561) 922-7637",
    "address": " 171 NW 16th St  Boca Raton, FL 33432",
    "location": "Glades"
  }
]
