[
  {
    "name": "Phoenix Advertising & Marketing Communications",
    "description": "Advertising Agencies",
    "phone": "(941) 929-9396",
    "address": " 7350 S Tamiami Trl # 154  Sarasota, FL 34231",
    "location": "Gulf"
  },
  {
    "name": "P Taylor McHone Advertising",
    "description": "Advertising Agencies",
    "phone": "(941) 923-2285",
    "address": " 5610 Saint Louis Ave  Sarasota, FL 34233",
    "location": "Gulf"
  },
  {
    "name": "Advertising Delivery Solutions",
    "description": "Advertising Agencies",
    "phone": "(941) 922-3398",
    "address": " 5045 S Tamiami Trl  Sarasota, FL 34231",
    "location": "Gulf"
  },
  {
    "name": "Atomix Advertising",
    "description": "Advertising Specialties",
    "phone": "(941) 260-8387",
    "address": " 4598 Ashton Rd  Sarasota, FL 34233",
    "location": "Gulf"
  },
  {
    "name": "Positively Main Street Graphics Advertising Art & Design",
    "description": "Advertising Agencies",
    "phone": "(941) 366-4959",
    "address": " 1460 Main St  Sarasota, FL 34236",
    "location": "Gulf"
  },
  {
    "name": "Tropical Promotions-Adventures In Advertising",
    "description": "Awards",
    "phone": "(941) 955-4500",
    "address": " 715 N Washington Blvd  Sarasota, FL 34236",
    "location": "Gulf"
  },
  {
    "name": "Adventures In Advertising Tropical Promotions",
    "description": "Advertising Specialties",
    "phone": "(941) 955-9508",
    "address": " 4411 Bee Ridge Rd  Sarasota, FL 34233",
    "location": "Gulf"
  },
  {
    "name": "New Vision Advertising",
    "description": "Advertising Agencies",
    "phone": "(941) 366-3757",
    "address": " 1751 Mound St  Sarasota, FL 34236",
    "location": "Gulf"
  },
  {
    "name": "Nuevo Advertising Group Inc",
    "description": "Advertising Agencies",
    "phone": "(941) 752-4433",
    "address": " 677 N Washington Blvd  Sarasota, FL 34236",
    "location": "Gulf"
  },
  {
    "name": "Smith Advertising & Associates",
    "description": "Advertising Agencies",
    "phone": "(941) 955-7094",
    "address": " 1133 4th St Ste 205  Sarasota, FL 34236",
    "location": "Gulf"
  },
  {
    "name": "Green Gem Advertising Inc",
    "description": "Advertising Agencies",
    "phone": "(833) 787-5724",
    "address": " 1058 N Tamiami Trl  Sarasota, FL 34236",
    "location": "Gulf"
  },
  {
    "name": "Smith And Associates Advertising",
    "description": "Advertising Agencies",
    "phone": "(941) 355-7900",
    "address": " 33 S Palm Ave  Sarasota, FL 34236",
    "location": "Gulf"
  },
  {
    "name": "Key Advertising",
    "description": "Advertising Agencies",
    "phone": "(941) 377-3488",
    "address": " 1415 Ranchero Dr  Sarasota, FL 34240",
    "location": "Gulf"
  },
  {
    "name": "Premium Advertising",
    "description": "Advertising Agencies",
    "phone": "(941) 702-8607",
    "address": " 1235 Sarasota Center Blvd  Sarasota, FL 34240",
    "location": "Gulf"
  },
  {
    "name": "Sharper Advertising",
    "description": "Marketing Programs & Services",
    "phone": "(941) 702-8607",
    "address": " 1235 Sarasota Center Blvd  Sarasota, FL 34240",
    "location": "Gulf"
  },
  {
    "name": "Glass Advertising Inc",
    "description": "Advertising Agencies",
    "phone": "(941) 351-4516",
    "address": " 8051 N Tamiami Trl  Sarasota, FL 34243",
    "location": "Gulf"
  },
  {
    "name": "Positively Mainstreet Graphics Advertising",
    "description": "Advertising Agencies",
    "phone": "(941) 360-6839",
    "address": " 1225 39th St  Sarasota, FL 34234",
    "location": "Gulf"
  },
  {
    "name": "Rooks Advertising",
    "description": "Advertising Agencies",
    "phone": "(941) 747-2021",
    "address": " 6958 Professional Pkwy E  Lakewood Ranch, FL 34240",
    "location": "Gulf"
  },
  {
    "name": "Berlin Outdoor Advertising",
    "description": "Outdoor Advertising",
    "phone": "(941) 488-1314",
    "address": " 240 Bahama St.  Venice, FL 34285",
    "location": "Gulf"
  },
  {
    "name": "Island Bold Advertising",
    "description": "Advertising Agencies",
    "phone": "(833) 361-5243",
    "address": " 9232 66th Avenue Dr E  Bradenton, FL 34202",
    "location": "Gulf"
  },
  {
    "name": "Reel Deal Advertising",
    "description": "Advertising Agencies",
    "phone": "(877) 899-7865",
    "address": " 6728 26th St W  Bradenton, FL 34207",
    "location": "Gulf"
  },
  {
    "name": "A Better Reality Advertising",
    "description": "Management Consultants",
    "phone": "(941) 932-8006",
    "address": " 1100 Dartmouth Dr  Bradenton, FL 34207",
    "location": "Gulf"
  },
  {
    "name": "Ad Exact Advertising",
    "description": "Advertising Agencies",
    "phone": "(941) 748-1900",
    "address": " 5232 Blossom Cv  Bradenton, FL 34211",
    "location": "Gulf"
  },
  {
    "name": "Blue Wave Multi Media Advertising",
    "description": "Internet Consultants",
    "phone": "(800) 253-1272",
    "address": " 11523 Saw Palm Creek Trl  Bradenton, FL 34211",
    "location": "Gulf"
  },
  {
    "name": "Market Wise Advertising",
    "description": "Advertising Agencies",
    "phone": "(941) 473-0535",
    "address": " 614 Palomino Trl  Englewood, FL 34223",
    "location": "Gulf"
  },
  {
    "name": "RSVP Advertising of Sarasota",
    "description": "Advertising Agencies",
    "phone": "(941) 360-2145",
    "address": " 16535 County Road 675  Parrish, FL 34219",
    "location": "Gulf"
  },
  {
    "name": "All Source Advertising",
    "description": "Advertising Agencies",
    "phone": "(239) 997-3800",
    "address": " 2232 Latarche Ave  North Port, FL 34288",
    "location": "Gulf"
  },
  {
    "name": "Gelmtree Advertising Consulting & Management",
    "description": "Advertising Agencies",
    "phone": "(352) 408-8601",
    "address": " 5363 Tevis Ter  North Port, FL 34288",
    "location": "Gulf"
  },
  {
    "name": "GR8IDEA Advertising",
    "description": "Direct Mail Advertising",
    "phone": "(941) 258-4060",
    "address": " 21005 Alpine Ave  Port Charlotte, FL 33952",
    "location": "Gulf"
  },
  {
    "name": "Owens Electric",
    "description": "Professional Engineers",
    "phone": "(941) 210-0205",
    "address": " 2242 Industrial Blvd Fl 34234  Sarasota, FL 34234",
    "location": "Gulf"
  },
  {
    "name": "Signs Marketing & Advertisi",
    "description": "Signs",
    "phone": "(941) 727-2901",
    "address": " 5421 15th St E  Bradenton, FL 34203",
    "location": "Gulf"
  }
]
