[
  {
    "name": "Captree Advertising",
    "description": "Advertising Agencies",
    "phone": "(386) 871-2080",
    "address": " 555 Maribella Ct  New Smyrna Beach, FL 32168",
    "location": "Hamilton"
  },
  {
    "name": "Barlow Advertising Specialties",
    "description": "Advertising Specialties",
    "phone": "(386) 423-1320",
    "address": " 1792 Persimmon Cir  Edgewater, FL 32132",
    "location": "Hamilton"
  },
  {
    "name": "Image Makers Advertising",
    "description": "Advertising Specialties",
    "phone": "(386) 236-1200",
    "address": " 140 Beach St  Ponce Inlet, FL 32127",
    "location": "Hamilton"
  },
  {
    "name": "My Advertising Pays",
    "description": "Internet Marketing & Advertising",
    "phone": "(386) 523-6650",
    "address": " 3721 S Atlantic Ave  Daytona Beach, FL 32118",
    "location": "Hamilton"
  },
  {
    "name": "Benedict Advertising & Marketing",
    "description": "Advertising Agencies",
    "phone": "(386) 255-1222",
    "address": " 59 Dunlawton Ave  Port Orange, FL 32127",
    "location": "Hamilton"
  },
  {
    "name": "Lamar Advertising Co",
    "description": "Transit Advertising",
    "phone": "(386) 258-0206",
    "address": " 475 Fentress Blvd Ste L  Daytona Beach, FL 32114",
    "location": "Hamilton"
  },
  {
    "name": "A L C H Advertising & Mail Inc",
    "description": "Advertising Agencies",
    "phone": "(386) 322-3737",
    "address": " 6 Cormorant Cir  Daytona Beach, FL 32119",
    "location": "Hamilton"
  },
  {
    "name": "Alan & Bob McGarity Advertising",
    "description": "Advertising Agencies",
    "phone": "(386) 252-6655",
    "address": " 401 Skyview Ln  Daytona Beach, FL 32114",
    "location": "Hamilton"
  },
  {
    "name": "Image Makers Advertising Inc",
    "description": "Advertising Agencies",
    "phone": "(386) 236-1200",
    "address": " 140 S Beach St Ste 202  Daytona Beach, FL 32114",
    "location": "Hamilton"
  },
  {
    "name": "Coastline Advertising Specialties",
    "description": "Advertising Agencies",
    "phone": "(386) 238-7703",
    "address": " 370 N Nova Rd  Daytona Beach, FL 32114",
    "location": "Hamilton"
  },
  {
    "name": "Benedict Advertising",
    "description": "Direct Mail Advertising",
    "phone": "(386) 255-1222",
    "address": " 640 N Peninsula Dr  Daytona Beach, FL 32118",
    "location": "Hamilton"
  },
  {
    "name": "S 2 Advertising",
    "description": "Advertising Agencies",
    "phone": "(386) 672-3150",
    "address": " 533 N Nova Rd Ste 213B  Ormond Beach, FL 32174",
    "location": "Hamilton"
  },
  {
    "name": "D2 Advertising",
    "description": "Advertising Agencies",
    "phone": "(866) 275-5108",
    "address": " 307 W Granada Blvd  Ormond Beach, FL 32174",
    "location": "Hamilton"
  },
  {
    "name": "Promoteme Advertising",
    "description": "Advertising Agencies",
    "phone": "(386) 320-9999",
    "address": " 1 N Beach St  Ormond Beach, FL 32174",
    "location": "Hamilton"
  },
  {
    "name": "i4 Advertising Agency LLC",
    "description": "Advertising Agencies",
    "phone": "(407) 416-1515",
    "address": " 610 Deltona Blvd, Ste D  Deltona, FL 32725",
    "location": "Hamilton"
  },
  {
    "name": "Orlando Sentinel Advertising",
    "description": "Advertising Specialties",
    "phone": "(386) 851-7900",
    "address": " 2730 Enterprise Rd  Orange City, FL 32763",
    "location": "Hamilton"
  },
  {
    "name": "A7 Advertising",
    "description": "Advertising Agencies",
    "phone": "(386) 453-1464",
    "address": " 603 Elkhorn Fern Ln  Deland, FL 32720",
    "location": "Hamilton"
  },
  {
    "name": "West Volusia Tourism & Advertising Au",
    "description": "Advertising Specialties",
    "phone": "(386) 734-0162",
    "address": " 116 W New York Ave  Deland, FL 32720",
    "location": "Hamilton"
  },
  {
    "name": "Liberty Advertising & Flag Co",
    "description": "Advertising Specialties",
    "phone": "(386) 985-2050",
    "address": " 1515 Arredondo Grant Rd  De Leon Springs, FL 32130",
    "location": "Hamilton"
  },
  {
    "name": "Giant Advertising Balloons",
    "description": "Advertising Specialties",
    "phone": "(321) 264-0610",
    "address": " 2966 Brandywine Cir  Titusville, FL 32796",
    "location": "Hamilton"
  },
  {
    "name": "Backseat Advertising",
    "description": "Advertising Agencies",
    "phone": "(407) 915-7006",
    "address": " 485 Specialty Pt  Sanford, FL 32771",
    "location": "Hamilton"
  },
  {
    "name": "Evok Advertising",
    "description": "Advertising Agencies",
    "phone": "(407) 302-4416",
    "address": " 152 N 4th St  Lake Mary, FL 32746",
    "location": "Hamilton"
  },
  {
    "name": "Marketleverage Interactive Advertising",
    "description": "Advertising Specialties",
    "phone": "(407) 268-7648",
    "address": " 1515 International Pkwy  Lake Mary, FL 32746",
    "location": "Hamilton"
  },
  {
    "name": "Iceberg Advertising",
    "description": "Print Advertising",
    "phone": "(407) 486-8478",
    "address": " 3415 W Lake Mary Blvd  Lake Mary, FL 32746",
    "location": "Hamilton"
  },
  {
    "name": "Advertising Specialty Institute",
    "description": "Advertising Agencies",
    "phone": "(407) 430-3698",
    "address": " 4300 W Lake Mary Blvd  Lake Mary, FL 32746",
    "location": "Hamilton"
  },
  {
    "name": "Blue Skies Advertising Inc",
    "description": "Advertising Specialties",
    "phone": "(407) 687-2961",
    "address": " 204 Teakwood Ct  Lake Mary, FL 32746",
    "location": "Hamilton"
  },
  {
    "name": "Advantage Signs & Advertising",
    "description": "Signs",
    "phone": "(407) 339-7446",
    "address": " 1983 Corporate Sq  Longwood, FL 32750",
    "location": "Hamilton"
  },
  {
    "name": "Advertising Networks of Florida",
    "description": "Advertising-Shoppers Publications",
    "phone": "(866) 742-1373",
    "address": " 610 Crescent Executive Ct Ste 112  Lake Mary, FL 32746",
    "location": "Hamilton"
  },
  {
    "name": "Gilbert Manjura Marketing and Advertising",
    "description": "Advertising Agencies",
    "phone": "(407) 261-5739",
    "address": " 346 Freeman St  Longwood, FL 32750",
    "location": "Hamilton"
  },
  {
    "name": "Jerry Defalco Advertising",
    "description": "Advertising Specialties",
    "phone": "(407) 915-0452",
    "address": " 1825 Duffy Ct  Lake Mary, FL 32746",
    "location": "Hamilton"
  },
  {
    "name": "Mobile Designs Inc",
    "description": "T-Shirts",
    "phone": "(386) 327-2159",
    "address": " 1607 S. State Road 15 A Suite 6  Deland, FL 32720",
    "location": "Hamilton"
  },
  {
    "name": "Custom Graphic Designs",
    "description": "Copying & Duplicating Service",
    "phone": "(386) 229-3832",
    "address": " 4462 Highway 17  DeLand, FL 32720",
    "location": "Hamilton"
  },
  {
    "name": "Sunstate Awnings",
    "description": "Building Contractors-Commercial & Industrial",
    "phone": "(386) 868-4507",
    "address": " 50 Keyes Ave  Sanford, FL 32773",
    "location": "Hamilton"
  }
]
