[
  {
    "name": "Tropical Promotions-Adventures In Advertising",
    "description": "Awards",
    "phone": "(941) 955-4500",
    "address": " 715 N Washington Blvd  Sarasota, FL 34236",
    "location": "Hardee"
  },
  {
    "name": "Nuevo Advertising Group Inc",
    "description": "Advertising Agencies",
    "phone": "(941) 752-4433",
    "address": " 677 N Washington Blvd  Sarasota, FL 34236",
    "location": "Hardee"
  },
  {
    "name": "Positively Main Street Graphics Advertising Art & Design",
    "description": "Advertising Agencies",
    "phone": "(941) 366-4959",
    "address": " 1460 Main St  Sarasota, FL 34236",
    "location": "Hardee"
  },
  {
    "name": "Green Gem Advertising Inc",
    "description": "Advertising Agencies",
    "phone": "(833) 787-5724",
    "address": " 1058 N Tamiami Trl  Sarasota, FL 34236",
    "location": "Hardee"
  },
  {
    "name": "Smith Advertising & Associates",
    "description": "Advertising Agencies",
    "phone": "(941) 955-7094",
    "address": " 1133 4th St Ste 205  Sarasota, FL 34236",
    "location": "Hardee"
  },
  {
    "name": "New Vision Advertising",
    "description": "Advertising Agencies",
    "phone": "(941) 366-3757",
    "address": " 1751 Mound St  Sarasota, FL 34236",
    "location": "Hardee"
  },
  {
    "name": "Glass Advertising Inc",
    "description": "Advertising Agencies",
    "phone": "(941) 351-4516",
    "address": " 8051 N Tamiami Trl  Sarasota, FL 34243",
    "location": "Hardee"
  },
  {
    "name": "Positively Mainstreet Graphics Advertising",
    "description": "Advertising Agencies",
    "phone": "(941) 360-6839",
    "address": " 1225 39th St  Sarasota, FL 34234",
    "location": "Hardee"
  },
  {
    "name": "Smith And Associates Advertising",
    "description": "Advertising Agencies",
    "phone": "(941) 355-7900",
    "address": " 33 S Palm Ave  Sarasota, FL 34236",
    "location": "Hardee"
  },
  {
    "name": "P Taylor McHone Advertising",
    "description": "Advertising Agencies",
    "phone": "(941) 923-2285",
    "address": " 5610 Saint Louis Ave  Sarasota, FL 34233",
    "location": "Hardee"
  },
  {
    "name": "Adventures In Advertising Tropical Promotions",
    "description": "Advertising Specialties",
    "phone": "(941) 955-9508",
    "address": " 4411 Bee Ridge Rd  Sarasota, FL 34233",
    "location": "Hardee"
  },
  {
    "name": "Advertising Delivery Solutions",
    "description": "Advertising Agencies",
    "phone": "(941) 922-3398",
    "address": " 5045 S Tamiami Trl  Sarasota, FL 34231",
    "location": "Hardee"
  },
  {
    "name": "Key Advertising",
    "description": "Advertising Agencies",
    "phone": "(941) 377-3488",
    "address": " 1415 Ranchero Dr  Sarasota, FL 34240",
    "location": "Hardee"
  },
  {
    "name": "Atomix Advertising",
    "description": "Advertising Specialties",
    "phone": "(941) 260-8387",
    "address": " 4598 Ashton Rd  Sarasota, FL 34233",
    "location": "Hardee"
  },
  {
    "name": "Phoenix Advertising & Marketing Communications",
    "description": "Advertising Agencies",
    "phone": "(941) 929-9396",
    "address": " 7350 S Tamiami Trl # 154  Sarasota, FL 34231",
    "location": "Hardee"
  },
  {
    "name": "Premium Advertising",
    "description": "Advertising Agencies",
    "phone": "(941) 702-8607",
    "address": " 1235 Sarasota Center Blvd  Sarasota, FL 34240",
    "location": "Hardee"
  },
  {
    "name": "Sharper Advertising",
    "description": "Marketing Programs & Services",
    "phone": "(941) 702-8607",
    "address": " 1235 Sarasota Center Blvd  Sarasota, FL 34240",
    "location": "Hardee"
  },
  {
    "name": "Rooks Advertising",
    "description": "Advertising Agencies",
    "phone": "(941) 747-2021",
    "address": " 6958 Professional Pkwy E  Lakewood Ranch, FL 34240",
    "location": "Hardee"
  },
  {
    "name": "Reel Deal Advertising",
    "description": "Advertising Agencies",
    "phone": "(877) 899-7865",
    "address": " 6728 26th St W  Bradenton, FL 34207",
    "location": "Hardee"
  },
  {
    "name": "A Better Reality Advertising",
    "description": "Management Consultants",
    "phone": "(941) 932-8006",
    "address": " 1100 Dartmouth Dr  Bradenton, FL 34207",
    "location": "Hardee"
  },
  {
    "name": "Island Bold Advertising",
    "description": "Advertising Agencies",
    "phone": "(833) 361-5243",
    "address": " 9232 66th Avenue Dr E  Bradenton, FL 34202",
    "location": "Hardee"
  },
  {
    "name": "Ad Exact Advertising",
    "description": "Advertising Agencies",
    "phone": "(941) 748-1900",
    "address": " 5232 Blossom Cv  Bradenton, FL 34211",
    "location": "Hardee"
  },
  {
    "name": "Blue Wave Multi Media Advertising",
    "description": "Internet Consultants",
    "phone": "(800) 253-1272",
    "address": " 11523 Saw Palm Creek Trl  Bradenton, FL 34211",
    "location": "Hardee"
  },
  {
    "name": "RSVP Advertising of Sarasota",
    "description": "Advertising Agencies",
    "phone": "(941) 360-2145",
    "address": " 16535 County Road 675  Parrish, FL 34219",
    "location": "Hardee"
  },
  {
    "name": "Berlin Outdoor Advertising",
    "description": "Outdoor Advertising",
    "phone": "(941) 488-1314",
    "address": " 240 Bahama St.  Venice, FL 34285",
    "location": "Hardee"
  },
  {
    "name": "McClay Inglesby Advertising",
    "description": "Advertising Agencies",
    "phone": "(727) 906-4320",
    "address": " 2167 Vivian Way S  Saint Petersburg, FL 33712",
    "location": "Hardee"
  },
  {
    "name": "Sirius Advertising Inc",
    "description": "Advertising Agencies",
    "phone": "(727) 865-0033",
    "address": " 500 Jasmine Way S  Saint Petersburg, FL 33705",
    "location": "Hardee"
  },
  {
    "name": "Market Wise Advertising",
    "description": "Advertising Agencies",
    "phone": "(941) 473-0535",
    "address": " 614 Palomino Trl  Englewood, FL 34223",
    "location": "Hardee"
  },
  {
    "name": "Palm Bay Advertising, Inc",
    "description": "Advertising Agencies",
    "phone": "(813) 586-1685",
    "address": " 3695 40th St S  Saint Petersburg, FL 33711",
    "location": "Hardee"
  },
  {
    "name": "Resseguie Advertising",
    "description": "Advertising Agencies",
    "phone": "(813) 642-0606",
    "address": " 2203 N Creek Ct  Sun City Center, FL 33573",
    "location": "Hardee"
  },
  {
    "name": "Advertising Associates corp",
    "description": "Advertising Specialties",
    "phone": "(727) 800-8077",
    "address": " 360 Central ave ste 800  Saint Petersburg, FL 33701",
    "location": "Hardee"
  },
  {
    "name": "Wilson Media & Advertising",
    "description": "Advertising Agencies",
    "phone": "(727) 894-6100",
    "address": " 300 3rd Ave N  Saint Petersburg, FL 33701",
    "location": "Hardee"
  },
  {
    "name": "Paradise Advertising & Marketing, Inc.",
    "description": "Marketing Programs & Services",
    "phone": "(727) 821-5155",
    "address": " 150 2nd Ave N Ste 800  Saint Petersburg, FL 33701",
    "location": "Hardee"
  },
  {
    "name": "All Source Advertising",
    "description": "Advertising Agencies",
    "phone": "(239) 997-3800",
    "address": " 2232 Latarche Ave  North Port, FL 34288",
    "location": "Hardee"
  },
  {
    "name": "Helinger Advertising",
    "description": "Advertising-Promotional Products",
    "phone": "(727) 327-3333",
    "address": " 4201 Central Ave  Saint Petersburg, FL 33713",
    "location": "Hardee"
  },
  {
    "name": "Phoenix Advertising Graphics",
    "description": "Screen Printing",
    "phone": "(813) 642-0002",
    "address": " 6101 Adamsville Rd  Gibsonton, FL 33534",
    "location": "Hardee"
  },
  {
    "name": "Phoenix Advertising",
    "description": "Advertising Agencies",
    "phone": "(813) 642-0002",
    "address": " 11542 Sumner Rd  Wimauma, FL 33598",
    "location": "Hardee"
  },
  {
    "name": "Paradise Advertising & Marketing",
    "description": "Advertising Agencies",
    "phone": "(727) 821-5155",
    "address": " 5999 Central Ave  Saint Petersburg, FL 33710",
    "location": "Hardee"
  },
  {
    "name": "Advantage Indoor Advertising",
    "description": "Advertising Agencies",
    "phone": "(727) 800-2600",
    "address": " 6100 Central Ave  Saint Petersburg, FL 33707",
    "location": "Hardee"
  },
  {
    "name": "Advertising & Marketing Spec",
    "description": "Advertising Agencies",
    "phone": "(727) 527-6419",
    "address": " 4906 33rd Ave N  Saint Petersburg, FL 33710",
    "location": "Hardee"
  },
  {
    "name": "Gelmtree Advertising Consulting & Management",
    "description": "Advertising Agencies",
    "phone": "(352) 408-8601",
    "address": " 5363 Tevis Ter  North Port, FL 34288",
    "location": "Hardee"
  },
  {
    "name": "DANG designs & advertising",
    "description": "Computer Graphics",
    "phone": "(727) 493-4366",
    "address": " 111 2nd Ave NE Ste 900  Saint Petersburg, FL 33701",
    "location": "Hardee"
  },
  {
    "name": "Owens Electric",
    "description": "Professional Engineers",
    "phone": "(941) 210-0205",
    "address": " 2242 Industrial Blvd Fl 34234  Sarasota, FL 34234",
    "location": "Hardee"
  },
  {
    "name": "Solar Designs",
    "description": "Auto Repair & Service",
    "phone": "(813) 922-0532",
    "address": " 103 W College Ave  Ruskin, FL 33570",
    "location": "Hardee"
  },
  {
    "name": "Tampa Bay Times",
    "description": "Newspapers",
    "phone": "(656) 201-8700",
    "address": " 490 1st Ave S  St Petersburg, FL 33701",
    "location": "Hardee"
  },
  {
    "name": "Advertizing Air Force",
    "description": "Advertising-Aerial",
    "phone": "(727) 823-0240",
    "address": " 341 8th Ave SE  Saint Petersburg, FL 33701",
    "location": "Hardee"
  },
  {
    "name": "Signs Marketing & Advertisi",
    "description": "Signs",
    "phone": "(941) 727-2901",
    "address": " 5421 15th St E  Bradenton, FL 34203",
    "location": "Hardee"
  }
]
