[
  {
    "name": "TJC Advertising",
    "description": "Signs",
    "phone": "(321) 459-1771",
    "address": " 2095 Mona Ct  Merritt Island, FL 32952",
    "location": "Hendry"
  },
  {
    "name": "Superior Advertising & Marketing",
    "description": "Advertising Agencies",
    "phone": "(321) 784-9321",
    "address": " 339 Jack Dr  Cocoa Beach, FL 32931",
    "location": "Hendry"
  },
  {
    "name": "Opus Advertising",
    "description": "Advertising Agencies",
    "phone": "(321) 799-0098",
    "address": " 2210 S Atlantic Ave  Cocoa Beach, FL 32931",
    "location": "Hendry"
  },
  {
    "name": "Transworld Advertising Inc",
    "description": "Advertising Agencies",
    "phone": "(321) 259-7737",
    "address": " 3684 N Wickham Rd  Melbourne, FL 32935",
    "location": "Hendry"
  },
  {
    "name": "Alive Advertising",
    "description": "Advertising Specialties",
    "phone": "(321) 613-8650",
    "address": " 1341 Cheney Hwy  Titusville, FL 32780",
    "location": "Hendry"
  },
  {
    "name": "Sky Advertising",
    "description": "Advertising Agencies",
    "phone": "(321) 777-0140",
    "address": " 664 S Patrick Dr  Satellite Beach, FL 32937",
    "location": "Hendry"
  },
  {
    "name": "Giant Advertising Balloons",
    "description": "Balloons-Advertising & Signage",
    "phone": "(321) 264-0610",
    "address": " 1691 S Washington Ave  Titusville, FL 32780",
    "location": "Hendry"
  },
  {
    "name": "Mtn Advertising",
    "description": "Advertising Agencies",
    "phone": "(321) 779-1010",
    "address": " 1355 S Patrick Dr  Satellite Beach, FL 32937",
    "location": "Hendry"
  },
  {
    "name": "Newsnotes Advertising",
    "description": "Advertising Agencies",
    "phone": "(608) 831-9600",
    "address": " 610 Ocean St  Satellite Beach, FL 32937",
    "location": "Hendry"
  },
  {
    "name": "Brevard Advertising Media",
    "description": "Advertising Agencies",
    "phone": "(321) 308-0453",
    "address": " 1900 S Harbor City Blvd Ste 335  Melbourne, FL 32901",
    "location": "Hendry"
  },
  {
    "name": "Double Take Advertising & Marketing Inc",
    "description": "Advertising Specialties",
    "phone": "(407) 724-0242",
    "address": " 536 E New Haven Ave  Melbourne, FL 32901",
    "location": "Hendry"
  },
  {
    "name": "Transworld Advertising",
    "description": "Advertising Agencies",
    "phone": "(321) 259-7737",
    "address": " 1900 S Harbor City Blvd  Melbourne, FL 32901",
    "location": "Hendry"
  },
  {
    "name": "ABC Advertising",
    "description": "Advertising Agencies",
    "phone": "(321) 872-0535",
    "address": " 1900 S Harbor City Blvd  Melbourne, FL 32901",
    "location": "Hendry"
  },
  {
    "name": "Allstar Advertising",
    "description": "Internet Marketing & Advertising",
    "phone": "(321) 750-7120",
    "address": " 262 Emerson Dr NW  Palm Bay, FL 32907",
    "location": "Hendry"
  },
  {
    "name": "Su Advertising Inc",
    "description": "Advertising Specialties",
    "phone": "(407) 737-3605",
    "address": " 1417 Sherman St Ste 202  Orlando, FL 32828",
    "location": "Hendry"
  },
  {
    "name": "A & A Advertising Specialties",
    "description": "Advertising-Promotional Products",
    "phone": "(407) 381-5799",
    "address": " 2414 Teton Stone Run  Orlando, FL 32828",
    "location": "Hendry"
  },
  {
    "name": "Free Online Advertising",
    "description": "Internet Marketing & Advertising",
    "phone": "(866) 238-5791",
    "address": " 1875 Knight Ave  Orlando, FL 32826",
    "location": "Hendry"
  },
  {
    "name": "Advertising Mania 2",
    "description": "Advertising Specialties",
    "phone": "(407) 498-0505",
    "address": " 1420 S Narcoossee Rd  Saint Cloud, FL 34771",
    "location": "Hendry"
  },
  {
    "name": "Advertising Mania Inc",
    "description": "Advertising Agencies",
    "phone": "(407) 846-1655",
    "address": " 1050 Dean St  Saint Cloud, FL 34771",
    "location": "Hendry"
  },
  {
    "name": "Advertising and Classified",
    "description": "Advertising Specialties",
    "phone": "(407) 891-0662",
    "address": " 1102 Pennsylvania Ave  Saint Cloud, FL 34769",
    "location": "Hendry"
  },
  {
    "name": "Outdoor Images Inc",
    "description": "Signs",
    "phone": "(321) 710-6166",
    "address": " 3175 Grissom Parkway  Cocoa, FL 32926",
    "location": "Hendry"
  },
  {
    "name": "Safari Media Direct",
    "description": "Advertising Specialties",
    "phone": "(321) 877-3863",
    "address": " 3670 N Highway 1  Cocoa, FL 32926",
    "location": "Hendry"
  }
]
