[
  {
    "name": "Affordable Placemat Advertising",
    "description": "Advertising Agencies",
    "phone": "(352) 746-9454",
    "address": " 1020 N Ottawa Ave  Lecanto, FL 34461",
    "location": "Hernando"
  },
  {
    "name": "Advertising Specialties",
    "description": "Advertising Specialties",
    "phone": "(352) 746-9962",
    "address": " 4985 N Pink Poppy Dr  Beverly Hills, FL 34465",
    "location": "Hernando"
  },
  {
    "name": "Wilson Advertising",
    "description": "Advertising Agencies",
    "phone": "(352) 465-5151",
    "address": " 8991 SW 209th Cir  Dunnellon, FL 34431",
    "location": "Hernando"
  },
  {
    "name": "Sapp Cable Advertising",
    "description": "Advertising Agencies",
    "phone": "(352) 861-7202",
    "address": " 8968 SW 100th St  Ocala, FL 34481",
    "location": "Hernando"
  },
  {
    "name": "John W Bradford Advertising",
    "description": "Advertising Agencies",
    "phone": "(352) 347-1104",
    "address": " 13439 SW 3rd Ct  Ocala, FL 34473",
    "location": "Hernando"
  },
  {
    "name": "Ray Outdoor Advertising",
    "description": "Outdoor Advertising",
    "phone": "(352) 237-0755",
    "address": " 8467 SW 16th Ave  Ocala, FL 34476",
    "location": "Hernando"
  },
  {
    "name": "Oxford Outdoor Advertising",
    "description": "Outdoor Advertising",
    "phone": "(352) 748-7702",
    "address": " 2625 NE 108th Ln  Oxford, FL 34484",
    "location": "Hernando"
  },
  {
    "name": "Lake Sumter Chi Idrens Advertise",
    "description": "Social Service Organizations",
    "phone": "(352) 461-0472",
    "address": " 901 Industrial Dr  Wildwood, FL 34785",
    "location": "Hernando"
  },
  {
    "name": "Kaplan Advertising",
    "description": "Advertising Agencies",
    "phone": "(352) 427-7779",
    "address": " 801 SW 60th Ave  Ocala, FL 34474",
    "location": "Hernando"
  },
  {
    "name": "Neptune Advertising",
    "description": "Advertising Agencies",
    "phone": "(352) 286-7534",
    "address": " 3003 SW College Rd Ste 107I  Ocala, FL 34474",
    "location": "Hernando"
  },
  {
    "name": "Wilson Advertising & Marketing",
    "description": "Marketing Consultants",
    "phone": "(352) 390-6366",
    "address": " 12 Hill Prince Dr  Ocala, FL 34482",
    "location": "Hernando"
  },
  {
    "name": "Merit Advertising Corp.",
    "description": "Advertising Agencies",
    "phone": "(352) 622-5888",
    "address": " 42 S Magnolia Ave  Ocala, FL 34471",
    "location": "Hernando"
  },
  {
    "name": "Advertising Online",
    "description": "Advertising Agencies",
    "phone": "(352) 207-7963",
    "address": " 920 SW 5th St  Ocala, FL 34471",
    "location": "Hernando"
  },
  {
    "name": "Advisors Advertising Inc",
    "description": "Advertising Agencies",
    "phone": "(352) 368-1612",
    "address": " 17 SW 1st Ave  Ocala, FL 34471",
    "location": "Hernando"
  },
  {
    "name": "PM Eckman Advertising",
    "description": "Advertising Agencies",
    "phone": "(352) 622-8118",
    "address": " 44 SE 1st Ave Ste 209  Ocala, FL 34471",
    "location": "Hernando"
  },
  {
    "name": "Henry C Acton Advertising Service",
    "description": "Advertising Agencies",
    "phone": "(352) 622-8081",
    "address": " 108 N Magnolia Ave  Ocala, FL 34475",
    "location": "Hernando"
  },
  {
    "name": "Jeff Kirbride Advertising",
    "description": "Advertising Agencies",
    "phone": "(352) 732-0080",
    "address": " 9480 NW 63rd St  Ocala, FL 34482",
    "location": "Hernando"
  },
  {
    "name": "Steve Hudgins Specialty Advertising",
    "description": "General Merchandise-Wholesale",
    "phone": "(352) 694-2922",
    "address": " 2922 SE 7th St  Ocala, FL 34471",
    "location": "Hernando"
  },
  {
    "name": "Merit Advertising Corp",
    "description": "Advertising Agencies",
    "phone": "(352) 622-5888",
    "address": " 5851 S Pine Ave  Ocala, FL 34480",
    "location": "Hernando"
  },
  {
    "name": "Lamar Outdoor Advertising",
    "description": "Advertising Agencies",
    "phone": "(352) 351-2345",
    "address": " 2065 NW 57th St  Ocala, FL 34475",
    "location": "Hernando"
  },
  {
    "name": "Brigham & Keep Advertising",
    "description": "Advertising Agencies",
    "phone": "(352) 687-3624",
    "address": " 306 Oak Track Pass  Ocala, FL 34472",
    "location": "Hernando"
  },
  {
    "name": "Marketing & Advertising by Kinney",
    "description": "Marketing Consultants",
    "phone": "(352) 259-2757",
    "address": " 506 Palmer Dr  Lady Lake, FL 32159",
    "location": "Hernando"
  },
  {
    "name": "B4 Signs & Advertising",
    "description": "Signs",
    "phone": "(352) 601-1288",
    "address": " 230 SE Highway 41  Williston, FL 32696",
    "location": "Hernando"
  },
  {
    "name": "Husebo Advertising-Public Relations Inc",
    "description": "Advertising Agencies",
    "phone": "(352) 787-5777",
    "address": " 1319 Shelfer St  Leesburg, FL 34748",
    "location": "Hernando"
  },
  {
    "name": "ABC Advertising Agency",
    "description": "Advertising Agencies",
    "phone": "(888) 385-9040",
    "address": " 914 Scarlet Plume Ln  Brooksville, FL 34604",
    "location": "Hernando"
  },
  {
    "name": "Aop Advertising",
    "description": "Advertising Agencies",
    "phone": "(352) 435-7307",
    "address": " 421 Lakeshore Dr  Leesburg, FL 34748",
    "location": "Hernando"
  },
  {
    "name": "Tropical Window Tinting & Signs",
    "description": "Sign Lettering",
    "phone": "(352) 364-4965",
    "address": " 1612 S Suncoast Blvd  Homosassa, FL 34448",
    "location": "Hernando"
  },
  {
    "name": "PIP Printing and Marketing Services",
    "description": "Records Management Consulting & Service",
    "phone": "(352) 619-1456",
    "address": " 11 Southwest 1st Avenue  Ocala, FL 34471",
    "location": "Hernando"
  },
  {
    "name": "Rogers' Sign Corp",
    "description": "Signs-Maintenance & Repair",
    "phone": "(352) 799-1923",
    "address": " 701 S Lemon Ave  Brooksville, FL 34601",
    "location": "Hernando"
  }
]
