[
  {
    "name": "Lind Outdoor Advertising Co",
    "description": "Transit Advertising",
    "phone": "(800) 444-5463",
    "address": " 409 N Main St  Jacksonville, FL 32202",
    "location": "Highlands"
  },
  {
    "name": "Lacayo Advertising Inc",
    "description": "Advertising Agencies",
    "phone": "(904) 636-5085",
    "address": " 131 E Bay St  Jacksonville, FL 32202",
    "location": "Highlands"
  },
  {
    "name": "Advertising Agency",
    "description": "Advertising Agencies",
    "phone": "(904) 353-2900",
    "address": " 131 E Bay St  Jacksonville, FL 32202",
    "location": "Highlands"
  },
  {
    "name": "BROOKSLACAYO Advertising Branding Public Relations",
    "description": "Public Relations Counselors",
    "phone": "(904) 636-5085",
    "address": " 1 Riverside Ave  Jacksonville, FL 32202",
    "location": "Highlands"
  },
  {
    "name": "Aiden Advertising",
    "description": "Advertising Specialties",
    "phone": "(904) 549-5039",
    "address": " 24 Market St  Jacksonville, FL 32202",
    "location": "Highlands"
  },
  {
    "name": "B & B Outdoor Advertising",
    "description": "Outdoor Advertising",
    "phone": "(904) 281-0000",
    "address": " 215 Osceola St  Jacksonville, FL 32204",
    "location": "Highlands"
  },
  {
    "name": "Brunet-Garcia Advertising Inc",
    "description": "Advertising Specialties",
    "phone": "(904) 346-1977",
    "address": " 1510 Hendricks Ave  Jacksonville, FL 32207",
    "location": "Highlands"
  },
  {
    "name": "Lamar Advertising Co",
    "description": "Transit Advertising",
    "phone": "(904) 394-2910",
    "address": " 1022 Park St Ste 301  Jacksonville, FL 32204",
    "location": "Highlands"
  },
  {
    "name": "Brunet-Garcia Advertising",
    "description": "Advertising Agencies",
    "phone": "(904) 346-1977",
    "address": " 1534 Oak St  Jacksonville, FL 32204",
    "location": "Highlands"
  },
  {
    "name": "Stephens Advertising Inc",
    "description": "Advertising Agencies",
    "phone": "(904) 354-1777",
    "address": " 7029 Commonwealth Ave  Jacksonville, FL 32220",
    "location": "Highlands"
  },
  {
    "name": "First Coast Advertising Service",
    "description": "Advertising Agencies",
    "phone": "(904) 554-7535",
    "address": " 840 Edgewood Ave S  Jacksonville, FL 32205",
    "location": "Highlands"
  },
  {
    "name": "Great American Advertising",
    "description": "Advertising Specialties",
    "phone": "(904) 693-4344",
    "address": " 1046 Ellis Rd S  Jacksonville, FL 32205",
    "location": "Highlands"
  },
  {
    "name": "GLOBAL ADVERTISING LLC",
    "description": "Advertising Agencies",
    "phone": "(904) 800-6332",
    "address": " 6720 Arlington Expy  Jacksonville, FL 32211",
    "location": "Highlands"
  },
  {
    "name": "National A-1 Advertising, Inc.",
    "description": "Advertising Agencies",
    "phone": "(904) 724-8255",
    "address": " 6501 Arlington Expy  Jacksonville, FL 32211",
    "location": "Highlands"
  },
  {
    "name": "American Advertising Inc",
    "description": "Outdoor Advertising",
    "phone": "(904) 739-0300",
    "address": " 3127 Atlantic Blvd Ste 117  Jacksonville, FL 32207",
    "location": "Highlands"
  },
  {
    "name": "Jacksonville Specialty Advertising",
    "description": "Advertising Specialties",
    "phone": "(904) 398-7297",
    "address": " 1801 Art Museum Dr  Jacksonville, FL 32207",
    "location": "Highlands"
  },
  {
    "name": "Broadus Matthew Advertising",
    "description": "Signs",
    "phone": "(904) 396-6950",
    "address": " 2139 Nickerson Ln  Jacksonville, FL 32207",
    "location": "Highlands"
  },
  {
    "name": "Enhanced Advertising",
    "description": "Marketing Consultants",
    "phone": "(904) 316-0345",
    "address": " 5627 Bishop Ln  Jacksonville, FL 32207",
    "location": "Highlands"
  },
  {
    "name": "Jacksonville Advertising",
    "description": "Advertising Specialties",
    "phone": "(904) 398-7297",
    "address": " 2727 Atlantic Blvd  Jacksonville, FL 32207",
    "location": "Highlands"
  },
  {
    "name": "St John & Partners Advertising & Public Relations",
    "description": "Public Relations Counselors",
    "phone": "(904) 281-2500",
    "address": " 5220 Belfort Rd Ste 400  Jacksonville, FL 32256",
    "location": "Highlands"
  },
  {
    "name": "William G Schmidt Advertising",
    "description": "Advertising Agencies",
    "phone": "(904) 384-7000",
    "address": " 4814 Algonquin Ave  Jacksonville, FL 32210",
    "location": "Highlands"
  },
  {
    "name": "Steven & Stephen Advertising",
    "description": "Advertising Agencies",
    "phone": "(904) 737-8171",
    "address": " 7899 Baymeadows Way  Jacksonville, FL 32256",
    "location": "Highlands"
  },
  {
    "name": "Andersen Advertising",
    "description": "Advertising Specialties",
    "phone": "(904) 733-7240",
    "address": " 1752 Clemson Rd  Jacksonville, FL 32217",
    "location": "Highlands"
  },
  {
    "name": "American Advertising",
    "description": "Outdoor Advertising",
    "phone": "(904) 443-7771",
    "address": " 6278 Dupont Station Ct E  Jacksonville, FL 32217",
    "location": "Highlands"
  },
  {
    "name": "Integrated Advertising Inc",
    "description": "Advertising Agencies",
    "phone": "(904) 296-2585",
    "address": " 6817 Southpoint Pkwy Ste 804  Jacksonville, FL 32216",
    "location": "Highlands"
  },
  {
    "name": "Brookslacayo Advertising",
    "description": "Advertising Agencies",
    "phone": "(904) 470-2300",
    "address": " 7563 Philips Hwy  Jacksonville, FL 32256",
    "location": "Highlands"
  },
  {
    "name": "ZAG Advertising",
    "description": "Advertising Agencies",
    "phone": "(904) 733-2998",
    "address": " 8547 San Jose Blvd  Jacksonville, FL 32217",
    "location": "Highlands"
  },
  {
    "name": "B & B Advertising Inc",
    "description": "Advertising-Promotional Products",
    "phone": "(904) 381-1214",
    "address": " 4749 Ortega Forest Dr  Jacksonville, FL 32210",
    "location": "Highlands"
  },
  {
    "name": "River City Advertising",
    "description": "Engraving",
    "phone": "(904) 731-3452",
    "address": " 3514 Morton St  Jacksonville, FL 32217",
    "location": "Highlands"
  },
  {
    "name": "Ford Dealers Advertising Fund",
    "description": "Advertising Agencies",
    "phone": "(904) 737-0449",
    "address": " 6198 Deepwood Dr W  Jacksonville, FL 32244",
    "location": "Highlands"
  },
  {
    "name": "Adventures in Advertising",
    "description": "Advertising Agencies",
    "phone": "(904) 737-7344",
    "address": " 8130 Baymeadows Cir W  Jacksonville, FL 32256",
    "location": "Highlands"
  },
  {
    "name": "Qinaos Advertising",
    "description": "Advertising Specialties",
    "phone": "(904) 337-1248",
    "address": " 9645 Baymeadows Rd  Jacksonville, FL 32256",
    "location": "Highlands"
  },
  {
    "name": "Adventures In Advertising",
    "description": "Advertising Specialties",
    "phone": "(904) 737-7344",
    "address": " 9310 Old Kings Rd S Ste 302  Jacksonville, FL 32257",
    "location": "Highlands"
  },
  {
    "name": "Captiview Advertising",
    "description": "Advertising Agencies",
    "phone": "(904) 880-6418",
    "address": " 9802 Baymeadows Rd  Jacksonville, FL 32256",
    "location": "Highlands"
  },
  {
    "name": "William Sasser & Associates Advertising Agency",
    "description": "Advertising Agencies",
    "phone": "(904) 363-2006",
    "address": " 9127 Phillips Hwy  Jacksonville, FL 32207",
    "location": "Highlands"
  },
  {
    "name": "Redee Advertising",
    "description": "Advertising Agencies",
    "phone": "(904) 463-3159",
    "address": " 13810 Sutton Park Dr N  Jacksonville, FL 32224",
    "location": "Highlands"
  },
  {
    "name": "ADS Advertising Data Scan",
    "description": "Advertising Agencies",
    "phone": "(904) 363-0016",
    "address": " 9127 Philips Hwy  Jacksonville, FL 32256",
    "location": "Highlands"
  },
  {
    "name": "Fatib Advertising",
    "description": "Computer Online Services",
    "phone": "(904) 766-2120",
    "address": " 7040 Beechfern Ln N  Jacksonville, FL 32244",
    "location": "Highlands"
  },
  {
    "name": "Amy W Pritchett Creative Advertising Services",
    "description": "Marketing Consultants",
    "phone": "(904) 527-3664",
    "address": " 11239 Losco Junction Dr S  Jacksonville, FL 32257",
    "location": "Highlands"
  },
  {
    "name": "Hartmark Advertising Solutions",
    "description": "Advertising Agencies",
    "phone": "(904) 400-4223",
    "address": " 11933 Gran Crique Ct S  Jacksonville, FL 32223",
    "location": "Highlands"
  },
  {
    "name": "Com South Advertising Inc",
    "description": "Advertising Agencies",
    "phone": "(904) 448-0400",
    "address": " 10175 Fortune Pkwy  Jacksonville, FL 32256",
    "location": "Highlands"
  },
  {
    "name": "Red House Advertising and Marketing",
    "description": "Internet Marketing & Advertising",
    "phone": "(904) 270-9390",
    "address": " 2027 Mayport Rd  Jacksonville, FL 32233",
    "location": "Highlands"
  },
  {
    "name": "Jacksonville Ace Hardware Advertising Group",
    "description": "Hardware Stores",
    "phone": "(904) 268-6886",
    "address": " 12443 San Jose Blvd  Jacksonville, FL 32223",
    "location": "Highlands"
  },
  {
    "name": "Innovative Outdoor Advertising USA",
    "description": "Transit Advertising",
    "phone": "(866) 215-1090",
    "address": " 12438 Ivy Woods Ct  Jacksonville, FL 32258",
    "location": "Highlands"
  },
  {
    "name": "Impact Advertising Group - CLOSED",
    "description": "Advertising Agencies",
    "phone": "(904) 262-6767",
    "address": " 3649 Crown Point Ct  Jacksonville, FL 32257",
    "location": "Highlands"
  },
  {
    "name": "Mass Media Outdoor Advertising Corporation",
    "description": "Outdoor Advertising",
    "phone": "(904) 982-3365",
    "address": " 127 Lora St  Neptune Beach, FL 32266",
    "location": "Highlands"
  },
  {
    "name": "Vista Outdoor Advertising",
    "description": "Advertising Agencies",
    "phone": "(912) 882-6262",
    "address": " 117 Osborne St  Saint Marys, GA 31558",
    "location": "Highlands"
  },
  {
    "name": "If Marketing and Advertising",
    "description": "Marketing Programs & Services",
    "phone": "(904) 834-3354",
    "address": " 2107 Sawgrass Village Dr  Ponte Vedra Beach, FL 32082",
    "location": "Highlands"
  },
  {
    "name": "Coastal Advertising Specialty",
    "description": "Advertising Agencies",
    "phone": "(912) 882-0603",
    "address": " 358 Osprey Cir  Saint Marys, GA 31558",
    "location": "Highlands"
  },
  {
    "name": "First Coast Advertising",
    "description": "Advertising Specialties",
    "phone": "(904) 273-7400",
    "address": " 4 Sawgrass Village Dr Ste 130C  Ponte Vedra Beach, FL 32082",
    "location": "Highlands"
  },
  {
    "name": "Chalmers Advertising & Design",
    "description": "Advertising Agencies",
    "phone": "(772) 334-7744",
    "address": " 188 Leese Dr  Saint Johns, FL 32259",
    "location": "Highlands"
  },
  {
    "name": "Lucas Design & Advertising",
    "description": "Advertising Agencies",
    "phone": "(770) 664-1316",
    "address": " 1870 Green Springs Cir  Fleming Island, FL 32003",
    "location": "Highlands"
  },
  {
    "name": "Etch Masters Of Jax",
    "description": "Advertising-Promotional Products",
    "phone": "(904) 717-5669",
    "address": " 7308 N Pearl St  Jacksonville, FL 32208",
    "location": "Highlands"
  },
  {
    "name": "Shark Signs of NE FL",
    "description": "Signs",
    "phone": "(904) 758-9171",
    "address": " 5317 Shen Ave  Jacksonville, FL 32205",
    "location": "Highlands"
  },
  {
    "name": "Bella Vision Custom Print and Gift",
    "description": "Clothing Stores",
    "phone": "(904) 258-0813",
    "address": " 8595 Beach Boulevard  Jacksonville, FL 32216",
    "location": "Highlands"
  },
  {
    "name": "First Coast Promotions",
    "description": "Balloons-Advertising & Signage",
    "phone": "(904) 262-9155",
    "address": " 3948 Sunbeam Rd #5  Jacksonville, FL 32257",
    "location": "Highlands"
  },
  {
    "name": "Sea Shells & Coral",
    "description": "Novelties",
    "phone": "(904) 241-9031",
    "address": " 239 1st St N  Jacksonville Beach, FL 32250",
    "location": "Highlands"
  },
  {
    "name": "Stitches & Screens",
    "description": "T-Shirts",
    "phone": "(904) 789-3406",
    "address": " 1939 Mayport Rd  Atlantic Beach, FL 32233",
    "location": "Highlands"
  },
  {
    "name": "B & S Signs",
    "description": "Crane Service",
    "phone": "(904) 587-1073",
    "address": " 2764 South Collins Avenue  St. Augustine, FL 32084",
    "location": "Highlands"
  }
]
