[
  {
    "name": "J & M Advertising",
    "description": "Direct Mail Advertising",
    "phone": "(727) 451-6510",
    "address": " 13618 W Hillsborough Ave  Tampa, FL 33635",
    "location": "Hillsborough"
  },
  {
    "name": "Transmedia Advertising",
    "description": "Advertising-Shoppers Publications",
    "phone": "(312) 244-9070",
    "address": " 5402 W Sligh Ave  Tampa, FL 33634",
    "location": "Hillsborough"
  },
  {
    "name": "Explosive Advertising",
    "description": "Explosives",
    "phone": "(813) 443-0873",
    "address": " 8406 Wilsky Blvd  Tampa, FL 33615",
    "location": "Hillsborough"
  },
  {
    "name": "United Advertising Publications Inc",
    "description": "Publishers-Periodical",
    "phone": "(813) 888-6297",
    "address": " 8405 Benjamin Rd  Tampa, FL 33634",
    "location": "Hillsborough"
  },
  {
    "name": "Signal Outdoor Advertising Tampa Bay",
    "description": "Outdoor Advertising",
    "phone": "(813) 249-6309",
    "address": " 6011 Benjamin Rd  Tampa, FL 33634",
    "location": "Hillsborough"
  },
  {
    "name": "Hicks Advertising Group",
    "description": "Advertising Agencies",
    "phone": "(813) 908-7722",
    "address": " 10012 N Dale Mabry Hwy  Tampa, FL 33618",
    "location": "Hillsborough"
  },
  {
    "name": "FHB Advertising",
    "description": "Advertising Agencies",
    "phone": "(813) 281-4670",
    "address": " 3001 N Rocky Point Dr  Tampa, FL 33607",
    "location": "Hillsborough"
  },
  {
    "name": "Integrity Advertising Works",
    "description": "Screen Printing-Equipment & Supplies",
    "phone": "(813) 237-6473",
    "address": " 4719 N Thatcher Ave  Tampa, FL 33614",
    "location": "Hillsborough"
  },
  {
    "name": "Dophin Bay Advertising",
    "description": "Advertising Specialties",
    "phone": "(813) 933-5206",
    "address": " 3201 Carlton Arms Dr  Tampa, FL 33614",
    "location": "Hillsborough"
  },
  {
    "name": "Akula Advertising",
    "description": "Advertising Agencies",
    "phone": "(702) 290-2048",
    "address": " 15202 Leith Walk Ln  Tampa, FL 33618",
    "location": "Hillsborough"
  },
  {
    "name": "Jay Advertising",
    "description": "Advertising Agencies",
    "phone": "(813) 639-4252",
    "address": " 2202 N West Shore Blvd  Tampa, FL 33607",
    "location": "Hillsborough"
  },
  {
    "name": "The Advertising Team",
    "description": "Advertising Agencies",
    "phone": "(813) 932-3929",
    "address": " 6741 N Armenia Ave  Tampa, FL 33604",
    "location": "Hillsborough"
  },
  {
    "name": "Shaker Advertising Agen",
    "description": "Advertising Agencies",
    "phone": "(813) 288-6970",
    "address": " 1408 N West Shore Blvd  Tampa, FL 33607",
    "location": "Hillsborough"
  },
  {
    "name": "Proactive Advertising and Marketing",
    "description": "Advertising Specialties",
    "phone": "(813) 281-2481",
    "address": " 5305 San Sebastian Ct Unit 125  Tampa, FL 33609",
    "location": "Hillsborough"
  },
  {
    "name": "Metropolitan Advertising Co",
    "description": "Outdoor Advertising",
    "phone": "(813) 870-2300",
    "address": " 1315 N Himes Ave  Tampa, FL 33607",
    "location": "Hillsborough"
  },
  {
    "name": "Metropolitan Advertising",
    "description": "Advertising Specialties",
    "phone": "(813) 877-3200",
    "address": " 3420 W La Salle St  Tampa, FL 33607",
    "location": "Hillsborough"
  },
  {
    "name": "Coast To Coast Advertising Agency",
    "description": "Advertising Agencies",
    "phone": "(813) 871-4735",
    "address": " 2411 W Boy Scout Blvd  Tampa, FL 33607",
    "location": "Hillsborough"
  },
  {
    "name": "Petralia Advertising",
    "description": "Advertising Agencies",
    "phone": "(813) 258-4741",
    "address": " 2502 N Howard Ave Ste 208  Tampa, FL 33607",
    "location": "Hillsborough"
  },
  {
    "name": "World Advertising Of Florida",
    "description": "Advertising-Promotional Products",
    "phone": "(813) 831-9058",
    "address": " 4623 W Leona St  Tampa, FL 33629",
    "location": "Hillsborough"
  },
  {
    "name": "Marshall Advertising",
    "description": "Advertising Agencies",
    "phone": "(813) 254-8300",
    "address": " 1501 S Dale Mabry Hwy  Tampa, FL 33629",
    "location": "Hillsborough"
  },
  {
    "name": "iBoss Advertising",
    "description": "Advertising Agencies",
    "phone": "(813) 737-0343",
    "address": " 1228 E 7th Ave Suite 313  Tampa, FL 33605",
    "location": "Hillsborough"
  },
  {
    "name": "Ralph Chancey Advertising",
    "description": "Advertising Agencies",
    "phone": "(813) 870-6396",
    "address": " 3302 W Cypress St  Tampa, FL 33607",
    "location": "Hillsborough"
  },
  {
    "name": "R J Advertising Inc",
    "description": "T-Shirts",
    "phone": "(813) 238-2542",
    "address": " 6109 N Nebraska Ave  Tampa, FL 33604",
    "location": "Hillsborough"
  },
  {
    "name": "Logan Outdoor Advertising, Inc",
    "description": "Outdoor Advertising",
    "phone": "(813) 253-3367",
    "address": " 1716 W Lemon St  Tampa, FL 33606",
    "location": "Hillsborough"
  },
  {
    "name": "Advluence Advertising Influence",
    "description": "Advertising Agencies",
    "phone": "(813) 254-1500",
    "address": " 1910 W Platt St  Tampa, FL 33606",
    "location": "Hillsborough"
  },
  {
    "name": "Logan Outdoor Advertising Inc",
    "description": "Transit Advertising",
    "phone": "(813) 253-3367",
    "address": " 1200 W Cass St  Tampa, FL 33606",
    "location": "Hillsborough"
  },
  {
    "name": "Carter & Company Advertising",
    "description": "Advertising Agencies",
    "phone": "(813) 254-1633",
    "address": " 606 S Boulevard  Tampa, FL 33606",
    "location": "Hillsborough"
  },
  {
    "name": "JFD Advertising & Public",
    "description": "Advertising Agencies",
    "phone": "(813) 223-4545",
    "address": " 412 E Madison St  Tampa, FL 33602",
    "location": "Hillsborough"
  },
  {
    "name": "Advertising & Marketing Co",
    "description": "Advertising Agencies",
    "phone": "(813) 832-2724",
    "address": " 4836 W Gandy Blvd  Tampa, FL 33611",
    "location": "Hillsborough"
  },
  {
    "name": "DeAngelis Advertising - Multiple Markets USA",
    "description": "Advertising Agencies",
    "phone": "(800) 318-5047",
    "address": " 100 S Ashley Dr Ste 600  Tampa, FL 33602",
    "location": "Hillsborough"
  },
  {
    "name": "McKay Advertising + Activation",
    "description": "Advertising Agencies",
    "phone": "(813) 498-0376",
    "address": " 1517 E 7th Ave Ste F  Tampa, FL 33605",
    "location": "Hillsborough"
  },
  {
    "name": "Medical Advertising Services",
    "description": "Advertising Agencies",
    "phone": "(561) 316-4999",
    "address": " 2010 E Palm Ave  Tampa, FL 33605",
    "location": "Hillsborough"
  },
  {
    "name": "Shaw Advertising Design",
    "description": "Advertising Agencies",
    "phone": "(813) 254-6202",
    "address": " 709 W Bay St  Tampa, FL 33606",
    "location": "Hillsborough"
  },
  {
    "name": "TF Advertising",
    "description": "Internet Marketing & Advertising",
    "phone": "(813) 995-7313",
    "address": " 9325 Deer Creek Dr  Tampa, FL 33647",
    "location": "Hillsborough"
  },
  {
    "name": "Dolphin Bay Advertising",
    "description": "Advertising-Broadcast & Film",
    "phone": "(813) 839-2626",
    "address": " 6102 S Macdill Ave Ste G  Tampa, FL 33611",
    "location": "Hillsborough"
  },
  {
    "name": "Creative Outdoor Advertising",
    "description": "Outdoor Advertising",
    "phone": "(561) 433-8267",
    "address": " 8875 Hidden River Pkwy  Tampa, FL 33637",
    "location": "Hillsborough"
  },
  {
    "name": "Local-Mobile ADVERTISING",
    "description": "Internet Marketing & Advertising",
    "phone": "(813) 991-6981",
    "address": " 18934 Pebble Links Cir Apt 304  Tampa, FL 33647",
    "location": "Hillsborough"
  },
  {
    "name": "Southland Advertising Specialties Corporation",
    "description": "Caps",
    "phone": "(813) 620-3990",
    "address": " 6604 Harney Rd  Tampa, FL 33610",
    "location": "Hillsborough"
  },
  {
    "name": "Sullivan Advertising Group",
    "description": "Advertising Agencies",
    "phone": "(727) 669-0001",
    "address": " 701 Enterprise Rd E  Safety Harbor, FL 34695",
    "location": "Hillsborough"
  },
  {
    "name": "NRG Advertising Inc",
    "description": "Advertising Agencies",
    "phone": "(813) 920-2031",
    "address": " 8944 Donna Lu Dr  Odessa, FL 33556",
    "location": "Hillsborough"
  },
  {
    "name": "Traffic Advertising",
    "description": "Advertising Agencies",
    "phone": "(727) 216-6470",
    "address": " 33920 Us Highway 19 N Ste 200  Palm Harbor, FL 34684",
    "location": "Hillsborough"
  },
  {
    "name": "No Limit Marketing & Advertising",
    "description": "Advertising Agencies",
    "phone": "(727) 726-4250",
    "address": " 935 Main St  Safety Harbor, FL 34695",
    "location": "Hillsborough"
  },
  {
    "name": "Casnellie Advertising & Marketing",
    "description": "Advertising Specialties",
    "phone": "(727) 772-8315",
    "address": " 207 Riviere Rd  Palm Harbor, FL 34683",
    "location": "Hillsborough"
  },
  {
    "name": "Excel Advertising & Marketing",
    "description": "Advertising Agencies",
    "phone": "(727) 791-0182",
    "address": " 2725 Park Dr  Clearwater, FL 33763",
    "location": "Hillsborough"
  },
  {
    "name": "Metro Bench Advertising",
    "description": "Advertising Specialties",
    "phone": "(727) 725-9713",
    "address": " 2770 Sunset Point Rd  Clearwater, FL 33759",
    "location": "Hillsborough"
  },
  {
    "name": "Eraserfarm-Advertising Agency",
    "description": "Advertising Agencies",
    "phone": "(813) 748-3854",
    "address": " 3123 E 4th Ave  Tampa, FL 33605",
    "location": "Hillsborough"
  },
  {
    "name": "Excel Advertising",
    "description": "Advertising Agencies",
    "phone": "(727) 791-0182",
    "address": " 3000 Gulf To Bay Blvd  Clearwater, FL 33759",
    "location": "Hillsborough"
  },
  {
    "name": "Herbie Advertising",
    "description": "Advertising Agencies",
    "phone": "(813) 288-8811",
    "address": " 2502 N Rocky Point Dr  Rocky Point, FL 33607",
    "location": "Hillsborough"
  },
  {
    "name": "Cool Cat Creative, Advertising and Design",
    "description": "Advertising Agencies",
    "phone": "(727) 230-9762",
    "address": " 1984 Allard Dr  Clearwater, FL 33763",
    "location": "Hillsborough"
  },
  {
    "name": "FKQ Advertising & Marketing Inc",
    "description": "Printing Services",
    "phone": "(727) 306-9621",
    "address": " 15351 Roosevelt Blvd  Clearwater, FL 33760",
    "location": "Hillsborough"
  },
  {
    "name": "Advantage Indoor Advertising",
    "description": "Advertising Agencies",
    "phone": "(727) 531-7622",
    "address": " 4175 E Bay Dr  Clearwater, FL 33764",
    "location": "Hillsborough"
  },
  {
    "name": "Advertising & Marketing Associates",
    "description": "Advertising Agencies",
    "phone": "(727) 449-2188",
    "address": " 801 Island Way  Clearwater Beach, FL 33767",
    "location": "Hillsborough"
  },
  {
    "name": "Godfrey Design & Advertising",
    "description": "Advertising Specialties",
    "phone": "(727) 579-1899",
    "address": " 275 96th Ave N Ste 7  Saint Petersburg, FL 33702",
    "location": "Hillsborough"
  },
  {
    "name": "GamePlan Advertising & Marketing",
    "description": "Marketing Programs & Services",
    "phone": "(813) 598-0379",
    "address": " 1236 Oxbridge Dr  Lutz, FL 33549",
    "location": "Hillsborough"
  },
  {
    "name": "Tampa Bay Advertising Fed",
    "description": "Social Service Organizations",
    "phone": "(813) 879-8223",
    "address": " 11812 N 56th St  Temple Terrace, FL 33617",
    "location": "Hillsborough"
  },
  {
    "name": "Wallace Outdoor Advertising Inc",
    "description": "Outdoor Advertising",
    "phone": "(727) 279-5976",
    "address": " 5303 Sea Forest Dr  New Port Richey, FL 34652",
    "location": "Hillsborough"
  },
  {
    "name": "Adtech Electric Advertising Inc",
    "description": "Signs",
    "phone": "(727) 585-2111",
    "address": " 180 Commerce Dr N  Largo, FL 33770",
    "location": "Hillsborough"
  },
  {
    "name": "Creative Events Advertising",
    "description": "Advertising Agencies",
    "phone": "(727) 523-8044",
    "address": " 2233 Nursery Rd  Clearwater, FL 33764",
    "location": "Hillsborough"
  },
  {
    "name": "Advertising Bull Dog",
    "description": "Advertising Specialties",
    "phone": "(727) 239-0060",
    "address": " 1433 Gulf To Bay Blvd Ste I  Clearwater, FL 33755",
    "location": "Hillsborough"
  },
  {
    "name": "Wagenvoord Advertising W",
    "description": "Advertising-Broadcast & Film",
    "phone": "(727) 441-3311",
    "address": " 706 N Myrtle Ave  Clearwater, FL 33755",
    "location": "Hillsborough"
  },
  {
    "name": "Advertising Specialties",
    "description": "Advertising-Promotional Products",
    "phone": "(727) 446-6591",
    "address": " 304 S Prospect Ave  Clearwater, FL 33756",
    "location": "Hillsborough"
  },
  {
    "name": "Media Impact Advertising",
    "description": "Advertising Agencies",
    "phone": "(727) 536-3342",
    "address": " 13825 Icot Blvd  Clearwater, FL 33760",
    "location": "Hillsborough"
  },
  {
    "name": "Southeast Advertising Inc",
    "description": "Advertising Agencies",
    "phone": "(727) 530-1603",
    "address": " 14001 63rd Way N  Clearwater, FL 33760",
    "location": "Hillsborough"
  },
  {
    "name": "Fleming Advertising",
    "description": "Advertising Agencies",
    "phone": "(727) 374-6845",
    "address": " 167 114th Ave NE  Saint Petersburg, FL 33716",
    "location": "Hillsborough"
  },
  {
    "name": "Chris Dixon Advertising Consultant",
    "description": "Business Coaches & Consultants",
    "phone": "(727) 579-2219",
    "address": " 11300 4th St N  Saint Petersburg, FL 33716",
    "location": "Hillsborough"
  },
  {
    "name": "Directory Advertising",
    "description": "Advertising Specialties",
    "phone": "(727) 584-1378",
    "address": " 2000 E Bay Dr  Largo, FL 33771",
    "location": "Hillsborough"
  },
  {
    "name": "Steele Advertising",
    "description": "Advertising Agencies",
    "phone": "(727) 845-8773",
    "address": " 5820 Nebraska Ave  New Port Richey, FL 34652",
    "location": "Hillsborough"
  },
  {
    "name": "King & Grube Advertising and Printing LLC",
    "description": "Printing Services",
    "phone": "(727) 327-6033",
    "address": " 1211 10th St NW  Largo, FL 33770",
    "location": "Hillsborough"
  },
  {
    "name": "Bob Advertising & Design",
    "description": "Advertising Agencies",
    "phone": "(727) 577-0760",
    "address": " 9413 Treasure Ln NE  Saint Petersburg, FL 33702",
    "location": "Hillsborough"
  },
  {
    "name": "Adventures In Advertising",
    "description": "Advertising Specialties",
    "phone": "(727) 578-3633",
    "address": " 843 93rd Ave N  Saint Petersburg, FL 33702",
    "location": "Hillsborough"
  },
  {
    "name": "Direct Advertising",
    "description": "Advertising Agencies",
    "phone": "(727) 524-7600",
    "address": " 12530 Enterprise Blvd  Largo, FL 33773",
    "location": "Hillsborough"
  },
  {
    "name": "Design Graphics Advertising",
    "description": "Graphic Designers",
    "phone": "(727) 846-0367",
    "address": " 6620 Ridge Rd  Port Richey, FL 34668",
    "location": "Hillsborough"
  },
  {
    "name": "Universal Survey Advertising Inc",
    "description": "Marketing Programs & Services",
    "phone": "(727) 517-0800",
    "address": " 12597 Walsingham Rd  Largo, FL 33774",
    "location": "Hillsborough"
  },
  {
    "name": "Directory Advertising Service",
    "description": "Directory & Guide Advertising",
    "phone": "(727) 584-8697",
    "address": " 2000 W Bay Dr  Largo, FL 33770",
    "location": "Hillsborough"
  },
  {
    "name": "Image Advertising Specialties",
    "description": "Advertising Specialties",
    "phone": "(727) 547-5264",
    "address": " 9601 61st Way N  Pinellas Park, FL 33782",
    "location": "Hillsborough"
  },
  {
    "name": "A -Direct Advertising Specialty Company",
    "description": "Advertising Agencies",
    "phone": "(727) 398-1000",
    "address": " 8950 Seminole Blvd  Seminole, FL 33772",
    "location": "Hillsborough"
  },
  {
    "name": "Impact Advertising & Web Design, LLC",
    "description": "Graphic Designers",
    "phone": "(813) 655-2882",
    "address": " PO Box 7211  Brandon, FL 33508",
    "location": "Hillsborough"
  },
  {
    "name": "Doner Advertising",
    "description": "Advertising Specialties",
    "phone": "(813) 741-9967",
    "address": " 8303 Moccasin Trail Dr  Riverview, FL 33578",
    "location": "Hillsborough"
  },
  {
    "name": "Precise Advertising Inc",
    "description": "Advertising Specialties",
    "phone": "(813) 991-4560",
    "address": " 29140 Chapel Park Dr  Wesley Chapel, FL 33543",
    "location": "Hillsborough"
  },
  {
    "name": "Bayard Advertising",
    "description": "Advertising Agencies",
    "phone": "(813) 409-3884",
    "address": " 1375 Oakfield Dr  Brandon, FL 33511",
    "location": "Hillsborough"
  },
  {
    "name": "SwaggerSpot Advertising",
    "description": "Directory & Guide Advertising",
    "phone": "(813) 531-5583",
    "address": " Po Box 1763  Brandon, FL 33509",
    "location": "Hillsborough"
  },
  {
    "name": "Helinger Advertising",
    "description": "Advertising-Promotional Products",
    "phone": "(727) 327-3333",
    "address": " 4201 Central Ave  Saint Petersburg, FL 33713",
    "location": "Hillsborough"
  },
  {
    "name": "Advertising & Marketing Spec",
    "description": "Advertising Agencies",
    "phone": "(727) 527-6419",
    "address": " 4906 33rd Ave N  Saint Petersburg, FL 33710",
    "location": "Hillsborough"
  },
  {
    "name": "Diller Advertising",
    "description": "Advertising Agencies",
    "phone": "(727) 861-7777",
    "address": " 13043 US Highway 19  Hudson, FL 34667",
    "location": "Hillsborough"
  },
  {
    "name": "Wilson Media & Advertising",
    "description": "Advertising Agencies",
    "phone": "(727) 894-6100",
    "address": " 300 3rd Ave N  Saint Petersburg, FL 33701",
    "location": "Hillsborough"
  },
  {
    "name": "Advertising Associates corp",
    "description": "Advertising Specialties",
    "phone": "(727) 800-8077",
    "address": " 360 Central ave ste 800  Saint Petersburg, FL 33701",
    "location": "Hillsborough"
  },
  {
    "name": "Paradise Advertising & Marketing",
    "description": "Advertising Agencies",
    "phone": "(727) 821-5155",
    "address": " 5999 Central Ave  Saint Petersburg, FL 33710",
    "location": "Hillsborough"
  },
  {
    "name": "Gulf Bay Advertising",
    "description": "Advertising Specialties",
    "phone": "(727) 289-4508",
    "address": " 11600 7th St E  Treasure Island, FL 33706",
    "location": "Hillsborough"
  },
  {
    "name": "Paradise Advertising & Marketing, Inc.",
    "description": "Marketing Programs & Services",
    "phone": "(727) 821-5155",
    "address": " 150 2nd Ave N Ste 800  Saint Petersburg, FL 33701",
    "location": "Hillsborough"
  },
  {
    "name": "Phoenix Advertising Graphics",
    "description": "Screen Printing",
    "phone": "(813) 642-0002",
    "address": " 6101 Adamsville Rd  Gibsonton, FL 33534",
    "location": "Hillsborough"
  },
  {
    "name": "Eliite Advertising Inc",
    "description": "Publishers-Periodical",
    "phone": "(813) 413-8247",
    "address": " 119 W Windhorst Rd  Brandon, FL 33510",
    "location": "Hillsborough"
  },
  {
    "name": "Advertising Bayard",
    "description": "Advertising Agencies",
    "phone": "(813) 409-3884",
    "address": " 510 Vonderburg Dr  Brandon, FL 33511",
    "location": "Hillsborough"
  },
  {
    "name": "Ion Apparel & Advertising",
    "description": "Screen Printing",
    "phone": "(813) 919-3663",
    "address": " 1305 Brentwood Hills Blvd  Brandon, FL 33511",
    "location": "Hillsborough"
  },
  {
    "name": "Distinctive Impressions Advertising & Promotions",
    "description": "Marketing Programs & Services",
    "phone": "(813) 672-2573",
    "address": " 11705 Boyette Rd # 414  Riverview, FL 33569",
    "location": "Hillsborough"
  },
  {
    "name": "Lacy Brown Specialty Advertising",
    "description": "Advertising Specialties",
    "phone": "(813) 659-0701",
    "address": " 4814 Edmund Ct  Dover, FL 33527",
    "location": "Hillsborough"
  },
  {
    "name": "Palm Bay Advertising, Inc",
    "description": "Advertising Agencies",
    "phone": "(813) 586-1685",
    "address": " 3695 40th St S  Saint Petersburg, FL 33711",
    "location": "Hillsborough"
  },
  {
    "name": "Sirius Advertising Inc",
    "description": "Advertising Agencies",
    "phone": "(727) 865-0033",
    "address": " 500 Jasmine Way S  Saint Petersburg, FL 33705",
    "location": "Hillsborough"
  },
  {
    "name": "McClay Inglesby Advertising",
    "description": "Advertising Agencies",
    "phone": "(727) 906-4320",
    "address": " 2167 Vivian Way S  Saint Petersburg, FL 33712",
    "location": "Hillsborough"
  },
  {
    "name": "Resseguie Advertising",
    "description": "Advertising Agencies",
    "phone": "(813) 642-0606",
    "address": " 2203 N Creek Ct  Sun City Center, FL 33573",
    "location": "Hillsborough"
  },
  {
    "name": "Phoenix Advertising",
    "description": "Advertising Agencies",
    "phone": "(813) 642-0002",
    "address": " 11542 Sumner Rd  Wimauma, FL 33598",
    "location": "Hillsborough"
  },
  {
    "name": "ABC Advertising Agency",
    "description": "Advertising Agencies",
    "phone": "(888) 385-9040",
    "address": " 914 Scarlet Plume Ln  Brooksville, FL 34604",
    "location": "Hillsborough"
  },
  {
    "name": "Prestige Advertising Worldwide",
    "description": "Advertising Specialties",
    "phone": "(352) 556-5225",
    "address": " 1401 Kass Cir  Spring Hill, FL 34606",
    "location": "Hillsborough"
  },
  {
    "name": "Wagenvoord Advertising GRP",
    "description": "Radio Stations & Broadcast Companies",
    "phone": "(813) 782-9338",
    "address": " 8541 Fort King Rd  Zephyrhills, FL 33541",
    "location": "Hillsborough"
  },
  {
    "name": "PREMIER ADVERTISING SPECIALTIES",
    "description": "Advertising-Promotional Products",
    "phone": "(800) 477-6134",
    "address": " 6218 Fort King Rd  Zephyrhills, FL 33542",
    "location": "Hillsborough"
  },
  {
    "name": "Florida Aerial Advertising - CLOSED",
    "description": "Advertising-Aerial",
    "phone": "(727) 572-8947",
    "address": " 15500 Evergreen Ave  Clearwater, FL 33762",
    "location": "Hillsborough"
  },
  {
    "name": "DANG designs & advertising",
    "description": "Computer Graphics",
    "phone": "(727) 493-4366",
    "address": " 111 2nd Ave NE Ste 900  Saint Petersburg, FL 33701",
    "location": "Hillsborough"
  },
  {
    "name": "ADM2 Exhibits & Displays",
    "description": "Directory & Guide Advertising",
    "phone": "(844) 283-8582",
    "address": " 5690 W Crenshaw St  Tampa, FL 33634",
    "location": "Hillsborough"
  },
  {
    "name": "Beth Wexler",
    "description": "Computer & Equipment Dealers",
    "phone": "(813) 435-9146",
    "address": " 7211 N Dale Mabry Hwy Ste 104  Tampa, FL 33614",
    "location": "Hillsborough"
  },
  {
    "name": "AlphaGraphics Tampa 671",
    "description": "Marketing Programs & Services",
    "phone": "(844) 647-0607",
    "address": " 4209 W Kennedy Blvd  Tampa, FL 33609",
    "location": "Hillsborough"
  },
  {
    "name": "Interprint Web Printing",
    "description": "Catalog Designers & Compilers",
    "phone": "(727) 477-0424",
    "address": " 12350 US Highway 19 N  Clearwater, FL 33764",
    "location": "Hillsborough"
  },
  {
    "name": "Directnet Advertisingnet Inc",
    "description": "Advertising Agencies",
    "phone": "(727) 567-6630",
    "address": " 9400 4th St N  Saint Petersburg, FL 33702",
    "location": "Hillsborough"
  },
  {
    "name": "Tampa Bay Times",
    "description": "Newspapers",
    "phone": "(656) 201-8700",
    "address": " 490 1st Ave S  St Petersburg, FL 33701",
    "location": "Hillsborough"
  },
  {
    "name": "Advertizing Air Force",
    "description": "Advertising-Aerial",
    "phone": "(727) 823-0240",
    "address": " 341 8th Ave SE  Saint Petersburg, FL 33701",
    "location": "Hillsborough"
  },
  {
    "name": "Solar Designs",
    "description": "Auto Repair & Service",
    "phone": "(813) 922-0532",
    "address": " 103 W College Ave  Ruskin, FL 33570",
    "location": "Hillsborough"
  },
  {
    "name": "Emerald Coast Striping",
    "description": "Parking Lot Maintenance & Marking",
    "phone": "(813) 355-4974",
    "address": " 4826 Airport Rd  Zephyrhills, FL 33542",
    "location": "Hillsborough"
  },
  {
    "name": "2SF Advertizing & Design",
    "description": "Graphic Designers",
    "phone": "(813) 416-0882",
    "address": " 4204 N Riverside Dr  Tampa, FL 33603",
    "location": "Hillsborough"
  }
]
