[
  {
    "name": "Brevard Advertising Media",
    "description": "Advertising Agencies",
    "phone": "(321) 308-0453",
    "address": " 1900 S Harbor City Blvd Ste 335  Melbourne, FL 32901",
    "location": "Indian_River"
  },
  {
    "name": "Double Take Advertising & Marketing Inc",
    "description": "Advertising Specialties",
    "phone": "(407) 724-0242",
    "address": " 536 E New Haven Ave  Melbourne, FL 32901",
    "location": "Indian_River"
  },
  {
    "name": "Transworld Advertising",
    "description": "Advertising Agencies",
    "phone": "(321) 259-7737",
    "address": " 1900 S Harbor City Blvd  Melbourne, FL 32901",
    "location": "Indian_River"
  },
  {
    "name": "ABC Advertising",
    "description": "Advertising Agencies",
    "phone": "(321) 872-0535",
    "address": " 1900 S Harbor City Blvd  Melbourne, FL 32901",
    "location": "Indian_River"
  },
  {
    "name": "Transworld Advertising Inc",
    "description": "Advertising Agencies",
    "phone": "(321) 259-7737",
    "address": " 3684 N Wickham Rd  Melbourne, FL 32935",
    "location": "Indian_River"
  },
  {
    "name": "Newsnotes Advertising",
    "description": "Advertising Agencies",
    "phone": "(608) 831-9600",
    "address": " 610 Ocean St  Satellite Beach, FL 32937",
    "location": "Indian_River"
  },
  {
    "name": "Mtn Advertising",
    "description": "Advertising Agencies",
    "phone": "(321) 779-1010",
    "address": " 1355 S Patrick Dr  Satellite Beach, FL 32937",
    "location": "Indian_River"
  },
  {
    "name": "Sky Advertising",
    "description": "Advertising Agencies",
    "phone": "(321) 777-0140",
    "address": " 664 S Patrick Dr  Satellite Beach, FL 32937",
    "location": "Indian_River"
  },
  {
    "name": "Allstar Advertising",
    "description": "Internet Marketing & Advertising",
    "phone": "(321) 750-7120",
    "address": " 262 Emerson Dr NW  Palm Bay, FL 32907",
    "location": "Indian_River"
  },
  {
    "name": "Opus Advertising",
    "description": "Advertising Agencies",
    "phone": "(321) 799-0098",
    "address": " 2210 S Atlantic Ave  Cocoa Beach, FL 32931",
    "location": "Indian_River"
  },
  {
    "name": "TJC Advertising",
    "description": "Signs",
    "phone": "(321) 459-1771",
    "address": " 2095 Mona Ct  Merritt Island, FL 32952",
    "location": "Indian_River"
  },
  {
    "name": "Superior Advertising & Marketing",
    "description": "Advertising Agencies",
    "phone": "(321) 784-9321",
    "address": " 339 Jack Dr  Cocoa Beach, FL 32931",
    "location": "Indian_River"
  },
  {
    "name": "Vero Beach Marketing & Advertising",
    "description": "Marketing Programs & Services",
    "phone": "(772) 494-0778",
    "address": " Po Box 1092  Roseland, FL 32957",
    "location": "Indian_River"
  },
  {
    "name": "Mobile Media Advertising of FL",
    "description": "Advertising Agencies",
    "phone": "(772) 388-0808",
    "address": " 385 Easy St  Sebastian, FL 32958",
    "location": "Indian_River"
  },
  {
    "name": "Tas Advertising",
    "description": "Advertising Specialties",
    "phone": "(772) 228-8579",
    "address": " 142 Abeto Ter  Sebastian, FL 32958",
    "location": "Indian_River"
  },
  {
    "name": "Mobile Media Advertising Of Florida",
    "description": "Advertising Agencies",
    "phone": "(772) 388-8682",
    "address": " 892 Jordan Ave  Sebastian, FL 32958",
    "location": "Indian_River"
  },
  {
    "name": "Outdoor Images Inc",
    "description": "Signs",
    "phone": "(321) 710-6166",
    "address": " 3175 Grissom Parkway  Cocoa, FL 32926",
    "location": "Indian_River"
  },
  {
    "name": "Safari Media Direct",
    "description": "Advertising Specialties",
    "phone": "(321) 877-3863",
    "address": " 3670 N Highway 1  Cocoa, FL 32926",
    "location": "Indian_River"
  }
]
