[
  {
    "name": "Think Agency",
    "description": "Advertising Agencies",
    "phone": "(407) 875-1999",
    "address": " 5036 Dr Phillips Blvd  Orlando, FL 32819",
    "location": "Lafayette"
  },
  {
    "name": "Aox Leads",
    "description": "Advertising Agencies",
    "phone": "(854) 269-5323",
    "address": " 7651 Ashley Park Ct  Orlando, FL 32835",
    "location": "Lafayette"
  },
  {
    "name": "Dreamway Trading",
    "description": "Advertising Agencies",
    "phone": "(407) 302-9114",
    "address": " 6735 Conroy Rd  Orlando, FL 32835",
    "location": "Lafayette"
  },
  {
    "name": "Dream Factory Productions",
    "description": "Advertising Agencies",
    "phone": "(407) 224-5227",
    "address": " 1000 Universal Studios Plz  Orlando, FL 32819",
    "location": "Lafayette"
  },
  {
    "name": "Rcp Advertising & Marketing Inc",
    "description": "Advertising Agencies",
    "phone": "(407) 578-5955",
    "address": " 7849 Saint Andrews Cir  Orlando, FL 32835",
    "location": "Lafayette"
  },
  {
    "name": "Mycity Social-Orlando Seo & Digital Marketing",
    "description": "Advertising Agencies",
    "phone": "(321) 293-0297",
    "address": " 1500 Park Center Dr  Orlando, FL 32835",
    "location": "Lafayette"
  },
  {
    "name": "The Wooldridge Group",
    "description": "Advertising Agencies",
    "phone": "(407) 648-5200",
    "address": " 5367 Conroy Rd  Orlando, FL 32811",
    "location": "Lafayette"
  },
  {
    "name": "Bee Idea Advertising",
    "description": "Advertising Agencies",
    "phone": "(407) 351-3976",
    "address": " 7250 S Kirkman Rd  Orlando, FL 32819",
    "location": "Lafayette"
  },
  {
    "name": "Different Perspective Productions",
    "description": "Advertising Agencies",
    "phone": "(407) 226-9774",
    "address": " 5728 Major Blvd  Orlando, FL 32819",
    "location": "Lafayette"
  },
  {
    "name": "Sorlyn Jean",
    "description": "Advertising Agencies",
    "phone": "(321) 988-2843",
    "address": " 979 S Kirkman Rd Apt 24  Orlando, FL 32811",
    "location": "Lafayette"
  },
  {
    "name": "Grand Design Advertising Inc",
    "description": "Advertising Agencies",
    "phone": "(407) 599-0759",
    "address": " 7516 Old Winter Garden Rd  Orlando, FL 32835",
    "location": "Lafayette"
  },
  {
    "name": "UPN",
    "description": "Advertising Agencies",
    "phone": "(407) 363-5500",
    "address": " 7512 Dr Phillips Blvd Ste 500  Orlando, FL 32819",
    "location": "Lafayette"
  },
  {
    "name": "Nimlok Orlando",
    "description": "Advertising Agencies",
    "phone": "(407) 440-2952",
    "address": " 4605 L B Mcleod Rd  Orlando, FL 32811",
    "location": "Lafayette"
  },
  {
    "name": "Wraps For Less",
    "description": "Advertising Agencies",
    "phone": "(407) 447-9045",
    "address": " 4490 35th St  Orlando, FL 32811",
    "location": "Lafayette"
  },
  {
    "name": "Altour of America",
    "description": "Advertising Agencies",
    "phone": "(407) 226-0700",
    "address": " 5876 Precision Dr  Orlando, FL 32819",
    "location": "Lafayette"
  },
  {
    "name": "Riegl USA Inc",
    "description": "Advertising Agencies",
    "phone": "(407) 248-9927",
    "address": " 7035 Grand National Dr  Orlando, FL 32819",
    "location": "Lafayette"
  },
  {
    "name": "Equity Source Consultants Inc",
    "description": "Advertising Agencies",
    "phone": "(407) 522-9664",
    "address": " 1902 Reed Hill Dr  Windermere, FL 34786",
    "location": "Lafayette"
  },
  {
    "name": "Nationwide Newspapers Advertising",
    "description": "Advertising Agencies",
    "phone": "(407) 909-1644",
    "address": " 5955 Masters Blvd  Orlando, FL 32819",
    "location": "Lafayette"
  },
  {
    "name": "Reach The Top Marketing, LLC",
    "description": "Advertising Agencies",
    "phone": "(407) 476-8266",
    "address": " 4978 Millenia Blvd Apt 203  Orlando, FL 32839",
    "location": "Lafayette"
  },
  {
    "name": "IMASIGNS Prints & More",
    "description": "Advertising Agencies",
    "phone": "(407) 412-6421",
    "address": " Orlando 32819  Orlando, FL 32819",
    "location": "Lafayette"
  },
  {
    "name": "Shackboost",
    "description": "Advertising Agencies",
    "phone": "(978) 480-0943",
    "address": " 7345 W Sand Lake Rd Ste 210  Orlando, FL 32819",
    "location": "Lafayette"
  },
  {
    "name": "LLc Title First Name C",
    "description": "Advertising Agencies",
    "phone": "(407) 203-1854",
    "address": " 7081 Grand National Dr  Orlando, FL 32819",
    "location": "Lafayette"
  },
  {
    "name": "Valpak of Greater Orlando",
    "description": "Advertising Agencies",
    "phone": "(407) 420-4818",
    "address": " 4305 Vineland Rd Ste G-16  Orlando, FL 32811",
    "location": "Lafayette"
  },
  {
    "name": "Forte Models",
    "description": "Advertising Agencies",
    "phone": "(407) 744-5451",
    "address": " 380 Hawthorne Hills Pl  Orlando, FL 32835",
    "location": "Lafayette"
  },
  {
    "name": "Illuminate Seo & Webservices",
    "description": "Advertising Agencies",
    "phone": "(800) 836-0786",
    "address": " 4150 Eastgate Dr  Orlando, FL 32839",
    "location": "Lafayette"
  },
  {
    "name": "Ccs Presentations",
    "description": "Advertising Agencies",
    "phone": "(407) 996-0079",
    "address": " 6881 Kingspointe Pkwy  Orlando, FL 32819",
    "location": "Lafayette"
  },
  {
    "name": "Airtime Promotions",
    "description": "Advertising Agencies",
    "phone": "(407) 857-2787",
    "address": " 5001 W Sand Lake Rd  Orlando, FL 32819",
    "location": "Lafayette"
  },
  {
    "name": "Quantum Leap Advertising",
    "description": "Advertising Agencies",
    "phone": "(407) 396-6300",
    "address": " 7901 Kingspointe Pkwy Ste 17  Orlando, FL 32819",
    "location": "Lafayette"
  },
  {
    "name": "NAS Recruitment Communications",
    "description": "Advertising Agencies",
    "phone": "(407) 226-1133",
    "address": " 7682 Municipal Dr  Orlando, FL 32819",
    "location": "Lafayette"
  },
  {
    "name": "Alan D Kennedy & Associates",
    "description": "Advertising Agencies",
    "phone": "(407) 876-2128",
    "address": " 9807 Walzer Ct  Windermere, FL 34786",
    "location": "Lafayette"
  },
  {
    "name": "Ashland",
    "description": "Advertising Agencies",
    "phone": "(407) 876-0045",
    "address": " 2042 Maguire Rd  Windermere, FL 34786",
    "location": "Lafayette"
  },
  {
    "name": "Amy Jones Creative Pro",
    "description": "Advertising Agencies",
    "phone": "(407) 466-6852",
    "address": " 3460 Crystal St  Gotha, FL 34734",
    "location": "Lafayette"
  },
  {
    "name": "Diggersleather",
    "description": "Advertising Agencies",
    "phone": "(407) 367-8874",
    "address": " 1612 Blackwood Ave  Gotha, FL 34734",
    "location": "Lafayette"
  },
  {
    "name": "Transfirstmedia",
    "description": "Advertising Agencies",
    "phone": "(407) 716-8800",
    "address": " 9101 International Dr  Orlando, FL 32819",
    "location": "Lafayette"
  },
  {
    "name": "ADS Plus Ink",
    "description": "Advertising Agencies",
    "phone": "(407) 370-9141",
    "address": " 7450 Sandlake Commons Blvd  Orlando, FL 32819",
    "location": "Lafayette"
  },
  {
    "name": "Geniusdv",
    "description": "Advertising Agencies",
    "phone": "(407) 286-7862",
    "address": " 7350 Futures Dr  Orlando, FL 32819",
    "location": "Lafayette"
  },
  {
    "name": "FlexMark Corporation",
    "description": "Advertising Agencies",
    "phone": "(407) 876-2999",
    "address": " 9702 Camberley Cir  Orlando, FL 32836",
    "location": "Lafayette"
  },
  {
    "name": "Elite Business Productions",
    "description": "Advertising Agencies",
    "phone": "(407) 292-9166",
    "address": " 600 Triumph Ct  Orlando, FL 32805",
    "location": "Lafayette"
  },
  {
    "name": "Valassis Inc",
    "description": "Advertising Agencies",
    "phone": "(407) 240-8200",
    "address": " 7651 Southland Blvd  Orlando, FL 32809",
    "location": "Lafayette"
  },
  {
    "name": "Guidetrack Business Svc Inc",
    "description": "Advertising Agencies",
    "phone": "(407) 888-8155",
    "address": " 6220 S Orange Blossom Trl Ste 194  Orlando, FL 32809",
    "location": "Lafayette"
  },
  {
    "name": "Dymeanite Entertainment A",
    "description": "Advertising Agencies",
    "phone": "(407) 930-3794",
    "address": " 5103 Silver Star Rd  Orlando, FL 32808",
    "location": "Lafayette"
  },
  {
    "name": "Global Time Shares",
    "description": "Advertising Agencies",
    "phone": "(407) 581-3749",
    "address": " 8421 S Orange Blossom Trl  Orlando, FL 32809",
    "location": "Lafayette"
  },
  {
    "name": "Yapor",
    "description": "Advertising Agencies",
    "phone": "(407) 909-8000",
    "address": " 8555 Bowden Way  Windermere, FL 34786",
    "location": "Lafayette"
  },
  {
    "name": "Prodigy Launch",
    "description": "Advertising Agencies",
    "phone": "(540) 404-1572",
    "address": " 10631 Village Lake Rd  Windermere, FL 34786",
    "location": "Lafayette"
  },
  {
    "name": "Enterprise Integration Solutions",
    "description": "Advertising Agencies",
    "phone": "(407) 905-9536",
    "address": " 2130 Tall Oak Dr  Winter Garden, FL 34787",
    "location": "Lafayette"
  },
  {
    "name": "JKR Advertising & Marketing",
    "description": "Advertising Agencies",
    "phone": "(321) 397-0777",
    "address": " 1 S Orange Ave  Orlando, FL 32801",
    "location": "Lafayette"
  },
  {
    "name": "Dream Factory Agency",
    "description": "Advertising Agencies",
    "phone": "(407) 745-4045",
    "address": " 189 S Orange Ave  Orlando, FL 32801",
    "location": "Lafayette"
  },
  {
    "name": "Foresight Design Group In",
    "description": "Advertising Agencies",
    "phone": "(407) 895-0029",
    "address": " 1212 Mount Vernon St  Orlando, FL 32803",
    "location": "Lafayette"
  },
  {
    "name": "Corporate Design Associat",
    "description": "Advertising Agencies",
    "phone": "(407) 898-8838",
    "address": " 1231 Mount Vernon St  Orlando, FL 32803",
    "location": "Lafayette"
  },
  {
    "name": "Push Inc",
    "description": "Advertising Agencies",
    "phone": "(407) 841-2299",
    "address": " 101 Ernestine St  Orlando, FL 32801",
    "location": "Lafayette"
  },
  {
    "name": "Market Loyal",
    "description": "Advertising Agencies",
    "phone": "(407) 900-8615",
    "address": " 615 E Colonial Dr  Orlando, FL 32803",
    "location": "Lafayette"
  },
  {
    "name": "Izea",
    "description": "Advertising Agencies",
    "phone": "(321) 332-6830",
    "address": " 150 N Orange Ave Ste 412  Orlando, FL 32801",
    "location": "Lafayette"
  },
  {
    "name": "TC Interactive Group",
    "description": "Advertising Agencies",
    "phone": "(888) 313-7077",
    "address": " 1024 W Pine St  Orlando, FL 32805",
    "location": "Lafayette"
  },
  {
    "name": "Cosmetic Promotions Inc",
    "description": "Advertising Agencies",
    "phone": "(407) 644-9916",
    "address": " 1216 W Amelia St  Orlando, FL 32805",
    "location": "Lafayette"
  },
  {
    "name": "Agencythe",
    "description": "Advertising Agencies",
    "phone": "(407) 985-3088",
    "address": " 5025 S Orange Ave  Orlando, FL 32809",
    "location": "Lafayette"
  },
  {
    "name": "Maven Creative",
    "description": "Advertising Agencies",
    "phone": "(407) 704-8426",
    "address": " 55 W Church St  Orlando, FL 32801",
    "location": "Lafayette"
  },
  {
    "name": "The Wagner Agency",
    "description": "Advertising Agencies",
    "phone": "(407) 541-0523",
    "address": " 300 S Orange Ave Ste 1000  Orlando, FL 32801",
    "location": "Lafayette"
  },
  {
    "name": "Carlton Co Inc",
    "description": "Advertising Agencies",
    "phone": "(407) 256-6072",
    "address": " 620 Gatlin Ave  Orlando, FL 32806",
    "location": "Lafayette"
  },
  {
    "name": "Strange Cloudz Clearinghouse",
    "description": "Advertising Agencies",
    "phone": "(407) 458-4480",
    "address": " 4139 Player Cir  Orlando, FL 32808",
    "location": "Lafayette"
  },
  {
    "name": "Knight Images Inc",
    "description": "Advertising Agencies",
    "phone": "(407) 206-1011",
    "address": " 130 S Orange Ave  Orlando, FL 32801",
    "location": "Lafayette"
  },
  {
    "name": "Neo Reach Inc",
    "description": "Advertising Agencies",
    "phone": "(877) 972-2299",
    "address": " 189 S Orange Ave  Orlando, FL 32801",
    "location": "Lafayette"
  },
  {
    "name": "Noble",
    "description": "Advertising Agencies",
    "phone": "(888) 933-5646",
    "address": " 121 S Orange Ave Ste 1070  Orlando, FL 32801",
    "location": "Lafayette"
  },
  {
    "name": "321 Agency",
    "description": "Advertising Agencies",
    "phone": "(407) 734-5215",
    "address": " 121 S Orange Ave Ste 980N  Orlando, FL 32801",
    "location": "Lafayette"
  },
  {
    "name": "Orange Rock Media Inc",
    "description": "Advertising Agencies",
    "phone": "(407) 641-1580",
    "address": " 121 S. Orange Ave. Suite 1585  Orlando, FL 32801",
    "location": "Lafayette"
  },
  {
    "name": "Comrade Digital Marketing Agency Orlando",
    "description": "Advertising Agencies",
    "phone": "(321) 587-3706",
    "address": " 20 N Orange Ave  Orlando, FL 32801",
    "location": "Lafayette"
  },
  {
    "name": "Now Digital Inc",
    "description": "Advertising Agencies",
    "phone": "(407) 412-9988",
    "address": " 1 S Orange Ave  Orlando, FL 32801",
    "location": "Lafayette"
  },
  {
    "name": "Jkr Defalco Inc",
    "description": "Advertising Agencies",
    "phone": "(321) 397-0777",
    "address": " 1 S Orange Ave  Orlando, FL 32801",
    "location": "Lafayette"
  },
  {
    "name": "Maximus Inc",
    "description": "Advertising Agencies",
    "phone": "(407) 649-7219",
    "address": " 1 S Orange Ave  Orlando, FL 32801",
    "location": "Lafayette"
  },
  {
    "name": "Latavia Matthews",
    "description": "Advertising Agencies",
    "phone": "(786) 309-4596",
    "address": " 425 W Colonial Dr Ste 303  Orlando, FL 32804",
    "location": "Lafayette"
  },
  {
    "name": "THE Agency",
    "description": "Advertising Agencies",
    "phone": "(321) 356-4934",
    "address": " 5517 Hansel Ave Ste B  Orlando, FL 32809",
    "location": "Lafayette"
  },
  {
    "name": "Boardroompr",
    "description": "Advertising Agencies",
    "phone": "(407) 973-8555",
    "address": " 37 N Orange Ave  Orlando, FL 32801",
    "location": "Lafayette"
  },
  {
    "name": "Southern Cross Media",
    "description": "Advertising Agencies",
    "phone": "(407) 259-8139",
    "address": " 37 N Orange Ave Ste 500  Orlando, FL 32801",
    "location": "Lafayette"
  },
  {
    "name": "Sun Telemedia LLC",
    "description": "Advertising Agencies",
    "phone": "(321) 332-7800",
    "address": " 37 N Orange Ave Ste 500  Orlando, FL 32801",
    "location": "Lafayette"
  },
  {
    "name": "Aura Advertising and Modeling Agency",
    "description": "Advertising Agencies",
    "phone": "(321) 230-9751",
    "address": " 37 N Orange Ave Ste 500  Orlando, FL 32801",
    "location": "Lafayette"
  },
  {
    "name": "Watauga Group",
    "description": "Advertising Agencies",
    "phone": "(407) 982-2696",
    "address": " 37 N Orange Ave  Orlando, FL 32801",
    "location": "Lafayette"
  },
  {
    "name": "Radancy",
    "description": "Advertising Agencies",
    "phone": "(646) 613-2000",
    "address": " 1822 S Osceola Ave  Orlando, FL 32806",
    "location": "Lafayette"
  },
  {
    "name": "Cheetah Agency",
    "description": "Advertising Agencies",
    "phone": "(407) 470-8888",
    "address": " 111 N Orange Ave  Orlando, FL 32801",
    "location": "Lafayette"
  },
  {
    "name": "Ad Solutions Media",
    "description": "Advertising Agencies",
    "phone": "(269) 579-2130",
    "address": " 111 N Orange Ave Ste 800  Orlando, FL 32801",
    "location": "Lafayette"
  },
  {
    "name": "Chris Distribution",
    "description": "Advertising Agencies",
    "phone": "(407) 420-1230",
    "address": " 921 Shady Lane Dr  Orlando, FL 32804",
    "location": "Lafayette"
  },
  {
    "name": "Jackson Works Inc",
    "description": "Advertising Agencies",
    "phone": "(407) 930-6087",
    "address": " 310 E Anderson St  Orlando, FL 32801",
    "location": "Lafayette"
  },
  {
    "name": "Next Bridge Advisors Inc",
    "description": "Advertising Agencies",
    "phone": "(646) 755-3926",
    "address": " 1317 Edgewater Dr  Orlando, FL 32804",
    "location": "Lafayette"
  },
  {
    "name": "TKO-Terry Kane Orlando Inc",
    "description": "Advertising Agencies",
    "phone": "(407) 649-8730",
    "address": " 215 E Central Blvd  Orlando, FL 32801",
    "location": "Lafayette"
  },
  {
    "name": "Brinson, Ashley",
    "description": "Advertising Agencies",
    "phone": "(407) 567-9132",
    "address": " 927 Hoffner Ave  Orlando, FL 32809",
    "location": "Lafayette"
  },
  {
    "name": "Creative Advertising Network",
    "description": "Advertising Agencies",
    "phone": "(407) 210-6566",
    "address": " 301 E Pine St  Orlando, FL 32801",
    "location": "Lafayette"
  },
  {
    "name": "United Advertising Agency Inc",
    "description": "Advertising Agencies",
    "phone": "(407) 422-2818",
    "address": " 612 N Orange Ave  Orlando, FL 32801",
    "location": "Lafayette"
  },
  {
    "name": "Mlb Creative Inc",
    "description": "Advertising Agencies",
    "phone": "(407) 645-4652",
    "address": " 62 W Colonial Dr  Orlando, FL 32801",
    "location": "Lafayette"
  },
  {
    "name": "Cramer-Krasselt",
    "description": "Advertising Agencies",
    "phone": "(407) 841-8569",
    "address": " 225 E Robinson St Ste 570  Orlando, FL 32801",
    "location": "Lafayette"
  },
  {
    "name": "Federal Media Alliance",
    "description": "Advertising Agencies",
    "phone": "(407) 888-8064",
    "address": " 6503 Pinecastle Blvd  Orlando, FL 32809",
    "location": "Lafayette"
  },
  {
    "name": "Virtual Biz Expos",
    "description": "Advertising Agencies",
    "phone": "(407) 377-6500",
    "address": " 845 N Garland Ave  Orlando, FL 32801",
    "location": "Lafayette"
  },
  {
    "name": "Harland",
    "description": "Advertising Agencies",
    "phone": "(407) 240-4227",
    "address": " 8010 Sunport Dr Ste 103  Orlando, FL 32809",
    "location": "Lafayette"
  },
  {
    "name": "Prismatic",
    "description": "Advertising Agencies",
    "phone": "(407) 895-0029",
    "address": " 745 N Magnolia Ave Ste 301  Orlando, FL 32803",
    "location": "Lafayette"
  },
  {
    "name": "FDG Creative",
    "description": "Advertising Agencies",
    "phone": "(407) 895-0029",
    "address": " 745 N Magnolia Ave  Orlando, FL 32803",
    "location": "Lafayette"
  },
  {
    "name": "Fifty & Five - Marketing Agency",
    "description": "Advertising Agencies",
    "phone": "(310) 902-3246",
    "address": " 1001 N Orange Ave  Orlando, FL 32801",
    "location": "Lafayette"
  },
  {
    "name": "Reachlocal",
    "description": "Advertising Agencies",
    "phone": "(877) 525-6084",
    "address": " 1000 Legion Pl  Orlando, FL 32801",
    "location": "Lafayette"
  },
  {
    "name": "LocaliQ",
    "description": "Advertising Agencies",
    "phone": "(877) 525-6084",
    "address": " 1000 Legion Pl  Orlando, FL 32801",
    "location": "Lafayette"
  },
  {
    "name": "DigitalUs",
    "description": "Advertising Agencies",
    "phone": "(407) 930-8965",
    "address": " 800 N Magnolia Ave  Orlando, FL 32803",
    "location": "Lafayette"
  },
  {
    "name": "Dayner Hall Marketing & Advertising",
    "description": "Advertising Agencies",
    "phone": "(407) 206-1630",
    "address": " 621 E Pine St  Orlando, FL 32801",
    "location": "Lafayette"
  },
  {
    "name": "Bright Rain Advertising",
    "description": "Advertising Agencies",
    "phone": "(407) 440-3017",
    "address": " 733 W Smith St  Orlando, FL 32804",
    "location": "Lafayette"
  },
  {
    "name": "Fry-Hammond-Barr Inc",
    "description": "Advertising Agencies",
    "phone": "(407) 849-0100",
    "address": " 600 E Washington St  Orlando, FL 32801",
    "location": "Lafayette"
  },
  {
    "name": "Artworks",
    "description": "Advertising Agencies",
    "phone": "(407) 843-2953",
    "address": " 609 Vassar St  Orlando, FL 32804",
    "location": "Lafayette"
  },
  {
    "name": "Muzak On Hold",
    "description": "Advertising Agencies",
    "phone": "(407) 859-1179",
    "address": " 8000 S Orange Ave  Orlando, FL 32809",
    "location": "Lafayette"
  },
  {
    "name": "Jackson Advertising Inc",
    "description": "Advertising Agencies",
    "phone": "(407) 849-9995",
    "address": " 912 Highland Ave  Orlando, FL 32803",
    "location": "Lafayette"
  },
  {
    "name": "United Multi Service Group",
    "description": "Advertising Agencies",
    "phone": "(407) 377-1078",
    "address": " 2211 E Michigan St  Orlando, FL 32806",
    "location": "Lafayette"
  },
  {
    "name": "Authentic Momentum Social Media and SEO Firm",
    "description": "Advertising Agencies",
    "phone": "(407) 513-2817",
    "address": " 2 W Harvard St  Orlando, FL 32804",
    "location": "Lafayette"
  },
  {
    "name": "CGS Advertising Group Inc",
    "description": "Advertising Agencies",
    "phone": "(407) 316-8070",
    "address": " 1212 Mount Vernon St  Orlando, FL 32803",
    "location": "Lafayette"
  },
  {
    "name": "WHOISCARRUS Advertising",
    "description": "Advertising Agencies",
    "phone": "(407) 477-2528",
    "address": " 416 N Ferncreek Ave Ste A  Orlando, FL 32803",
    "location": "Lafayette"
  },
  {
    "name": "Laughing Samurai",
    "description": "Advertising Agencies",
    "phone": "(407) 982-4350",
    "address": " 1637 E Robinson St  Orlando, FL 32803",
    "location": "Lafayette"
  },
  {
    "name": "Reed Brennan Media Associates",
    "description": "Advertising Agencies",
    "phone": "(407) 894-7300",
    "address": " 628 Virginia Dr  Orlando, FL 32803",
    "location": "Lafayette"
  },
  {
    "name": "Noble Marketing Inc",
    "description": "Advertising Agencies",
    "phone": "(407) 404-6776",
    "address": " 121 S Orange Ave  Orlando, FL 32801",
    "location": "Lafayette"
  },
  {
    "name": "Prince Michael",
    "description": "Advertising Agencies",
    "phone": "(407) 347-7887",
    "address": " 7749 Jailene Dr  Windermere, FL 34786",
    "location": "Lafayette"
  },
  {
    "name": "Charles R Harris JR",
    "description": "Advertising Agencies",
    "phone": "(239) 214-3704",
    "address": " 7726 Winegard Rd  Pine Castle, FL 32809",
    "location": "Lafayette"
  },
  {
    "name": "Valpak of Central Florida",
    "description": "Advertising Agencies",
    "phone": "(407) 973-7357",
    "address": " 14027 Hampshire Bay Cir  Winter Garden, FL 34787",
    "location": "Lafayette"
  },
  {
    "name": "Detorres Group",
    "description": "Advertising Agencies",
    "phone": "(877) 700-1592",
    "address": " 13340 W Colonial Dr  Winter Garden, FL 34787",
    "location": "Lafayette"
  },
  {
    "name": "Freebie Wallet Inc",
    "description": "Advertising Agencies",
    "phone": "(407) 877-7008",
    "address": " 13350 W Colonial Dr  Winter Garden, FL 34787",
    "location": "Lafayette"
  },
  {
    "name": "Em Agency",
    "description": "Advertising Agencies",
    "phone": "(407) 573-6061",
    "address": " 855 E Plant St  Winter Garden, FL 34787",
    "location": "Lafayette"
  },
  {
    "name": "Jose Aldamuy Advertising",
    "description": "Advertising Agencies",
    "phone": "(407) 877-8451",
    "address": " 102 W Story Rd  Winter Garden, FL 34787",
    "location": "Lafayette"
  },
  {
    "name": "Anonymous Productions",
    "description": "Advertising Agencies",
    "phone": "(407) 654-9090",
    "address": " 130 S Main St  Winter Garden, FL 34787",
    "location": "Lafayette"
  },
  {
    "name": "Vidaroo Corp",
    "description": "Advertising Agencies",
    "phone": "(321) 293-3360",
    "address": " 8 N Highland Ave  Winter Garden, FL 34787",
    "location": "Lafayette"
  },
  {
    "name": "Orlando Design District",
    "description": "Advertising Agencies",
    "phone": "(407) 982-4360",
    "address": " 1225 N Orange Ave  Orlando, FL 32804",
    "location": "Lafayette"
  },
  {
    "name": "Think Creative Inc",
    "description": "Advertising Agencies",
    "phone": "(407) 896-5757",
    "address": " 1001 Virginia Dr  Orlando, FL 32803",
    "location": "Lafayette"
  },
  {
    "name": "Monster Media",
    "description": "Advertising Agencies",
    "phone": "(407) 478-8163",
    "address": " 555 S Lake Destiny Dr Suite 100  Orlando, FL 32810",
    "location": "Lafayette"
  },
  {
    "name": "MP advertising.com",
    "description": "Advertising Agencies",
    "phone": "(407) 324-3255",
    "address": " PO Box 3052 E. Jefferson Street  Orlando, FL 32802",
    "location": "Lafayette"
  },
  {
    "name": "Ralph's Transfer Co Inc",
    "description": "Advertising Agencies",
    "phone": "(407) 377-6966",
    "address": " 8420 Boggy Creek Rd  Orlando, FL 32824",
    "location": "Lafayette"
  },
  {
    "name": "S E O M",
    "description": "Advertising Agencies",
    "phone": "(407) 203-1102",
    "address": " 1916 E Robinson St  Orlando, FL 32803",
    "location": "Lafayette"
  },
  {
    "name": "Say It Loud",
    "description": "Advertising Agencies",
    "phone": "(407) 898-7299",
    "address": " 1121 N Mills Ave  Orlando, FL 32803",
    "location": "Lafayette"
  },
  {
    "name": "Sillery & Partners",
    "description": "Advertising Agencies",
    "phone": "(407) 739-8875",
    "address": " 1121 N Mills Ave  Orlando, FL 32803",
    "location": "Lafayette"
  },
  {
    "name": "Ads",
    "description": "Advertising Agencies",
    "phone": "(407) 293-0293",
    "address": " 5722 N Pine Hills Rd  Orlando, FL 32810",
    "location": "Lafayette"
  },
  {
    "name": "DeTorres Group",
    "description": "Advertising Agencies",
    "phone": "(561) 703-2538",
    "address": " 2102 E Robinson St Ste 400  Orlando, FL 32803",
    "location": "Lafayette"
  },
  {
    "name": "Businesspassion.Com",
    "description": "Advertising Agencies",
    "phone": "(407) 897-8180",
    "address": " 1043 N Shine Ave  Orlando, FL 32803",
    "location": "Lafayette"
  },
  {
    "name": "Ackerman McQueen",
    "description": "Advertising Agencies",
    "phone": "(407) 827-5355",
    "address": " 1675 E Buena Vista Dr  Orlando, FL 32830",
    "location": "Lafayette"
  },
  {
    "name": "EASY MONEY MARKETING",
    "description": "Advertising Agencies",
    "phone": "(407) 443-2938",
    "address": " 2226 Bay Leaf Dr  Orlando, FL 32837",
    "location": "Lafayette"
  },
  {
    "name": "Citrus Sign Studio",
    "description": "Advertising Agencies",
    "phone": "(321) 285-0730",
    "address": " 6110 Edgewater Dr Suite H  Orlando, FL 32810",
    "location": "Lafayette"
  },
  {
    "name": "Switch Consulting Inc",
    "description": "Advertising Agencies",
    "phone": "(407) 252-4634",
    "address": " PO Box 677326  Orlando, FL 32867",
    "location": "Lafayette"
  },
  {
    "name": "Target Classifieds",
    "description": "Advertising Agencies",
    "phone": "(407) 581-9234",
    "address": " 2816 E Robinson St  Orlando, FL 32803",
    "location": "Lafayette"
  },
  {
    "name": "Jimnez & Carrillo",
    "description": "Advertising Agencies",
    "phone": "(407) 228-2080",
    "address": " 2816 E Robinson St  Orlando, FL 32803",
    "location": "Lafayette"
  },
  {
    "name": "Acropolis Inc",
    "description": "Advertising Agencies",
    "phone": "(407) 895-4444",
    "address": " 5125 Adanson St Ste 200  Orlando, FL 32804",
    "location": "Lafayette"
  },
  {
    "name": "Fyrone Digital Solutions",
    "description": "Advertising Agencies",
    "phone": "(407) 580-9962",
    "address": " 1801 Snaresbrook Way  Orlando, FL 32837",
    "location": "Lafayette"
  },
  {
    "name": "Global Marketing Ent",
    "description": "Advertising Agencies",
    "phone": "(407) 298-2480",
    "address": " 5554 Burlwood Dr  Orlando, FL 32810",
    "location": "Lafayette"
  },
  {
    "name": "for Rent Media Solutions",
    "description": "Advertising Agencies",
    "phone": "(407) 297-0832",
    "address": " 3165 Mccrory Pl  Orlando, FL 32803",
    "location": "Lafayette"
  },
  {
    "name": "Bigeye",
    "description": "Advertising Agencies",
    "phone": "(407) 839-8599",
    "address": " 3203 Lawton Rd  Orlando, FL 32803",
    "location": "Lafayette"
  },
  {
    "name": "Luma & Leaf",
    "description": "Advertising Agencies",
    "phone": "(407) 839-8599",
    "address": " 3203 Lawton Rd  Orlando, FL 32803",
    "location": "Lafayette"
  },
  {
    "name": "Promo Only",
    "description": "Advertising Agencies",
    "phone": "(407) 838-2030",
    "address": " 257 S Lake Destiny Dr  Orlando, FL 32810",
    "location": "Lafayette"
  },
  {
    "name": "Reliable Experts Consulting",
    "description": "Advertising Agencies",
    "phone": "(321) 206-8881",
    "address": " 1800 Pembrook Dr  Orlando, FL 32810",
    "location": "Lafayette"
  },
  {
    "name": "Stadler-Green Advertising",
    "description": "Advertising Agencies",
    "phone": "(407) 667-4800",
    "address": " 1800 Pembrook Dr  Orlando, FL 32810",
    "location": "Lafayette"
  },
  {
    "name": "Lawyers Group Advertising",
    "description": "Advertising Agencies",
    "phone": "(321) 972-5620",
    "address": " 2729 W Fairbanks Ave  Winter Park, FL 32789",
    "location": "Lafayette"
  },
  {
    "name": "Ad Satisfaction",
    "description": "Advertising Agencies",
    "phone": "(407) 862-1228",
    "address": " 580 Ololu Dr  Winter Park, FL 32789",
    "location": "Lafayette"
  },
  {
    "name": "The Brandon Agency",
    "description": "Advertising Agencies",
    "phone": "(843) 916-2000",
    "address": " 1477 W Fairbanks Ave  Winter Park, FL 32789",
    "location": "Lafayette"
  },
  {
    "name": "Cash Stream Recovery",
    "description": "Advertising Agencies",
    "phone": "(407) 478-3785",
    "address": " 1290 Palmetto Ave  Winter Park, FL 32789",
    "location": "Lafayette"
  },
  {
    "name": "M Two Enterprises Inc",
    "description": "Advertising Agencies",
    "phone": "(407) 622-6224",
    "address": " 1400 W Fairbanks Ave Ste 101  Winter Park, FL 32789",
    "location": "Lafayette"
  },
  {
    "name": "Hooah",
    "description": "Advertising Agencies",
    "phone": "(407) 362-7715",
    "address": " 807 S Orlando Ave  Winter Park, FL 32789",
    "location": "Lafayette"
  },
  {
    "name": "Dat Media",
    "description": "Advertising Agencies",
    "phone": "(407) 759-5717",
    "address": " 2307 Lee Rd  Winter Park, FL 32789",
    "location": "Lafayette"
  },
  {
    "name": "Logogram",
    "description": "Advertising Agencies",
    "phone": "(407) 740-5511",
    "address": " 2250 Lee Rd  Winter Park, FL 32789",
    "location": "Lafayette"
  },
  {
    "name": "Corporate Relations Group Inc",
    "description": "Advertising Agencies",
    "phone": "(407) 628-5700",
    "address": " 2649 Pemberton Dr  Apopka, FL 32703",
    "location": "Lafayette"
  },
  {
    "name": "Stalder Green Advertising",
    "description": "Advertising Agencies",
    "phone": "(407) 645-1113",
    "address": " 1101 N Kentucky Ave  Winter Park, FL 32789",
    "location": "Lafayette"
  },
  {
    "name": "Fifty & Five-Marketing Agency",
    "description": "Advertising Agencies",
    "phone": "(407) 745-5568",
    "address": " 227 S Orlando Ave  Winter Park, FL 32789",
    "location": "Lafayette"
  },
  {
    "name": "Laughing Samura I",
    "description": "Advertising Agencies",
    "phone": "(321) 972-8660",
    "address": " 900 Orange Ave  Winter Park, FL 32789",
    "location": "Lafayette"
  },
  {
    "name": "Contemporary Management Solutions",
    "description": "Advertising Agencies",
    "phone": "(407) 644-7214",
    "address": " 251 Oakwood Way  Winter Park, FL 32789",
    "location": "Lafayette"
  },
  {
    "name": "Marketing Configurations",
    "description": "Advertising Agencies",
    "phone": "(407) 788-7538",
    "address": " 640 Douglas Ave  Winter Park, FL 32789",
    "location": "Lafayette"
  },
  {
    "name": "National Ad Mark Corporation",
    "description": "Advertising Agencies",
    "phone": "(407) 660-6684",
    "address": " 101 Southhall Ln  Maitland, FL 32751",
    "location": "Lafayette"
  },
  {
    "name": "The Ad Team",
    "description": "Advertising Agencies",
    "phone": "(407) 667-4708",
    "address": " 101 Southhall Ln  Maitland, FL 32751",
    "location": "Lafayette"
  },
  {
    "name": "Sonobi",
    "description": "Advertising Agencies",
    "phone": "(386) 320-5400",
    "address": " 444 W New England Ave  Winter Park, FL 32789",
    "location": "Lafayette"
  },
  {
    "name": "Purple Rock Sci Ssors",
    "description": "Advertising Agencies",
    "phone": "(407) 951-5934",
    "address": " 271 N Pennsylvania Ave  Winter Park, FL 32789",
    "location": "Lafayette"
  },
  {
    "name": "Grb Enterprises",
    "description": "Advertising Agencies",
    "phone": "(407) 644-1612",
    "address": " 1150 Grove St  Maitland, FL 32751",
    "location": "Lafayette"
  },
  {
    "name": "Nscope Multimedia",
    "description": "Advertising Agencies",
    "phone": "(407) 704-3640",
    "address": " 877 Grand Regency Pointe Unit 105  Altamonte Springs, FL 32714",
    "location": "Lafayette"
  },
  {
    "name": "Sosocial.Com",
    "description": "Advertising Agencies",
    "phone": "(407) 628-0020",
    "address": " 151 S New York Ave  Winter Park, FL 32789",
    "location": "Lafayette"
  },
  {
    "name": "The Apopka Chief",
    "description": "Advertising Agencies",
    "phone": "(407) 886-2777",
    "address": " 400 N Park Ave  Apopka, FL 32712",
    "location": "Lafayette"
  },
  {
    "name": "Higgins Marketing Group, Inc.",
    "description": "Advertising Agencies",
    "phone": "(407) 680-3735",
    "address": " 219 Duncan Trl  Longwood, FL 32779",
    "location": "Lafayette"
  },
  {
    "name": "Hubner & Prado Corp",
    "description": "Advertising Agencies",
    "phone": "(407) 851-6060",
    "address": " 1537 Nestlewood Trl  Orlando, FL 32837",
    "location": "Lafayette"
  },
  {
    "name": "Tom Goetschius Seminar",
    "description": "Advertising Agencies",
    "phone": "(407) 826-0736",
    "address": " 3636 Molona Dr  Orlando, FL 32837",
    "location": "Lafayette"
  },
  {
    "name": "Credit Upgrade Services",
    "description": "Advertising Agencies",
    "phone": "(407) 745-9007",
    "address": " 5815 Saint Charles Prado  Orlando, FL 32822",
    "location": "Lafayette"
  },
  {
    "name": "Dabbs Advertising",
    "description": "Advertising Agencies",
    "phone": "(407) 240-7096",
    "address": " 2714 Lone Feather Dr  Orlando, FL 32837",
    "location": "Lafayette"
  },
  {
    "name": "Synect",
    "description": "Advertising Agencies",
    "phone": "(407) 985-2547",
    "address": " 5752 S Semoran Blvd  Orlando, FL 32822",
    "location": "Lafayette"
  },
  {
    "name": "Ad Services & Consulting Inc",
    "description": "Advertising Agencies",
    "phone": "(407) 851-5529",
    "address": " 1835 Derby Glen Dr  Orlando, FL 32837",
    "location": "Lafayette"
  },
  {
    "name": "Public Promotion Innovations Inc",
    "description": "Advertising Agencies",
    "phone": "(407) 930-0982",
    "address": " 6650 Hoffner Ave  Orlando, FL 32822",
    "location": "Lafayette"
  },
  {
    "name": "Asea",
    "description": "Advertising Agencies",
    "phone": "(407) 275-6518",
    "address": " 422 Southern Charm Dr  Orlando, FL 32807",
    "location": "Lafayette"
  },
  {
    "name": "Treasures of Blessings",
    "description": "Advertising Agencies",
    "phone": "(321) 229-9703",
    "address": " 7314 E Colonial Dr  Orlando, FL 32807",
    "location": "Lafayette"
  },
  {
    "name": "Johnston Ave Inc",
    "description": "Advertising Agencies",
    "phone": "(407) 401-2888",
    "address": " 2259 J Lawson Blvd  Orlando, FL 32824",
    "location": "Lafayette"
  },
  {
    "name": "Entrende",
    "description": "Advertising Agencies",
    "phone": "(407) 282-5566",
    "address": " 7480 Narcoossee Rd Ste G  Orlando, FL 32822",
    "location": "Lafayette"
  },
  {
    "name": "Cyndie Cox Copywriter",
    "description": "Advertising Agencies",
    "phone": "(407) 816-6720",
    "address": " 562 Mendoza Dr  Orlando, FL 32825",
    "location": "Lafayette"
  },
  {
    "name": "Royaltys.Inc",
    "description": "Advertising Agencies",
    "phone": "(407) 286-7312",
    "address": " 9307 New Heritage Rd  Orlando, FL 32825",
    "location": "Lafayette"
  },
  {
    "name": "Golf Media of Central Florida",
    "description": "Advertising Agencies",
    "phone": "(407) 282-4741",
    "address": " 400 N Econlockhatchee Trl  Orlando, FL 32825",
    "location": "Lafayette"
  },
  {
    "name": "USA Direct Marketing",
    "description": "Advertising Agencies",
    "phone": "(407) 678-7750",
    "address": " 9318 E Colonial Dr Ste A11  Orlando, FL 32817",
    "location": "Lafayette"
  },
  {
    "name": "Marketing Nutz",
    "description": "Advertising Agencies",
    "phone": "(813) 404-7145",
    "address": " 6555 Sanger Rd  Orlando, FL 32827",
    "location": "Lafayette"
  },
  {
    "name": "Central Florida Monthly",
    "description": "Advertising Agencies",
    "phone": "(407) 259-2363",
    "address": " 10016 Wellness Way  Orlando, FL 32832",
    "location": "Lafayette"
  },
  {
    "name": "Wallob",
    "description": "Advertising Agencies",
    "phone": "(336) 203-7932",
    "address": " 1420 E. Altamonte Drive  Altamonte Springs, FL 32714",
    "location": "Lafayette"
  },
  {
    "name": "Brandcomet",
    "description": "Advertising Agencies",
    "phone": "(407) 622-1993",
    "address": " 465 S Orlando Ave  Maitland, FL 32751",
    "location": "Lafayette"
  },
  {
    "name": "Conectar Agency Inc",
    "description": "Advertising Agencies",
    "phone": "(407) 801-0046",
    "address": " 1620 S Orlando Ave  Maitland, FL 32751",
    "location": "Lafayette"
  },
  {
    "name": "Vantage Advertising Trade Show",
    "description": "Advertising Agencies",
    "phone": "(315) 350-3058",
    "address": " 6000 W Osceola Pkwy  Kissimmee, FL 34746",
    "location": "Lafayette"
  },
  {
    "name": "Jane Newnum and Associates",
    "description": "Advertising Agencies",
    "phone": "(407) 647-0442",
    "address": " 2107 N Park Ave  Winter Park, FL 32789",
    "location": "Lafayette"
  },
  {
    "name": "US Associates Bright Hse Network",
    "description": "Advertising Agencies",
    "phone": "(407) 951-7254",
    "address": " 2600 Maitland Center Pkwy Ste 295  Maitland, FL 32751",
    "location": "Lafayette"
  },
  {
    "name": "Comprehensive HR Solutions",
    "description": "Advertising Agencies",
    "phone": "(407) 578-8399",
    "address": " 696 Oak Hollow Way  Altamonte Springs, FL 32714",
    "location": "Lafayette"
  },
  {
    "name": "MLB Creative",
    "description": "Advertising Agencies",
    "phone": "(407) 645-4652",
    "address": " 1778 N Park Ave Ste 100  Maitland, FL 32751",
    "location": "Lafayette"
  },
  {
    "name": "Cutting Edge Communications",
    "description": "Advertising Agencies",
    "phone": "(407) 629-6366",
    "address": " 1300 Lyndale Blvd  Winter Park, FL 32789",
    "location": "Lafayette"
  },
  {
    "name": "Kingsland Henry & Assoc",
    "description": "Advertising Agencies",
    "phone": "(407) 629-0244",
    "address": " 284 N Park Ave  Winter Park, FL 32789",
    "location": "Lafayette"
  },
  {
    "name": "iHeartMedia",
    "description": "Advertising Agencies",
    "phone": "(407) 916-7800",
    "address": " 2500 Maitland Center Pkwy  Maitland, FL 32751",
    "location": "Lafayette"
  },
  {
    "name": "Fuera De Serie",
    "description": "Advertising Agencies",
    "phone": "(407) 507-5804",
    "address": " 2949 Vineland Rd  Kissimmee, FL 34746",
    "location": "Lafayette"
  },
  {
    "name": "Jerry Defalco Advertising",
    "description": "Advertising Agencies",
    "phone": "(407) 661-3131",
    "address": " 1060 Maitland Center Commons Blvd Ste 410  Maitland, FL 32751",
    "location": "Lafayette"
  },
  {
    "name": "Maxmeda Outdoor Advertising",
    "description": "Advertising Agencies",
    "phone": "(407) 716-6547",
    "address": " 847 Golfview Ter  Winter Park, FL 32789",
    "location": "Lafayette"
  },
  {
    "name": "TKO-Terry/Kane Orlando Inc",
    "description": "Advertising Agencies",
    "phone": "(407) 649-8730",
    "address": " 1051 Winderley Pl  Maitland, FL 32751",
    "location": "Lafayette"
  },
  {
    "name": "Uni International Company",
    "description": "Advertising Agencies",
    "phone": "(407) 390-1825",
    "address": " 5407 W Irlo Bronson Memorial Hwy  Kissimmee, FL 34746",
    "location": "Lafayette"
  },
  {
    "name": "Carlson Co",
    "description": "Advertising Agencies",
    "phone": "(407) 397-1040",
    "address": " 5034 W Irlo Bronson Memorial Hwy  Kissimmee, FL 34746",
    "location": "Lafayette"
  },
  {
    "name": "Affordable Advertising Kempf",
    "description": "Advertising Agencies",
    "phone": "(407) 239-1105",
    "address": " 5300 W Irlo Bronson Memorial Hwy  Kissimmee, FL 34746",
    "location": "Lafayette"
  },
  {
    "name": "Florida Apartment Assn",
    "description": "Advertising Agencies",
    "phone": "(407) 647-8839",
    "address": " 875 Concourse Pkwy S  Maitland, FL 32751",
    "location": "Lafayette"
  },
  {
    "name": "Dominion Enterprises",
    "description": "Advertising Agencies",
    "phone": "(407) 673-3466",
    "address": " 901 N Lake Destiny Rd  Maitland, FL 32751",
    "location": "Lafayette"
  },
  {
    "name": "Wilcox & Associates Inc",
    "description": "Advertising Agencies",
    "phone": "(407) 629-6746",
    "address": " 540 S Maitland Ave  Maitland, FL 32751",
    "location": "Lafayette"
  },
  {
    "name": "Bernard Hodes Advertising Inc",
    "description": "Advertising Agencies",
    "phone": "(407) 740-5002",
    "address": " 1101 N Lake Destiny Rd Ste 300  Maitland, FL 32751",
    "location": "Lafayette"
  },
  {
    "name": "Rennew Media",
    "description": "Advertising Agencies",
    "phone": "(407) 900-7734",
    "address": " 151 N Maitland Ave  Maitland, FL 32751",
    "location": "Lafayette"
  },
  {
    "name": "Chason Associates Inc",
    "description": "Advertising Agencies",
    "phone": "(321) 794-2508",
    "address": " 626 S Lakemont Ave  Winter Park, FL 32792",
    "location": "Lafayette"
  },
  {
    "name": "Clement N G",
    "description": "Advertising Agencies",
    "phone": "(407) 507-3124",
    "address": " 2757 Club Cortile Cir  Kissimmee, FL 34746",
    "location": "Lafayette"
  },
  {
    "name": "G A & Co",
    "description": "Advertising Agencies",
    "phone": "(407) 339-1736",
    "address": " 333 Croton Dr  Maitland, FL 32751",
    "location": "Lafayette"
  },
  {
    "name": "Patterson & Taylor Inc",
    "description": "Advertising Agencies",
    "phone": "(407) 339-0793",
    "address": " 145 S Orange Suite 8 Ave  Maitland, FL 32751",
    "location": "Lafayette"
  },
  {
    "name": "Reputation Savior Inc",
    "description": "Advertising Agencies",
    "phone": "(800) 826-1372",
    "address": " 1706 E Semoran Blvd Ste 112  Apopka, FL 32703",
    "location": "Lafayette"
  },
  {
    "name": "Entryform Inc",
    "description": "Advertising Agencies",
    "phone": "(407) 975-0211",
    "address": " 1870 Aloma Ave  Winter Park, FL 32789",
    "location": "Lafayette"
  },
  {
    "name": "Valpak",
    "description": "Advertising Agencies",
    "phone": "(407) 973-7357",
    "address": " 111 Acadia Ter  Kissimmee, FL 34747",
    "location": "Lafayette"
  },
  {
    "name": "Parrish Sena Group",
    "description": "Advertising Agencies",
    "phone": "(407) 880-0208",
    "address": " 314 S Central Ave  Apopka, FL 32703",
    "location": "Lafayette"
  },
  {
    "name": "Morgan Mary",
    "description": "Advertising Agencies",
    "phone": "(407) 644-6277",
    "address": " 1630 Mayfield Ave  Winter Park, FL 32789",
    "location": "Lafayette"
  },
  {
    "name": "AG Ad Agency",
    "description": "Advertising Agencies",
    "phone": "(407) 645-1950",
    "address": " 166 Lookout Pl Ste 101  Maitland, FL 32751",
    "location": "Lafayette"
  },
  {
    "name": "Central Florida Sign Installers",
    "description": "Advertising Agencies",
    "phone": "(407) 880-7446",
    "address": " 54 E 2nd St  Apopka, FL 32703",
    "location": "Lafayette"
  },
  {
    "name": "Gregory Lang Inc",
    "description": "Advertising Agencies",
    "phone": "(407) 740-0527",
    "address": " 1985 Howell Branch Rd  Maitland, FL 32751",
    "location": "Lafayette"
  },
  {
    "name": "Technical Communications Group",
    "description": "Advertising Agencies",
    "phone": "(407) 831-2235",
    "address": " 403 Barclay Ave  Altamonte Springs, FL 32701",
    "location": "Lafayette"
  },
  {
    "name": "Creative CrossRoads",
    "description": "Advertising Agencies",
    "phone": "(407) 679-1303",
    "address": " 200 Saint Andrews Blvd  Winter Park, FL 32792",
    "location": "Lafayette"
  },
  {
    "name": "Maxmedia Digital Network",
    "description": "Advertising Agencies",
    "phone": "(407) 716-6547",
    "address": " 2431 Aloma Ave  Winter Park, FL 32792",
    "location": "Lafayette"
  },
  {
    "name": "Gotcha Creative Media",
    "description": "Advertising Agencies",
    "phone": "(407) 599-6800",
    "address": " 2431 Aloma Ave Ste 124  Winter Park, FL 32792",
    "location": "Lafayette"
  },
  {
    "name": "Rw Mindrup & Assoc",
    "description": "Advertising Agencies",
    "phone": "(407) 774-0672",
    "address": " 725 Little Wekiva Cir  Altamonte Springs, FL 32714",
    "location": "Lafayette"
  },
  {
    "name": "Grandesign Media Services",
    "description": "Advertising Agencies",
    "phone": "(407) 599-0759",
    "address": " 1951 Palmer Ave  Winter Park, FL 32792",
    "location": "Lafayette"
  },
  {
    "name": "Acme Brand Studio",
    "description": "Advertising Agencies",
    "phone": "(321) 287-4186",
    "address": " 2825 Prince John Rd  Winter Park, FL 32792",
    "location": "Lafayette"
  },
  {
    "name": "Yuppify",
    "description": "Advertising Agencies",
    "phone": "(407) 761-6952",
    "address": " 606 Lake Orienta Dr  Altamonte Springs, FL 32701",
    "location": "Lafayette"
  },
  {
    "name": "Intercon Global Inc",
    "description": "Advertising Agencies",
    "phone": "(407) 908-0009",
    "address": " 715 Celebration Ave  Kissimmee, FL 34747",
    "location": "Lafayette"
  },
  {
    "name": "Reputation Savior",
    "description": "Advertising Agencies",
    "phone": "(407) 464-0036",
    "address": " 1661 Votaw Rd  Apopka, FL 32703",
    "location": "Lafayette"
  },
  {
    "name": "Gillman Advertising Specialties",
    "description": "Advertising Agencies",
    "phone": "(407) 331-5111",
    "address": " 657 Maitland Ave  Altamonte Springs, FL 32701",
    "location": "Lafayette"
  },
  {
    "name": "Fat Free Media",
    "description": "Advertising Agencies",
    "phone": "(407) 786-8669",
    "address": " 932 Centre Cir  Altamonte Springs, FL 32714",
    "location": "Lafayette"
  },
  {
    "name": "CSI Promotions",
    "description": "Advertising Agencies",
    "phone": "(407) 468-5099",
    "address": " 479 Montgomery Pl  Altamonte Springs, FL 32714",
    "location": "Lafayette"
  },
  {
    "name": "Jungle Network",
    "description": "Advertising Agencies",
    "phone": "(407) 389-2002",
    "address": " 479 Montgomery Pl  Altamonte Springs, FL 32714",
    "location": "Lafayette"
  },
  {
    "name": "M77 Media",
    "description": "Advertising Agencies",
    "phone": "(833) 992-1313",
    "address": " 217 N Westmonte Dr  Altamonte Springs, FL 32714",
    "location": "Lafayette"
  },
  {
    "name": "Chameleon Web/Multimedia Design",
    "description": "Advertising Agencies",
    "phone": "(407) 616-2645",
    "address": " 315 Lakepointe Dr  Altamonte Springs, FL 32701",
    "location": "Lafayette"
  },
  {
    "name": "Cmts",
    "description": "Advertising Agencies",
    "phone": "(904) 739-9804",
    "address": " 608 Maitland Ave  Altamonte Springs, FL 32701",
    "location": "Lafayette"
  },
  {
    "name": "Delisle & Associates",
    "description": "Advertising Agencies",
    "phone": "(407) 331-7705",
    "address": " 711 Ballard St  Altamonte Springs, FL 32701",
    "location": "Lafayette"
  },
  {
    "name": "Help 4 You America Inc",
    "description": "Advertising Agencies",
    "phone": "(407) 265-7248",
    "address": " 241 Obrien Rd  Fern Park, FL 32730",
    "location": "Lafayette"
  },
  {
    "name": "Premier Development Construction",
    "description": "Advertising Agencies",
    "phone": "(407) 401-2504",
    "address": " 385 Douglas Ave Ste 2250  Altamonte Springs, FL 32714",
    "location": "Lafayette"
  },
  {
    "name": "Nationwide Marketing and Advertising",
    "description": "Advertising Agencies",
    "phone": "(407) 814-3929",
    "address": " 1077 W Orange Blossom Trl  Apopka, FL 32712",
    "location": "Lafayette"
  },
  {
    "name": "Corporate Image Bureau",
    "description": "Advertising Agencies",
    "phone": "(407) 774-1529",
    "address": " 445 Douglas Ave  Altamonte Springs, FL 32714",
    "location": "Lafayette"
  },
  {
    "name": "Yard Media",
    "description": "Advertising Agencies",
    "phone": "(407) 657-1361",
    "address": " 1964 Howell Branch Rd Ste 202  Winter Park, FL 32792",
    "location": "Lafayette"
  },
  {
    "name": "Medtech Momentum",
    "description": "Advertising Agencies",
    "phone": "(407) 960-2994",
    "address": " 377 Maitland Ave  Altamonte Springs, FL 32701",
    "location": "Lafayette"
  },
  {
    "name": "Newton's Force",
    "description": "Advertising Agencies",
    "phone": "(407) 682-7896",
    "address": " 478 E Altamonte Dr  Altamonte Springs, FL 32701",
    "location": "Lafayette"
  },
  {
    "name": "CreoleBiz.com",
    "description": "Advertising Agencies",
    "phone": "(407) 949-2590",
    "address": " 581 N Park Ave Unit 952  Apopka, FL 32704",
    "location": "Lafayette"
  },
  {
    "name": "BCV Deals",
    "description": "Advertising Agencies",
    "phone": "(407) 571-2980",
    "address": " 260 Maitland Ave  Altamonte Springs, FL 32701",
    "location": "Lafayette"
  },
  {
    "name": "Exiance",
    "description": "Advertising Agencies",
    "phone": "(407) 566-8823",
    "address": " 1119 Celebration Ave  Kissimmee, FL 34747",
    "location": "Lafayette"
  },
  {
    "name": "TCS Media Inc",
    "description": "Advertising Agencies",
    "phone": "(407) 252-1026",
    "address": " 2688 Queen Mary Pl  Maitland, FL 32751",
    "location": "Lafayette"
  },
  {
    "name": "Genius Advertising & Marketing",
    "description": "Advertising Agencies",
    "phone": "(407) 682-3037",
    "address": " 864 Little Bend Rd  Altamonte Springs, FL 32714",
    "location": "Lafayette"
  },
  {
    "name": "Chance Advertising Agency",
    "description": "Advertising Agencies",
    "phone": "(321) 946-0666",
    "address": " 803 Trailwood Dr Suite 100  Apopka, FL 32712",
    "location": "Lafayette"
  },
  {
    "name": "Red Monkey Marketing",
    "description": "Advertising Agencies",
    "phone": "(407) 990-1975",
    "address": " 927 Greenlawn St  Celebration, FL 34747",
    "location": "Lafayette"
  },
  {
    "name": "Rm2 Project Inc",
    "description": "Advertising Agencies",
    "phone": "(800) 301-5420",
    "address": " 927 Greenlawn St  Kissimmee, FL 34747",
    "location": "Lafayette"
  },
  {
    "name": "Push Button Productions",
    "description": "Advertising Agencies",
    "phone": "(888) 494-7874",
    "address": " 815 Orienta Ave Ste 1060  Altamonte Springs, FL 32701",
    "location": "Lafayette"
  },
  {
    "name": "Capital Advantage",
    "description": "Advertising Agencies",
    "phone": "(407) 261-9002",
    "address": " 498 Palm Springs Dr  Altamonte Springs, FL 32701",
    "location": "Lafayette"
  },
  {
    "name": "Righter Communications",
    "description": "Advertising Agencies",
    "phone": "(407) 261-9001",
    "address": " 498 Palm Springs Dr  Altamonte Springs, FL 32701",
    "location": "Lafayette"
  },
  {
    "name": "Timeshare",
    "description": "Advertising Agencies",
    "phone": "(407) 831-0203",
    "address": " 1398 State Road 436  Casselberry, FL 32707",
    "location": "Lafayette"
  },
  {
    "name": "Hughes Dralene",
    "description": "Advertising Agencies",
    "phone": "(407) 469-2155",
    "address": " 15935 Willo Pines Ln  Montverde, FL 34756",
    "location": "Lafayette"
  },
  {
    "name": "Mall Media Services, Inc.",
    "description": "Advertising Agencies",
    "phone": "(407) 443-2369",
    "address": " 412 E Citrus St  Altamonte Springs, FL 32701",
    "location": "Lafayette"
  },
  {
    "name": "Promos 4 U",
    "description": "Advertising Agencies",
    "phone": "(407) 695-0299",
    "address": " 6914 Aloma Ave  Winter Park, FL 32792",
    "location": "Lafayette"
  },
  {
    "name": "Product Marketing Group",
    "description": "Advertising Agencies",
    "phone": "(407) 774-6363",
    "address": " 978 Douglas Ave  Altamonte Springs, FL 32714",
    "location": "Lafayette"
  },
  {
    "name": "JKR Advertising & Marketings",
    "description": "Advertising Agencies",
    "phone": "(321) 397-0777",
    "address": " 195 Wekiva Springs Rd  Longwood, FL 32779",
    "location": "Lafayette"
  },
  {
    "name": "Charles Williams Business Group",
    "description": "Advertising Agencies",
    "phone": "(407) 764-8484",
    "address": " 407 Wekiva Springs Rd  Longwood, FL 32779",
    "location": "Lafayette"
  },
  {
    "name": "Wide Advertising",
    "description": "Advertising Agencies",
    "phone": "(407) 518-9712",
    "address": " 1700 Kelley Ave  Kissimmee, FL 34744",
    "location": "Lafayette"
  },
  {
    "name": "Evaluvest Banch Ops Inc",
    "description": "Advertising Agencies",
    "phone": "(407) 865-7408",
    "address": " 1150 Douglas Ave Ste 1070  Altamonte Springs, FL 32714",
    "location": "Lafayette"
  },
  {
    "name": "Small Pond Media",
    "description": "Advertising Agencies",
    "phone": "(407) 951-8034",
    "address": " 126 Wilshire Blvd  Casselberry, FL 32707",
    "location": "Lafayette"
  },
  {
    "name": "Fresh Communications",
    "description": "Advertising Agencies",
    "phone": "(407) 998-5123",
    "address": " 1855 W State Road 434  Longwood, FL 32750",
    "location": "Lafayette"
  },
  {
    "name": "Fax IT Advertising",
    "description": "Advertising Agencies",
    "phone": "(407) 339-4555",
    "address": " 1499 Robert St  Longwood, FL 32750",
    "location": "Lafayette"
  },
  {
    "name": "Rho Mar Marketing Inc",
    "description": "Advertising Agencies",
    "phone": "(407) 332-0926",
    "address": " PO Box 181504  Casselberry, FL 32718",
    "location": "Lafayette"
  },
  {
    "name": "Prime Media Now",
    "description": "Advertising Agencies",
    "phone": "(407) 331-7128",
    "address": " 1225 Bennett Dr  Longwood, FL 32750",
    "location": "Lafayette"
  },
  {
    "name": "Americomics",
    "description": "Advertising Agencies",
    "phone": "(407) 767-0199",
    "address": " 1225 Bennett Dr Unit 111  Longwood, FL 32750",
    "location": "Lafayette"
  },
  {
    "name": "DeFalco Advertising",
    "description": "Advertising Agencies",
    "phone": "(407) 551-0303",
    "address": " 1441 S Grant St  Longwood, FL 32750",
    "location": "Lafayette"
  },
  {
    "name": "Constituent Works Corp",
    "description": "Advertising Agencies",
    "phone": "(407) 483-8818",
    "address": " 1174 Jade East Ln  Kissimmee, FL 34744",
    "location": "Lafayette"
  },
  {
    "name": "VIP Management Consultants",
    "description": "Advertising Agencies",
    "phone": "(407) 277-8471",
    "address": " 448 S Alafaya Trl  Orlando, FL 32828",
    "location": "Lafayette"
  },
  {
    "name": "Candace Crowe Design",
    "description": "Advertising Agencies",
    "phone": "(407) 384-7676",
    "address": " 3452 Lake Lynda Dr  Orlando, FL 32817",
    "location": "Lafayette"
  },
  {
    "name": "Salt 1 to 1",
    "description": "Advertising Agencies",
    "phone": "(407) 751-4423",
    "address": " 11221 John Wycliffe Blvd  Orlando, FL 32832",
    "location": "Lafayette"
  },
  {
    "name": "Rich Dealers",
    "description": "Advertising Agencies",
    "phone": "(407) 275-8667",
    "address": " 12802 Science Dr  Orlando, FL 32826",
    "location": "Lafayette"
  },
  {
    "name": "Strategic Minds Assoc Inc",
    "description": "Advertising Agencies",
    "phone": "(407) 823-7454",
    "address": " 262 Winghurst Blvd  Orlando, FL 32828",
    "location": "Lafayette"
  },
  {
    "name": "Crystal Clear Concepts",
    "description": "Advertising Agencies",
    "phone": "(407) 275-2280",
    "address": " 1259 Ballyshannon Pkwy  Orlando, FL 32828",
    "location": "Lafayette"
  },
  {
    "name": "Via Cindy",
    "description": "Advertising Agencies",
    "phone": "(407) 695-0183",
    "address": " 102 W Bahama Rd  Winter Springs, FL 32708",
    "location": "Lafayette"
  },
  {
    "name": "watergraphics",
    "description": "Advertising Agencies",
    "phone": "(407) 913-6379",
    "address": " 5036 Dr Phillips Blvd  Orlando, FL 32819",
    "location": "Lafayette"
  },
  {
    "name": "TAG Digital Marketing",
    "description": "Advertising Agencies",
    "phone": "(407) 398-6629",
    "address": " 4705 S Apopka Vineland Rd Ste 130  Orlando, FL 32819",
    "location": "Lafayette"
  },
  {
    "name": "TodaysLocalBusiness.com",
    "description": "Advertising Agencies",
    "phone": "(386) 337-2816",
    "address": " 9311 Woodbreeze Blvd  Windermere, FL 34786",
    "location": "Lafayette"
  },
  {
    "name": "Design Shop Inc",
    "description": "Advertising Agencies",
    "phone": "(407) 251-1800",
    "address": " 4654 35th St  Orlando, FL 32811",
    "location": "Lafayette"
  },
  {
    "name": "Myorlandodirectory.Com",
    "description": "Advertising Agencies",
    "phone": "(407) 351-2200",
    "address": " 7575 Dr Phillips Blvd  Orlando, FL 32819",
    "location": "Lafayette"
  },
  {
    "name": "Multimedia Inc",
    "description": "Advertising Agencies",
    "phone": "(407) 903-5000",
    "address": " 7061 Grand National Dr Ste 127  Orlando, FL 32819",
    "location": "Lafayette"
  },
  {
    "name": "29 Web Design",
    "description": "Advertising Agencies",
    "phone": "(407) 583-3888",
    "address": " 7701 Aviano Ave  Orlando, FL 32819",
    "location": "Lafayette"
  },
  {
    "name": "Ebo Consulting Group",
    "description": "Advertising Agencies",
    "phone": "(800) 403-8223",
    "address": " 7557 W Sand Lake Rd Suite 189  Orlando, FL 32819",
    "location": "Lafayette"
  },
  {
    "name": "Kempf; Affordable Advertising",
    "description": "Advertising Agencies",
    "phone": "(407) 390-0690",
    "address": " 7208 W Sand Lake Rd Ste 305  Orlando, FL 32819",
    "location": "Lafayette"
  },
  {
    "name": "Halo Branded Solutions",
    "description": "Advertising Agencies",
    "phone": "(407) 425-9521",
    "address": " 4201 Vineland Rd Ste I-9  Orlando, FL 32811",
    "location": "Lafayette"
  },
  {
    "name": "Bruce Sereta Illustration",
    "description": "Advertising Agencies",
    "phone": "(407) 217-6565",
    "address": " 7913 Lost Cove Ct  Orlando, FL 32819",
    "location": "Lafayette"
  },
  {
    "name": "Kennedy Marketing LLC",
    "description": "Advertising Agencies",
    "phone": "(321) 446-8263",
    "address": " 8118 Chianti Dr.  Orlando, FL 32836",
    "location": "Lafayette"
  },
  {
    "name": "American Ad Specialties",
    "description": "Advertising Agencies",
    "phone": "(407) 649-7784",
    "address": " 7075 Kingspointe Pkwy  Orlando, FL 32819",
    "location": "Lafayette"
  },
  {
    "name": "More Commerce, Inc.",
    "description": "Advertising Agencies",
    "phone": "(407) 505-5588",
    "address": " 1168 Woodman Way  Orlando, FL 32818",
    "location": "Lafayette"
  },
  {
    "name": "Best Read Guide",
    "description": "Advertising Agencies",
    "phone": "(407) 654-0220",
    "address": " 33 Main St  Windermere, FL 34786",
    "location": "Lafayette"
  },
  {
    "name": "Trighton Interactive",
    "description": "Advertising Agencies",
    "phone": "(407) 440-2972",
    "address": " 2582 Maguire Rd # 417  Ocoee, FL 34761",
    "location": "Lafayette"
  },
  {
    "name": "Brandcoders",
    "description": "Advertising Agencies",
    "phone": "(407) 992-8877",
    "address": " 8600 Commodity Cir Ste 126  Orlando, FL 32819",
    "location": "Lafayette"
  },
  {
    "name": "OP Digital Marketing",
    "description": "Advertising Agencies",
    "phone": "(407) 394-6155",
    "address": " 2106 W Oak Ridge Rd Apt B  Orlando, FL 32809",
    "location": "Lafayette"
  },
  {
    "name": "Kreyolbiz.com",
    "description": "Advertising Agencies",
    "phone": "(407) 391-9435",
    "address": " 2710 S Orange Blossom Trl Suite 1/2  Orlando, FL 32805",
    "location": "Lafayette"
  },
  {
    "name": "Red Rocket Inc",
    "description": "Advertising Agencies",
    "phone": "(407) 895-9358",
    "address": " 600 Triumph Ct  Orlando, FL 32805",
    "location": "Lafayette"
  },
  {
    "name": "Signal Outdoor Advertising",
    "description": "Advertising Agencies",
    "phone": "(407) 856-7079",
    "address": " 7616 Southland Blvd Ste 114  Orlando, FL 32809",
    "location": "Lafayette"
  },
  {
    "name": "Askira Global Solutions",
    "description": "Advertising Agencies",
    "phone": "(407) 704-3732",
    "address": " South John Young  Orlando, FL 32808",
    "location": "Lafayette"
  },
  {
    "name": "Platinum Studio s",
    "description": "Advertising Agencies",
    "phone": "(407) 730-5140",
    "address": " 6220 S Orange Blossom Trl  Orlando, FL 32809",
    "location": "Lafayette"
  },
  {
    "name": "A to Z Marketing",
    "description": "Advertising Agencies",
    "phone": "(321) 458-0661",
    "address": " 750 S Orange Blossom Trl Ste 261  Orlando, FL 32805",
    "location": "Lafayette"
  },
  {
    "name": "Oca Marketing Services",
    "description": "Advertising Agencies",
    "phone": "(407) 248-8629",
    "address": " 10335 Orangewood Blvd  Orlando, FL 32821",
    "location": "Lafayette"
  },
  {
    "name": "BMP Advertising",
    "description": "Advertising Agencies",
    "phone": "(866) 996-2673",
    "address": " 1650 Sand Lake Rd Ste 301  Orlando, FL 32809",
    "location": "Lafayette"
  },
  {
    "name": "J M Design",
    "description": "Advertising Agencies",
    "phone": "(407) 654-9007",
    "address": " 370 Blue Stone Cir  Winter Garden, FL 34787",
    "location": "Lafayette"
  },
  {
    "name": "Xcellimark",
    "description": "Advertising Agencies",
    "phone": "(407) 678-3062",
    "address": " 121 S Orange Ave Ste 1503  Orlando, FL 32801",
    "location": "Lafayette"
  },
  {
    "name": "Designzillas",
    "description": "Advertising Agencies",
    "phone": "(407) 637-2833",
    "address": " 500 S Magnolia Ave  Orlando, FL 32801",
    "location": "Lafayette"
  },
  {
    "name": "Chrilo",
    "description": "Advertising Agencies",
    "phone": "(407) 590-8849",
    "address": " 189 S Orange Ave Ste 1270  Orlando, FL 32801",
    "location": "Lafayette"
  },
  {
    "name": "REMIXED: a marketing + design agency",
    "description": "Advertising Agencies",
    "phone": "(407) 283-7369",
    "address": " 113 E Pine St  Orlando, FL 32801",
    "location": "Lafayette"
  },
  {
    "name": "Website Marketing Company",
    "description": "Advertising Agencies",
    "phone": "(407) 930-1755",
    "address": " 717 N Magnolia Ave  Orlando, FL 32803",
    "location": "Lafayette"
  },
  {
    "name": "Magnetic Mobile Media",
    "description": "Advertising Agencies",
    "phone": "(407) 504-7186",
    "address": " 11400 Banner Ct Apt 1204  Orlando, FL 32821",
    "location": "Lafayette"
  },
  {
    "name": "Scott Le Roy Marketing",
    "description": "Advertising Agencies",
    "phone": "(214) 212-9705",
    "address": " 100 W Lucerne Cir  Orlando, FL 32801",
    "location": "Lafayette"
  },
  {
    "name": "Marbo America Inc",
    "description": "Advertising Agencies",
    "phone": "(407) 857-1330",
    "address": " 5210-B South Orange Ave  Orlando, FL 32809",
    "location": "Lafayette"
  },
  {
    "name": "JVR Productions, Inc.",
    "description": "Advertising Agencies",
    "phone": "(407) 582-0030",
    "address": " 2545 Industrial Blvd  Orlando, FL 32804",
    "location": "Lafayette"
  },
  {
    "name": "Doc Digital SEM | Orlando SEO, Web Design, & SMM",
    "description": "Advertising Agencies",
    "phone": "(954) 774-3253",
    "address": " 122 W Pine St, UNIT 300  Orlando, FL 32801",
    "location": "Lafayette"
  },
  {
    "name": "Iron Summit Media Strategies",
    "description": "Advertising Agencies",
    "phone": "(407) 850-8895",
    "address": " Po Box 780344  Orlando, FL 32878",
    "location": "Lafayette"
  },
  {
    "name": "ROI Amplified Orlando",
    "description": "Advertising Agencies",
    "phone": "(407) 904-2406",
    "address": " 450 S Orange Ave PMB 28  Orlando, FL 32801",
    "location": "Lafayette"
  },
  {
    "name": "The Astro System | Boost Your Sales Online",
    "description": "Advertising Agencies",
    "phone": "(321) 587-3064",
    "address": " 450 S Orange Ave  Orlando, FL 32801",
    "location": "Lafayette"
  },
  {
    "name": "Different Perspective",
    "description": "Advertising Agencies",
    "phone": "(407) 226-9774",
    "address": " 201 S Orange Ave Ste 890  Orlando, FL 32801",
    "location": "Lafayette"
  },
  {
    "name": "iQuarius Media",
    "description": "Advertising Agencies",
    "phone": "(407) 378-7817",
    "address": " 100 S Orange Ave Ste 500  Orlando, FL 32801",
    "location": "Lafayette"
  },
  {
    "name": "Ascentus LLC",
    "description": "Advertising Agencies",
    "phone": "(407) 392-0350",
    "address": " 121 S Orange Ave  Orlando, FL 32801",
    "location": "Lafayette"
  },
  {
    "name": "Bay Hill Partners",
    "description": "Advertising Agencies",
    "phone": "(407) 644-0878",
    "address": " 121 S Orange Ave Ste 800  Orlando, FL 32801",
    "location": "Lafayette"
  },
  {
    "name": "Alchemy Marketing",
    "description": "Advertising Agencies",
    "phone": "(407) 809-4090",
    "address": " 2708 Hazelhurst Ave  Orlando, FL 32804",
    "location": "Lafayette"
  },
  {
    "name": "Allure Advertising",
    "description": "Advertising Agencies",
    "phone": "(407) 719-4567",
    "address": " 5517 Hansel Ave Ste B  Orlando, FL 32809",
    "location": "Lafayette"
  },
  {
    "name": "Boardroom Communications Inc.",
    "description": "Advertising Agencies",
    "phone": "(407) 973-8555",
    "address": " 37 N Orange Ave  Orlando, FL 32801",
    "location": "Lafayette"
  },
  {
    "name": "Issues & Advocacy",
    "description": "Advertising Agencies",
    "phone": "(321) 332-7575",
    "address": " 37 N Orange Ave Ste 500  Orlando, FL 32801",
    "location": "Lafayette"
  },
  {
    "name": "Royall Advertising",
    "description": "Advertising Agencies",
    "phone": "(407) 401-7479",
    "address": " 14 E Washington St  Orlando, FL 32801",
    "location": "Lafayette"
  },
  {
    "name": "Beloved",
    "description": "Advertising Agencies",
    "phone": "(407) 367-1680",
    "address": " 14 E Washington St  Orlando, FL 32801",
    "location": "Lafayette"
  },
  {
    "name": "ThinkPod Agency",
    "description": "Advertising Agencies",
    "phone": "(574) 370-4383",
    "address": " 111 N Orange Ave  Orlando, FL 32801",
    "location": "Lafayette"
  },
  {
    "name": "Appleton Creative Inc",
    "description": "Advertising Agencies",
    "phone": "(407) 246-0092",
    "address": " 539 Delaney Ave  Orlando, FL 32801",
    "location": "Lafayette"
  },
  {
    "name": "Om Performance Marketers",
    "description": "Advertising Agencies",
    "phone": "(407) 420-7064",
    "address": " 250 N Orange Ave  Orlando, FL 32801",
    "location": "Lafayette"
  },
  {
    "name": "Triple Your Clicks",
    "description": "Advertising Agencies",
    "phone": "(407) 459-8804",
    "address": " 390 North Orange Avenue Suite 2300  Orlando, FL 32801",
    "location": "Lafayette"
  },
  {
    "name": "Euphoric Inc.",
    "description": "Advertising Agencies",
    "phone": "(407) 476-2555",
    "address": " 390 N Orange Ave Ste 2300  Orlando, FL 32801",
    "location": "Lafayette"
  },
  {
    "name": "Trend Marketing Consultants LLC",
    "description": "Advertising Agencies",
    "phone": "(407) 801-8822",
    "address": " 424 E Central Blvd Suite 732  Orlando, FL 32801",
    "location": "Lafayette"
  },
  {
    "name": "Ledford Productions",
    "description": "Advertising Agencies",
    "phone": "(386) 290-3390",
    "address": " 421 E Central Blvd  Orlando, FL 32801",
    "location": "Lafayette"
  },
  {
    "name": "LIVE Productions Group, Inc.",
    "description": "Advertising Agencies",
    "phone": "(323) 515-9363",
    "address": " 2800 S Brown Ave  Orlando, FL 32806",
    "location": "Lafayette"
  },
  {
    "name": "HohmDigital",
    "description": "Advertising Agencies",
    "phone": "(304) 805-4646",
    "address": " 618 E South St Ste 500 PMB 5037  Orlando, FL 32801",
    "location": "Lafayette"
  },
  {
    "name": "The SEO Zone",
    "description": "Advertising Agencies",
    "phone": "(407) 616-8015",
    "address": " Orlando 32806  Orlando, FL 32806",
    "location": "Lafayette"
  },
  {
    "name": "Foresight Design Group Inc.",
    "description": "Advertising Agencies",
    "phone": "(407) 895-0029",
    "address": " 745 N Magnolia Ave Ste 301  Orlando, FL 32803",
    "location": "Lafayette"
  },
  {
    "name": "Online Business Listings - BeListed.Org",
    "description": "Advertising Agencies",
    "phone": "(321) 710-3855",
    "address": " 2077 Central Florida Pkwy # 13  Orlando, FL 32837",
    "location": "Lafayette"
  },
  {
    "name": "The Genesis Group",
    "description": "Advertising Agencies",
    "phone": "(407) 879-1302",
    "address": " 1000 E Robinson St  Orlando, FL 32801",
    "location": "Lafayette"
  },
  {
    "name": "We Are Kymera",
    "description": "Advertising Agencies",
    "phone": "(407) 374-1890",
    "address": " 10219 General Dr  Orlando, FL 32824",
    "location": "Lafayette"
  },
  {
    "name": "Chatter Buzz",
    "description": "Advertising Agencies",
    "phone": "(321) 236-2899",
    "address": " 1218 E Robinson St  Orlando, FL 32801",
    "location": "Lafayette"
  },
  {
    "name": "Standout Displays",
    "description": "Advertising Agencies",
    "phone": "(407) 757-0615",
    "address": " 1600 Central Florida Pkwy  Orlando, FL 32837",
    "location": "Lafayette"
  },
  {
    "name": "Db Internet Marketing Ser",
    "description": "Advertising Agencies",
    "phone": "(407) 896-0485",
    "address": " 1505 E Robinson St  Orlando, FL 32801",
    "location": "Lafayette"
  },
  {
    "name": "Appreciation Promotion Services, LLC",
    "description": "Advertising Agencies",
    "phone": "(407) 900-6823",
    "address": " 5764 N Orange Blossom Trl # 18  Orlando, FL 32810",
    "location": "Lafayette"
  },
  {
    "name": "Boldist",
    "description": "Advertising Agencies",
    "phone": "(407) 982-4350",
    "address": " 1637 E Robinson St  Orlando, FL 32803",
    "location": "Lafayette"
  },
  {
    "name": "Metropolis",
    "description": "Advertising Agencies",
    "phone": "(407) 835-8080",
    "address": " 719 Peachtree Rd  Orlando, FL 32804",
    "location": "Lafayette"
  },
  {
    "name": "Cars Media Group Inc",
    "description": "Advertising Agencies",
    "phone": "(407) 286-3533",
    "address": " 5516 Commerce Dr  Edgewood, FL 32839",
    "location": "Lafayette"
  },
  {
    "name": "Alarie Design Associates Inc",
    "description": "Advertising Agencies",
    "phone": "(407) 656-8879",
    "address": " 260 E Plant St  Winter Garden, FL 34787",
    "location": "Lafayette"
  },
  {
    "name": "My Website Spot - Winter Garden Web Design & SEO",
    "description": "Advertising Agencies",
    "phone": "(407) 499-4008",
    "address": " 2968 Irish Peach Dr  Winter Garden, FL 34787",
    "location": "Lafayette"
  },
  {
    "name": "My Website Spot-Custom Tailored Web Design",
    "description": "Advertising Agencies",
    "phone": "(407) 499-4008",
    "address": " 2968 Irish Peach Dr  Winter Garden, FL 34787",
    "location": "Lafayette"
  },
  {
    "name": "Plan A Pr Marketing Inc",
    "description": "Advertising Agencies",
    "phone": "(407) 905-0608",
    "address": " 132 W Plant St  Winter Garden, FL 34787",
    "location": "Lafayette"
  },
  {
    "name": "The Group Advertising",
    "description": "Advertising Agencies",
    "phone": "(407) 898-2409",
    "address": " 1221 N Mills Ave Suite B  Orlando, FL 32803",
    "location": "Lafayette"
  },
  {
    "name": "Mongoose Media",
    "description": "Advertising Agencies",
    "phone": "(773) 791-4398",
    "address": " 236 N Glenwood Ave  Orlando, FL 32803",
    "location": "Lafayette"
  },
  {
    "name": "Whoiscarrus",
    "description": "Advertising Agencies",
    "phone": "(407) 895-7001",
    "address": " 1041 N Ferncreek Ave  Orlando, FL 32803",
    "location": "Lafayette"
  },
  {
    "name": "Ph3 Agency + Brewery",
    "description": "Advertising Agencies",
    "phone": "(321) 206-8771",
    "address": " 6140 Edgewater Dr Ste C  Orlando, FL 32810",
    "location": "Lafayette"
  },
  {
    "name": "Imarmedia INC",
    "description": "Advertising Agencies",
    "phone": "(407) 803-5397",
    "address": " 10501 S Orange Ave Ste 112  Orlando, FL 32824",
    "location": "Lafayette"
  },
  {
    "name": "SEO Pros Orlando Marketing",
    "description": "Advertising Agencies",
    "phone": "(407) 490-4106",
    "address": " 1415 Bodell Ln  Orlando, FL 32803",
    "location": "Lafayette"
  },
  {
    "name": "Myfloridalist.com",
    "description": "Advertising Agencies",
    "phone": "(386) 479-0535",
    "address": " 3201 E Colonial Dr  Orlando, FL 32803",
    "location": "Lafayette"
  },
  {
    "name": "D' Cache Inc",
    "description": "Advertising Agencies",
    "phone": "(407) 244-6310",
    "address": " 4300 Curry Ford Rd  Orlando, FL 32806",
    "location": "Lafayette"
  },
  {
    "name": "Mmgy Global",
    "description": "Advertising Agencies",
    "phone": "(407) 875-1111",
    "address": " 423 S Keller Rd Ste 100  Orlando, FL 32810",
    "location": "Lafayette"
  },
  {
    "name": "Com Marketing",
    "description": "Advertising Agencies",
    "phone": "(407) 774-4606",
    "address": " 400 N Wymore Rd  Winter Park, FL 32789",
    "location": "Lafayette"
  },
  {
    "name": "Ken Bowser Design & Illustration",
    "description": "Advertising Agencies",
    "phone": "(407) 644-9888",
    "address": " 922 Camellia Ave  Winter Park, FL 32789",
    "location": "Lafayette"
  },
  {
    "name": "Tba Outdoors",
    "description": "Advertising Agencies",
    "phone": "(843) 916-2000",
    "address": " 1477 W Fairbanks Ave  Winter Park, FL 32789",
    "location": "Lafayette"
  },
  {
    "name": "MARSH8",
    "description": "Advertising Agencies",
    "phone": "(407) 255-2064",
    "address": " 2221 Lee Rd Ste 22  Winter Park, FL 32789",
    "location": "Lafayette"
  },
  {
    "name": "Dbg Promotions Inc",
    "description": "Advertising Agencies",
    "phone": "(407) 629-6655",
    "address": " 1021 Orange Ave  Winter Park, FL 32789",
    "location": "Lafayette"
  },
  {
    "name": "RSVP Orlando",
    "description": "Advertising Agencies",
    "phone": "(407) 868-1741",
    "address": " 641 W Fairbanks Ave  Winter Park, FL 32789",
    "location": "Lafayette"
  },
  {
    "name": "Integrated Marketing Solutions",
    "description": "Advertising Agencies",
    "phone": "(407) 636-7200",
    "address": " 641 W Fairbanks Ave Ste 220  Winter Park, FL 32789",
    "location": "Lafayette"
  },
  {
    "name": "Marketing Sales Dynamics Inc",
    "description": "Advertising Agencies",
    "phone": "(321) 203-4728",
    "address": " 629 Ellen Dr  Winter Park, FL 32789",
    "location": "Lafayette"
  },
  {
    "name": "Full Moon Productions",
    "description": "Advertising Agencies",
    "phone": "(407) 389-0085",
    "address": " 861 W Morse Blvd  Winter Park, FL 32789",
    "location": "Lafayette"
  },
  {
    "name": "OMG Marketing",
    "description": "Advertising Agencies",
    "phone": "(407) 690-6690",
    "address": " 520 N Orlando Ave Ste 205  Winter Park, FL 32789",
    "location": "Lafayette"
  },
  {
    "name": "YP Marketing Solutions",
    "description": "Advertising Agencies",
    "phone": "(407) 896-7325",
    "address": " 258 Southhall Ln Ste 106  Maitland, FL 32751",
    "location": "Lafayette"
  },
  {
    "name": "Anson Stoner",
    "description": "Advertising Agencies",
    "phone": "(407) 629-9484",
    "address": " 111 E Fairbanks Ave  Winter Park, FL 32789",
    "location": "Lafayette"
  },
  {
    "name": "Sewing Studio Fabric Superstore",
    "description": "Advertising Agencies",
    "phone": "(407) 910-2761",
    "address": " 9605 S Us Highway 17/92  Maitland, FL 32751",
    "location": "Lafayette"
  },
  {
    "name": "MakeSense Advertising",
    "description": "Advertising Agencies",
    "phone": "(407) 255-2515",
    "address": " 5027 Commander Dr  Orlando, FL 32822",
    "location": "Lafayette"
  },
  {
    "name": "Promotion Store ",
    "description": "Advertising Agencies",
    "phone": "(407) 418-8200",
    "address": " 5833 S Goldenrod Rd  Orlando, FL 32822",
    "location": "Lafayette"
  },
  {
    "name": "Eagle Xp Marketing",
    "description": "Advertising Agencies",
    "phone": "(407) 677-9400",
    "address": " 6812 Hanging Moss Rd  Orlando, FL 32807",
    "location": "Lafayette"
  },
  {
    "name": "Enjoy Taste",
    "description": "Advertising Agencies",
    "phone": "(407) 610-2374",
    "address": " 3245 S Chickasaw Trl  Orlando, FL 32829",
    "location": "Lafayette"
  },
  {
    "name": "By Afro Marketing Agency",
    "description": "Advertising Agencies",
    "phone": "(786) 416-4592",
    "address": " 9588 Silver Buttonwood St  Orlando, FL 32832",
    "location": "Lafayette"
  },
  {
    "name": "Blenzabi Web Design Seo",
    "description": "Advertising Agencies",
    "phone": "(951) 461-1400",
    "address": " 10524 Moss Park Rd  Orlando, FL 32832",
    "location": "Lafayette"
  },
  {
    "name": "TCS Media",
    "description": "Advertising Agencies",
    "phone": "(407) 252-1026",
    "address": " 2333 Chinook Trl  Maitland, FL 32751",
    "location": "Lafayette"
  },
  {
    "name": "Winning Formula Marketing LLC",
    "description": "Advertising Agencies",
    "phone": "(407) 928-9173",
    "address": " 555 Winderley Pl  Maitland, FL 32751",
    "location": "Lafayette"
  },
  {
    "name": "Patterson Bach Communications",
    "description": "Advertising Agencies",
    "phone": "(407) 645-1880",
    "address": " 2600 Maitland Center Pkwy Ste 360  Maitland, FL 32751",
    "location": "Lafayette"
  },
  {
    "name": "Beech Outdoor",
    "description": "Advertising Agencies",
    "phone": "(407) 645-2210",
    "address": " 291 Circle Dr  Maitland, FL 32751",
    "location": "Lafayette"
  },
  {
    "name": "Bbdo South Orlando",
    "description": "Advertising Agencies",
    "phone": "(407) 865-9393",
    "address": " 557 N Wymore Rd  Maitland, FL 32751",
    "location": "Lafayette"
  },
  {
    "name": "The Vacation Home Guy",
    "description": "Advertising Agencies",
    "phone": "(407) 385-8022",
    "address": " 1101 Miranda Ln Ste 131  Kissimmee, FL 34741",
    "location": "Lafayette"
  },
  {
    "name": "Total Business & Marketing Solutions",
    "description": "Advertising Agencies",
    "phone": "(407) 584-7703",
    "address": " 4924 W Irlo Bronson Memorial Hwy  Kissimmee, FL 34746",
    "location": "Lafayette"
  },
  {
    "name": "CloudBurst Consulting",
    "description": "Advertising Agencies",
    "phone": "(407) 557-2380",
    "address": " 52 Riley Rd # 401  Kissimmee, FL 34747",
    "location": "Lafayette"
  },
  {
    "name": "57 Clicks",
    "description": "Advertising Agencies",
    "phone": "(321) 750-9787",
    "address": " 902 Montecito Ct Apt 202  Kissimmee, FL 34741",
    "location": "Lafayette"
  },
  {
    "name": "Barker Specialties of Florida, Inc.",
    "description": "Advertising Agencies",
    "phone": "(407) 566-4000",
    "address": " 215 Celebration Pl Ste 115  Kissimmee, FL 34747",
    "location": "Lafayette"
  },
  {
    "name": "Web Science",
    "description": "Advertising Agencies",
    "phone": "(407) 473-4039",
    "address": " 509 S Park Ave  Apopka, FL 32703",
    "location": "Lafayette"
  },
  {
    "name": "Larson Design Associates Inc",
    "description": "Advertising Agencies",
    "phone": "(407) 566-1736",
    "address": " 223 Celebration Blvd  Kissimmee, FL 34747",
    "location": "Lafayette"
  },
  {
    "name": "Truth About Yellow Pages",
    "description": "Advertising Agencies",
    "phone": "(407) 647-3990",
    "address": " 101 Mariner Way  Maitland, FL 32751",
    "location": "Lafayette"
  },
  {
    "name": "Salem Surround Orlando",
    "description": "Advertising Agencies",
    "phone": "(407) 618-1821",
    "address": " 1188 Lake View Dr  Altamonte Springs, FL 32714",
    "location": "Lafayette"
  },
  {
    "name": "Digital Space Marketing",
    "description": "Advertising Agencies",
    "phone": "(855) 611-0577",
    "address": " 240 Lookout Pl  Maitland, FL 32751",
    "location": "Lafayette"
  },
  {
    "name": "Kim Parrish Creative Services",
    "description": "Advertising Agencies",
    "phone": "(407) 880-0201",
    "address": " 314 S Central Ave  Apopka, FL 32703",
    "location": "Lafayette"
  },
  {
    "name": "Local Phone Book",
    "description": "Advertising Agencies",
    "phone": "(407) 884-0199",
    "address": " 54 E 2nd St  Apopka, FL 32703",
    "location": "Lafayette"
  },
  {
    "name": "LocalListing Inc",
    "description": "Advertising Agencies",
    "phone": "(407) 478-5325",
    "address": " 2431 Aloma Ave  Winter Park, FL 32792",
    "location": "Lafayette"
  },
  {
    "name": "FusionTech Media",
    "description": "Advertising Agencies",
    "phone": "(407) 512-0424",
    "address": " 237 S Westmonte Dr Ste 100-B  Altamonte Springs, FL 32714",
    "location": "Lafayette"
  },
  {
    "name": "LocalNet360",
    "description": "Advertising Agencies",
    "phone": "(888) 304-4060",
    "address": " 7862 W Irlo Bronson Memorial Hwy # 309  Kissimmee, FL 34747",
    "location": "Lafayette"
  },
  {
    "name": "Think Agency Inc",
    "description": "Advertising Agencies",
    "phone": "(407) 875-1999",
    "address": " 217 N Westmonte Dr Ste 3019  Altamonte Springs, FL 32714",
    "location": "Lafayette"
  },
  {
    "name": "ETC Marketing",
    "description": "Advertising Agencies",
    "phone": "(877) 992-1313",
    "address": " 217 N Westmonte Dr Ste 2014  Altamonte Springs, FL 32714",
    "location": "Lafayette"
  },
  {
    "name": "Roar! Internet Marketing",
    "description": "Advertising Agencies",
    "phone": "(407) 786-7330",
    "address": " 307 Cranes Roost Blvd Ste 2020  Altamonte Springs, FL 32701",
    "location": "Lafayette"
  },
  {
    "name": "Affordable Display Products, Inc.",
    "description": "Advertising Agencies",
    "phone": "(866) 550-0656",
    "address": " 285 W Central Parkway Suite 1726  Altamonte Springs, FL 32714",
    "location": "Lafayette"
  },
  {
    "name": "24 Seven Graphics",
    "description": "Advertising Agencies",
    "phone": "(407) 679-0134",
    "address": " 7033 Stapoint Ct  Winter Park, FL 32792",
    "location": "Lafayette"
  },
  {
    "name": "D & D Promotional Products Inc",
    "description": "Advertising Agencies",
    "phone": "(407) 677-1400",
    "address": " 7033 Stapoint Ct Ste D  Winter Park, FL 32792",
    "location": "Lafayette"
  },
  {
    "name": "Go Digital Advertising",
    "description": "Advertising Agencies",
    "phone": "(407) 497-7198",
    "address": " 2735 W State Road 434  Longwood, FL 32779",
    "location": "Lafayette"
  },
  {
    "name": "Azir Spares, Inc.",
    "description": "Advertising Agencies",
    "phone": "(844) 267-2235",
    "address": " 1070 Montgomery Rd PMB 509  Altamonte Springs, FL 32714",
    "location": "Lafayette"
  },
  {
    "name": "Cash Magazine Inc",
    "description": "Advertising Agencies",
    "phone": "(407) 672-1700",
    "address": " 266 Wilshire Blvd  Casselberry, FL 32707",
    "location": "Lafayette"
  },
  {
    "name": "PIP Social",
    "description": "Advertising Agencies",
    "phone": "(407) 847-7324",
    "address": " 927 W Oak St  Kissimmee, FL 34741",
    "location": "Lafayette"
  },
  {
    "name": "Hispanic Yellow Pages Inc",
    "description": "Advertising Agencies",
    "phone": "(407) 767-8300",
    "address": " 1033 State Road 436  Casselberry, FL 32707",
    "location": "Lafayette"
  },
  {
    "name": "Lewellen Enterprises",
    "description": "Advertising Agencies",
    "phone": "(407) 478-1964",
    "address": " 927 Fern St  Altamonte Springs, FL 32701",
    "location": "Lafayette"
  },
  {
    "name": "My Website Spot - Casselberry Web Design & SEO",
    "description": "Advertising Agencies",
    "phone": "(407) 499-4008",
    "address": " 513 Elm Dr  Casselberry, FL 32707",
    "location": "Lafayette"
  },
  {
    "name": "Inspire Visual",
    "description": "Advertising Agencies",
    "phone": "(407) 476-1950",
    "address": " 1100 Us Highway 27 # 6774  Clermont, FL 34713",
    "location": "Lafayette"
  },
  {
    "name": "K2 Evolution",
    "description": "Advertising Agencies",
    "phone": "(321) 972-5915",
    "address": " 1355 Bennett Dr Unit 177  Longwood, FL 32750",
    "location": "Lafayette"
  },
  {
    "name": "H B Production Services Inc",
    "description": "Advertising Agencies",
    "phone": "(407) 339-9070",
    "address": " 1275 Bennett Dr  Longwood, FL 32750",
    "location": "Lafayette"
  },
  {
    "name": "H B Production Group",
    "description": "Advertising Agencies",
    "phone": "(407) 339-9070",
    "address": " 1225 Bennett Dr Unit 200  Longwood, FL 32750",
    "location": "Lafayette"
  },
  {
    "name": "In Motion Media Solutions",
    "description": "Advertising Agencies",
    "phone": "(407) 960-1839",
    "address": " 3352 S Us Highway 17/92  Casselberry, FL 32707",
    "location": "Lafayette"
  },
  {
    "name": "Digital Graphics Plus",
    "description": "Advertising Agencies",
    "phone": "(407) 869-0077",
    "address": " 205 National Pl  Longwood, FL 32750",
    "location": "Lafayette"
  },
  {
    "name": "Gravitational Marketing",
    "description": "Advertising Agencies",
    "phone": "(407) 275-8667",
    "address": " 12301 Lake Underhill Rd Ste 247  Orlando, FL 32828",
    "location": "Lafayette"
  },
  {
    "name": "Mentor Graphics Corp",
    "description": "Advertising Agencies",
    "phone": "(407) 999-2300",
    "address": " 12001 Research Pkwy Ste 244  Orlando, FL 32826",
    "location": "Lafayette"
  },
  {
    "name": "Loyalty App's",
    "description": "Advertising Agencies",
    "phone": "(407) 255-5257",
    "address": " 2104 Fraternity Ct  Orlando, FL 32826",
    "location": "Lafayette"
  },
  {
    "name": "Clickit Marketing Solutions",
    "description": "Advertising Agencies",
    "phone": "(407) 434-9104",
    "address": " 533 Hardwood Cir  Orlando, FL 32828",
    "location": "Lafayette"
  },
  {
    "name": "AMC Promotional Products",
    "description": "Advertising Agencies",
    "phone": "(877) 241-1160",
    "address": " 16255 Tudor Grove Dr  Orlando, FL 32828",
    "location": "Lafayette"
  },
  {
    "name": "Visibility Pros",
    "description": "Advertising Agencies",
    "phone": "(877) 781-2990",
    "address": " 17154 Long Boat Ln  Orlando, FL 32820",
    "location": "Lafayette"
  },
  {
    "name": "Justairticket.com",
    "description": "Internet Marketing & Advertising",
    "phone": "(201) 942-1029",
    "address": " 5036 Dr Phillips Blvd  Orlando, FL 32819",
    "location": "Lafayette"
  },
  {
    "name": "Apuzzo Internet Marketing",
    "description": "Internet Consultants",
    "phone": "(407) 299-0085",
    "address": " 4802 Washington Ave  Orlando, FL 32819",
    "location": "Lafayette"
  },
  {
    "name": "FedEx Office Print & Ship Center",
    "description": "Copying & Duplicating Service",
    "phone": "(407) 298-7383",
    "address": " 3120 S Kirkman Rd  Orlando, FL 32811",
    "location": "Lafayette"
  },
  {
    "name": "Graphix Solutions",
    "description": "Advertising-Promotional Products",
    "phone": "(407) 234-7271",
    "address": " 2478 Lake Debra Dr  orlando, FL 32835",
    "location": "Lafayette"
  },
  {
    "name": "SEO Orlando",
    "description": "Internet Consultants",
    "phone": "(407) 536-8852",
    "address": " 8815 Conroy Windermere Rd # 230  Orlando, FL 32835",
    "location": "Lafayette"
  },
  {
    "name": "Creative Signs Inc",
    "description": "Advertising Specialties",
    "phone": "(407) 293-9393",
    "address": " 2301 S Hiawassee Rd  Orlando, FL 32835",
    "location": "Lafayette"
  },
  {
    "name": "Motorcycle Event News",
    "description": "Interactive Media",
    "phone": "(386) 848-5556",
    "address": " 6453 Alcalde Ct Unit 102  Orlando, FL 32835",
    "location": "Lafayette"
  },
  {
    "name": "Prince Marketing Institute",
    "description": "Internet Marketing & Advertising",
    "phone": "(407) 340-2162",
    "address": " 7839 Saint Giles Pl  orlando, FL 32835",
    "location": "Lafayette"
  },
  {
    "name": "ROAR! Internet Marketing",
    "description": "Internet Marketing & Advertising",
    "phone": "(407) 786-7330",
    "address": " 6000 Metrowest Blvd.  Orlando, FL 32835",
    "location": "Lafayette"
  },
  {
    "name": "Allen Industries",
    "description": "Signs",
    "phone": "(407) 578-5466",
    "address": " 2145 Metrocenter Blvd  Orlando, FL 32835",
    "location": "Lafayette"
  },
  {
    "name": "Nexgen Local Marketing",
    "description": "Internet Marketing & Advertising",
    "phone": "(407) 307-1995",
    "address": " 5401 South Kirkman Road, Suite 310  Orlando, FL 32819",
    "location": "Lafayette"
  },
  {
    "name": "Rejoice Media",
    "description": "Signs",
    "phone": "(267) 243-8129",
    "address": " 5401 S Kirkman Rd  Orlando, FL 32819",
    "location": "Lafayette"
  },
  {
    "name": "Snamp.com",
    "description": "Internet Marketing & Advertising",
    "phone": "(877) 403-1177",
    "address": " 5401 S Kirkman Rd  Orlando, FL 32819",
    "location": "Lafayette"
  },
  {
    "name": "Vacations Digest, LLC",
    "description": "Internet Marketing & Advertising",
    "phone": "(321) 710-0040",
    "address": " 1507 S Hiawassee Rd Ste 114  Orlando, FL 32835",
    "location": "Lafayette"
  },
  {
    "name": "Art's Signs",
    "description": "Signs",
    "phone": "(407) 422-5774",
    "address": " Orl  Orlando, FL 32805",
    "location": "Lafayette"
  },
  {
    "name": "Hgprke.com",
    "description": "Internet Marketing & Advertising",
    "phone": "(234) 249-4338",
    "address": " 9350 Conroy Windermere Rd  Windermere, FL 34786",
    "location": "Lafayette"
  },
  {
    "name": "GSK Consulting",
    "description": "Directory & Guide Advertising",
    "phone": "(813) 431-1278",
    "address": " 1713 Westover Reserve Blvd  Windermere, FL 34786",
    "location": "Lafayette"
  },
  {
    "name": "DB Tech Design",
    "description": "Internet Marketing & Advertising",
    "phone": "(407) 572-5026",
    "address": " DB Tech Design LLC P.O Box 233  Plymouth, FL 32768",
    "location": "Lafayette"
  },
  {
    "name": "Sales Bait - Print, Promotion, Marketing",
    "description": "Marketing Programs & Services",
    "phone": "(321) 356-5471",
    "address": " We ship EVERYWHERE  Longwood, FL 32750",
    "location": "Lafayette"
  },
  {
    "name": "Vital Signs Physicians",
    "description": "Advertising Specialties",
    "phone": "(407) 846-0202",
    "address": " 1504 Village Oak Ln  Kissimmee, FL 34746",
    "location": "Lafayette"
  },
  {
    "name": "Nia Riddle",
    "description": "Marketing Programs & Services",
    "phone": "(407) 283-7805",
    "address": " 3518 W Bind St.  Kissimmee, FL 34741",
    "location": "Lafayette"
  },
  {
    "name": "Timeshares Only",
    "description": "Internet Marketing & Advertising",
    "phone": "(800) 610-2734",
    "address": " 4700 Millenia Blvd Ste 250  Orlando, FL 32839",
    "location": "Lafayette"
  },
  {
    "name": "PageRock, Inc.",
    "description": "Internet Marketing & Advertising",
    "phone": "(844) 724-3762",
    "address": " 5500 Metrowest Blvd Apt 111  Orlando, FL 32811",
    "location": "Lafayette"
  },
  {
    "name": "Global MAS Media, LLC",
    "description": "Internet Marketing & Advertising",
    "phone": "(407) 217-5362",
    "address": " 5728 Major Blvd Ste 267  Orlando, FL 32819",
    "location": "Lafayette"
  },
  {
    "name": "Lion King Marketing",
    "description": "Internet Marketing & Advertising",
    "phone": "(407) 902-7081",
    "address": " 9050 Classic Ct  Orlando, FL 32819",
    "location": "Lafayette"
  },
  {
    "name": "DreamRank Designs",
    "description": "Internet Marketing & Advertising",
    "phone": "(321) 234-7780",
    "address": " 6160 Westgate Dr  Orlando, FL 32835",
    "location": "Lafayette"
  },
  {
    "name": "High Tech",
    "description": "Advertising Specialties",
    "phone": "(407) 352-5966",
    "address": " 4967 International Dr  Orlando, FL 32819",
    "location": "Lafayette"
  },
  {
    "name": "Longshot Graphics",
    "description": "Internet Marketing & Advertising",
    "phone": "(407) 504-7341",
    "address": " International Dr  Orlando, FL 32819",
    "location": "Lafayette"
  },
  {
    "name": "Faro Design",
    "description": "Graphic Designers",
    "phone": "(321) 800-9308",
    "address": " 3306 Maggie Blvd Ste A  Orlando, FL 32811",
    "location": "Lafayette"
  },
  {
    "name": "Quality Signs Of Orlando Corp",
    "description": "Signs",
    "phone": "(407) 486-7722",
    "address": " 4668 Cason Cove Dr Apt 215  Orlando, FL 32811",
    "location": "Lafayette"
  },
  {
    "name": "Visionetics Corp",
    "description": "Signs",
    "phone": "(407) 648-0310",
    "address": " 4629 36th St Ste 100  Orlando, FL 32811",
    "location": "Lafayette"
  },
  {
    "name": "Aha Specialties",
    "description": "Advertising Specialties",
    "phone": "(407) 569-0576",
    "address": " 4677 L B Mcleod Rd  Orlando, FL 32811",
    "location": "Lafayette"
  },
  {
    "name": "Astonish Advertising",
    "description": "Advertising Specialties",
    "phone": "(321) 202-5949",
    "address": " 5301 Rosegay Ct  Orlando, FL 32811",
    "location": "Lafayette"
  },
  {
    "name": "Creative Mind Machine",
    "description": "Interactive Media",
    "phone": "(407) 255-2068",
    "address": " 4700 Millenia Blvd Ste 175  Orlando, FL 32839",
    "location": "Lafayette"
  },
  {
    "name": "iMetroplex Digital Marketing Agency",
    "description": "Internet Marketing & Advertising",
    "phone": "(214) 702-9955",
    "address": " 4700 Millenia Blvd  Orlando, FL 32839",
    "location": "Lafayette"
  },
  {
    "name": "WebFX",
    "description": "Internet Marketing & Advertising",
    "phone": "(407) 326-0828",
    "address": " 4700 Millenia Blvd Ste 175  Orlando, FL 32839",
    "location": "Lafayette"
  },
  {
    "name": "Squid Insurance Marketing",
    "description": "Advertising Specialties",
    "phone": "(407) 237-0844",
    "address": " 4700 Millenia Blvd  Orlando, FL 32839",
    "location": "Lafayette"
  },
  {
    "name": "Web Gravity, LLC",
    "description": "Internet Marketing & Advertising",
    "phone": "(407) 505-5932",
    "address": " 4700 Millenia Blvd Ste 175  Orlando, FL 32839",
    "location": "Lafayette"
  },
  {
    "name": "Unique Banner Printing Corp",
    "description": "Digital Printing & Imaging",
    "phone": "(407) 552-5554",
    "address": " 4700 Millenia Blvd Ste 175  Orlando, FL 32839",
    "location": "Lafayette"
  },
  {
    "name": "Delivery Signs",
    "description": "Signs",
    "phone": "(321) 206-5288",
    "address": " 4602 35th St  Orlando, FL 32811",
    "location": "Lafayette"
  },
  {
    "name": "Carpe Diem Sales & Marketing",
    "description": "Marketing Consultants",
    "phone": "(407) 682-1400",
    "address": " 4560 36th St  Orlando, FL 32811",
    "location": "Lafayette"
  },
  {
    "name": "Artgraphic Signs",
    "description": "Signs",
    "phone": "(407) 292-6162",
    "address": " 4561 SW 34th St  Orlando, FL 32811",
    "location": "Lafayette"
  },
  {
    "name": "Graphic Systems Inc",
    "description": "Signs",
    "phone": "(407) 648-5353",
    "address": " 4507 36th St  Orlando, FL 32811",
    "location": "Lafayette"
  },
  {
    "name": "N Glantz & Son",
    "description": "Signs",
    "phone": "(407) 650-9404",
    "address": " 4408 36th St  Orlando, FL 32811",
    "location": "Lafayette"
  },
  {
    "name": "Matrix of Florida",
    "description": "Signs",
    "phone": "(407) 447-7004",
    "address": " 4484 SW 34th St  Orlando, FL 32811",
    "location": "Lafayette"
  },
  {
    "name": "Wow Signs & Printing Inc.",
    "description": "Advertising Specialties",
    "phone": "(407) 351-3976",
    "address": " 7061 Grand National Dr Ste 139  Orlando, FL 32819",
    "location": "Lafayette"
  },
  {
    "name": "SMB Marketing Solutions",
    "description": "Internet Marketing & Advertising",
    "phone": "(407) 413-9043",
    "address": " 7557 W Sand Lake Rd  Orlando, FL 32819",
    "location": "Lafayette"
  },
  {
    "name": "WrapsForLess.com",
    "description": "Truck Painting & Lettering",
    "phone": "(407) 447-9045",
    "address": " 4210 L B Mcleod Rd Ste 101  Orlando, FL 32811",
    "location": "Lafayette"
  },
  {
    "name": "Signarama Orlando Southwest",
    "description": "Truck Painting & Lettering",
    "phone": "(407) 578-6616",
    "address": " 4380 L B McLeod Rd  Orlando, FL 32811",
    "location": "Lafayette"
  },
  {
    "name": "Shadow Graphics",
    "description": "Computer Graphics",
    "phone": "(407) 481-8282",
    "address": " 3714 Vineland Rd  Orlando, FL 32811",
    "location": "Lafayette"
  },
  {
    "name": "Signs Now",
    "description": "Signs-Maintenance & Repair",
    "phone": "(407) 856-3635",
    "address": " 4498 South Vineland Rd.  Orlando, FL 32811",
    "location": "Lafayette"
  },
  {
    "name": "Allegra Design Print Signs",
    "description": "Direct Mail Advertising",
    "phone": "(407) 246-1567",
    "address": " 4498 Vineland Rd  Orlando, FL 32811",
    "location": "Lafayette"
  },
  {
    "name": "Allegra Marketing Print Mail",
    "description": "Direct Mail Advertising",
    "phone": "(407) 246-1567",
    "address": " 4498 Vineland Rd  Orlando, FL 32811",
    "location": "Lafayette"
  },
  {
    "name": "Allegra Print & Imaging",
    "description": "Digital Printing & Imaging",
    "phone": "(407) 246-1567",
    "address": " 4498 Vineland Rd  Orlando, FL 32811",
    "location": "Lafayette"
  },
  {
    "name": "Stylenet.com",
    "description": "Internet Marketing & Advertising",
    "phone": "(407) 363-5103",
    "address": " 7519 W Sand Lake Rd  Orlando, FL 32819",
    "location": "Lafayette"
  },
  {
    "name": "Extrememakeovers.com",
    "description": "Internet Marketing & Advertising",
    "phone": "(407) 399-8074",
    "address": " 7557 W Sand Lake Rd  Orlando, FL 32819",
    "location": "Lafayette"
  },
  {
    "name": "Marine Imo Signs & Posters",
    "description": "Signs",
    "phone": "(407) 633-9751",
    "address": " 7345 W Sand Lake Rd  Orlando, FL 32819",
    "location": "Lafayette"
  },
  {
    "name": "Visual Signs",
    "description": "Signs",
    "phone": "(407) 693-0200",
    "address": " 7081 Grand National Dr Ste 102  Orlando, FL 32819",
    "location": "Lafayette"
  },
  {
    "name": "Trident Marketing Group",
    "description": "Internet Marketing & Advertising",
    "phone": "(863) 899-3703",
    "address": " 7380 W Sand Lake Rd Ste 500  Orlando, FL 32819",
    "location": "Lafayette"
  },
  {
    "name": "Booking.com",
    "description": "Internet Marketing & Advertising",
    "phone": "(407) 352-3215",
    "address": " 7380 W Sand Lake Rd  Orlando, FL 32819",
    "location": "Lafayette"
  },
  {
    "name": "Complete Developer",
    "description": "Web Site Design & Services",
    "phone": "(407) 992-2303",
    "address": " 7380 W Sand Lake Rd Ste 500  Orlando, FL 32819",
    "location": "Lafayette"
  },
  {
    "name": "Your Brand Voice",
    "description": "Internet Marketing & Advertising",
    "phone": "(407) 243-8707",
    "address": " 7800 W Sand Lake Rd Ste 211  Orlando, FL 32819",
    "location": "Lafayette"
  },
  {
    "name": "Lewis SEO",
    "description": "Internet Marketing & Advertising",
    "phone": "(321) 424-6035",
    "address": " 7932 W. Sand Lake Road  Orlando, FL 32819",
    "location": "Lafayette"
  },
  {
    "name": "Amazon Design Graphics",
    "description": "Printers-Business Cards",
    "phone": "(407) 522-7222",
    "address": " 6547 Chantry St  Orlando, FL 32835",
    "location": "Lafayette"
  },
  {
    "name": "MundoFOX Orlando",
    "description": "Television Program Producers & Distributors",
    "phone": "(407) 982-2268",
    "address": " 4307 Vineland Rd Ste H1/h2  orlando, FL 32811",
    "location": "Lafayette"
  },
  {
    "name": "Impact Signs",
    "description": "Advertising Specialties",
    "phone": "(407) 599-0399",
    "address": " 4303 Vineland Rd  Orlando, FL 32811",
    "location": "Lafayette"
  },
  {
    "name": "Xtreme Signs & Printing",
    "description": "Graphic Designers",
    "phone": "(321) 438-3954",
    "address": " 4203 Vineland Rd Ste A-5b  Orlando, FL 32811",
    "location": "Lafayette"
  },
  {
    "name": "Book Rix",
    "description": "Internet Marketing & Advertising",
    "phone": "(407) 217-5953",
    "address": " 9155 Ridge Pine Trl  Orlando, FL 32819",
    "location": "Lafayette"
  },
  {
    "name": "FASTSIGNS",
    "description": "Signs",
    "phone": "(407) 770-1500",
    "address": " 7154 W Colonial Dr  Orlando, FL 32818",
    "location": "Lafayette"
  },
  {
    "name": "xyz media",
    "description": "Internet Marketing & Advertising",
    "phone": "(321) 946-4181",
    "address": " 4882 Matteo Trail  Orlando, FL 32839",
    "location": "Lafayette"
  },
  {
    "name": "Lightmaker USA",
    "description": "Web Site Design & Services",
    "phone": "(321) 293-0500",
    "address": " 6881 Kingspointe Pkwy  Orlando, FL 32819",
    "location": "Lafayette"
  },
  {
    "name": "bartz",
    "description": "Financial Planners",
    "phone": "(407) 480-0000",
    "address": " 4000 Seabridge Dr  Orlando, FL 32839",
    "location": "Lafayette"
  },
  {
    "name": "Absen American Inc",
    "description": "Signs-Maintenance & Repair",
    "phone": "(407) 203-8870",
    "address": " 7703 Kingspointe Pkwy  Orlando, FL 32819",
    "location": "Lafayette"
  },
  {
    "name": "Spectrum Sign Services",
    "description": "Truck Painting & Lettering",
    "phone": "(407) 264-0208",
    "address": " 6618 Kingspointe Pkwy  Orlando, FL 32819",
    "location": "Lafayette"
  },
  {
    "name": "Work at Home",
    "description": "Internet Marketing & Advertising",
    "phone": "(216) 551-1442",
    "address": " 7438 Beacon Hill Loop  Orlando, FL 32818",
    "location": "Lafayette"
  },
  {
    "name": "Jdeezine Elite Graphics",
    "description": "Graphic Designers",
    "phone": "(321) 460-4056",
    "address": " 1601 Crooms Ave  Orlando, FL 32805",
    "location": "Lafayette"
  },
  {
    "name": "Minuteman Press Sand Lake",
    "description": "Printing Services",
    "phone": "(407) 355-3302",
    "address": " 7751 Kingspointe Parkway, Suite 117  Orlando, FL 32819",
    "location": "Lafayette"
  },
  {
    "name": "Passcomms",
    "description": "Web Site Design & Services",
    "phone": "(407) 873-2436",
    "address": " 1224 Kirk St  Orlando, FL 32808",
    "location": "Lafayette"
  },
  {
    "name": "Awning Factory",
    "description": "Awnings & Canopies",
    "phone": "(407) 898-6001",
    "address": " 635 Wilmer Ave  Orlando, FL 32808",
    "location": "Lafayette"
  },
  {
    "name": "Amarant Graphics",
    "description": "Graphic Designers",
    "phone": "(407) 351-3976",
    "address": " 6236 Kingspointe Pkwy  Orlando, FL 32819",
    "location": "Lafayette"
  },
  {
    "name": "HI4OC",
    "description": "Direct Mail Advertising",
    "phone": "(407) 287-6129",
    "address": " PO Box 1022  Gotha, FL 34734",
    "location": "Lafayette"
  },
  {
    "name": "Raptor Ink Web Design",
    "description": "Internet Marketing & Advertising",
    "phone": "(407) 590-3730",
    "address": " 10619 Oakview Pointe Ter  Gotha, FL 34734",
    "location": "Lafayette"
  },
  {
    "name": "Sunshine Print Signs",
    "description": "Signs-Maintenance & Repair",
    "phone": "(407) 757-0834",
    "address": " 8991 W Colonial Dr  Ocoee, FL 34761",
    "location": "Lafayette"
  },
  {
    "name": "Bellmere Shipping and Computer Repair",
    "description": "Mail & Shipping Services",
    "phone": "(407) 654-2085",
    "address": " 2582 Maguire Rd  Ocoee, FL 34761",
    "location": "Lafayette"
  },
  {
    "name": "One Day Masterpieces",
    "description": "Signs",
    "phone": "(407) 857-9987",
    "address": " 2101 Premier Row  Orlando, FL 32809",
    "location": "Lafayette"
  },
  {
    "name": "Express Signs And Graphics Of Orlando",
    "description": "Signs",
    "phone": "(407) 240-0911",
    "address": " 7101 Presidents Dr Ste 199  Orlando, FL 32809",
    "location": "Lafayette"
  },
  {
    "name": "Superior Design Monument Co.",
    "description": "Monuments",
    "phone": "(407) 849-1025",
    "address": " 820 W Gore St  Orlando, FL 32805",
    "location": "Lafayette"
  },
  {
    "name": "Geo Graphics Design Inc",
    "description": "Graphic Designers",
    "phone": "(407) 522-4480",
    "address": " 5060 W Colonial Dr  Orlando, FL 32808",
    "location": "Lafayette"
  },
  {
    "name": "Finish Line Auto Works",
    "description": "Advertising Specialties",
    "phone": "(407) 299-1330",
    "address": " 4502 Old Winter Garden Rd Ste I  Orlando, FL 32811",
    "location": "Lafayette"
  },
  {
    "name": "FedEx Ship Center",
    "description": "Air Cargo & Package Express Service",
    "phone": "(800) 463-3339",
    "address": " 6900 Presidents Dr  Orlando, FL 32809",
    "location": "Lafayette"
  },
  {
    "name": "Getwowbrows.com",
    "description": "Advertising Specialties",
    "phone": "(413) 438-2769",
    "address": " 7300 Sandlake Commons Blvd Ste 220  Orlando, FL 32819",
    "location": "Lafayette"
  },
  {
    "name": "Graphic Signs Inc",
    "description": "Signs",
    "phone": "(407) 290-1285",
    "address": " 1004 N Pine Hills Rd  Orlando, FL 32808",
    "location": "Lafayette"
  },
  {
    "name": "Orlando Car Customs",
    "description": "Automobile Customizing",
    "phone": "(407) 290-1285",
    "address": " 1004 N Pine Hills Rd  Orlando, FL 32808",
    "location": "Lafayette"
  },
  {
    "name": "Co Interior De Signs",
    "description": "Advertising Specialties",
    "phone": "(407) 286-4004",
    "address": " 8751 Commodity Cir  Orlando, FL 32819",
    "location": "Lafayette"
  },
  {
    "name": "sfelectronicandmore",
    "description": "Internet Marketing & Advertising",
    "phone": "(321) 947-2681",
    "address": " 5660 Stoneridge Cir  Orlando, FL 32839",
    "location": "Lafayette"
  },
  {
    "name": "Wow Signs Pri Nting Inc",
    "description": "Advertising Specialties",
    "phone": "(407) 250-4729",
    "address": " 3609 Old Winter Garden Rd  Orlando, FL 32805",
    "location": "Lafayette"
  },
  {
    "name": "orlando led signs",
    "description": "Signs",
    "phone": "(321) 600-0058",
    "address": " 4107 El Rey Rd  Orlando, FL 32808",
    "location": "Lafayette"
  },
  {
    "name": "Petty Graphics & Signs",
    "description": "Advertising Specialties",
    "phone": "(708) 427-1412",
    "address": " 7362 Futures Dr  Orlando, FL 32819",
    "location": "Lafayette"
  },
  {
    "name": "Banner Wholesalers Inc",
    "description": "Banners, Flags & Pennants",
    "phone": "(407) 294-3278",
    "address": " 515 Ferguson Dr  Orlando, FL 32805",
    "location": "Lafayette"
  },
  {
    "name": "Amerisigns",
    "description": "Signs",
    "phone": "(407) 492-5644",
    "address": " 1718 Acme St  Orlando, FL 32805",
    "location": "Lafayette"
  },
  {
    "name": "Sentry Engraving",
    "description": "Engraving",
    "phone": "(407) 843-2905",
    "address": " 1313 28th St  Orlando, FL 32805",
    "location": "Lafayette"
  },
  {
    "name": "Shopwouj.com",
    "description": "Internet Marketing & Advertising",
    "phone": "(352) 321-5294",
    "address": " 1992 1217 N Hart Blvd 267  Orlando, FL 32818",
    "location": "Lafayette"
  },
  {
    "name": "HALO Branded Solutions",
    "description": "Advertising Specialties",
    "phone": "(407) 425-9521",
    "address": " 2053 Premier Row  Orlando, FL 32809",
    "location": "Lafayette"
  },
  {
    "name": "LNJ Signs",
    "description": "Signs-Maintenance & Repair",
    "phone": "(407) 650-9939",
    "address": " 1333 W Michigan St  Orlando, FL 32805",
    "location": "Lafayette"
  },
  {
    "name": "L J Signs & Awnings Inc",
    "description": "Awnings & Canopies",
    "phone": "(407) 650-9939",
    "address": " 1333 W Michigan St  Orlando, FL 32805",
    "location": "Lafayette"
  },
  {
    "name": "DragonFire Industries Inc.",
    "description": "Truck Painting & Lettering",
    "phone": "(407) 999-2215",
    "address": " 7559 Currency Dr  Orlando, FL 32809",
    "location": "Lafayette"
  },
  {
    "name": "Dsigns Factory",
    "description": "Signs",
    "phone": "(407) 776-4837",
    "address": " 1301 Duskin Ave  Orlando, FL 32839",
    "location": "Lafayette"
  },
  {
    "name": "Grimco Inc",
    "description": "Signs",
    "phone": "(800) 542-9941",
    "address": " 7630 Currency Dr  Orlando, FL 32809",
    "location": "Lafayette"
  },
  {
    "name": "Portable Signs USA",
    "description": "Signs",
    "phone": "(407) 540-0900",
    "address": " 1308 22nd St  Orlando, FL 32805",
    "location": "Lafayette"
  },
  {
    "name": "Quickie Signs Inc",
    "description": "Signs",
    "phone": "(407) 423-3123",
    "address": " 1009 Honey Girl Ln  Orlando, FL 32839",
    "location": "Lafayette"
  },
  {
    "name": "T & M Signs",
    "description": "Signs",
    "phone": "(407) 423-0253",
    "address": " 2116 W Central Blvd  Orlando, FL 32805",
    "location": "Lafayette"
  },
  {
    "name": "Seychelle Media",
    "description": "Advertising Specialties",
    "phone": "(407) 377-7753",
    "address": " 6675 Westwood Blvd Ste 200  Orlando, FL 32821",
    "location": "Lafayette"
  },
  {
    "name": "Fototrophy.com",
    "description": "Internet Marketing & Advertising",
    "phone": "(407) 855-1613",
    "address": " 7616 Southland Blvd  Orlando, FL 32809",
    "location": "Lafayette"
  },
  {
    "name": "Action Mail Services Inc",
    "description": "Direct Mail Advertising",
    "phone": "(407) 855-8807",
    "address": " 1904 Premier Row  Orlando, FL 32809",
    "location": "Lafayette"
  },
  {
    "name": "Advo Inc",
    "description": "Direct Mail Advertising",
    "phone": "(407) 438-3108",
    "address": " 7651 Southland Blvd  Orlando, FL 32809",
    "location": "Lafayette"
  },
  {
    "name": "Visit Orlando",
    "description": "Marketing Programs & Services",
    "phone": "(407) 363-5800",
    "address": " 6277 Sea Harbor Dr Ste 400  Orlando, FL 32821",
    "location": "Lafayette"
  },
  {
    "name": "Soleil Creole",
    "description": "Internet Marketing & Advertising",
    "phone": "(407) 310-7022",
    "address": " 1030 W Michigan St  Orlando, FL 32805",
    "location": "Lafayette"
  },
  {
    "name": "Global Advertising",
    "description": "Transit Advertising",
    "phone": "(407) 203-5812",
    "address": " 1707 Orlando Central Pkwy Ste 430  Orlando, FL 32809",
    "location": "Lafayette"
  },
  {
    "name": "ABC Signs USA",
    "description": "Signs",
    "phone": "(407) 540-0690",
    "address": " 54 N Tampa Ave  Orlando, FL 32805",
    "location": "Lafayette"
  },
  {
    "name": "Bee City Mobile",
    "description": "Internet Directories",
    "phone": "(844) 233-2489",
    "address": " 6220 S Orange Blossom Trl Ste 142  Orlando, FL 32809",
    "location": "Lafayette"
  },
  {
    "name": "Graph-It Signs & Web Design",
    "description": "Signs",
    "phone": "(407) 855-1539",
    "address": " 1017 W Oak Ridge Rd  Orlando, FL 32809",
    "location": "Lafayette"
  },
  {
    "name": "SEO Marketing Cash",
    "description": "Internet Consultants",
    "phone": "(407) 369-2208",
    "address": " 7100 S Orange Blossom Trl  Orlando, FL 32809",
    "location": "Lafayette"
  },
  {
    "name": "Brewers Concepts & Art Designs",
    "description": "Signs",
    "phone": "(407) 835-0690",
    "address": " 750 S Orange Blossom Trl  Orlando, FL 32805",
    "location": "Lafayette"
  },
  {
    "name": "Revenue Performance",
    "description": "Internet Service Providers (ISP)",
    "phone": "(407) 909-9036",
    "address": " 10831 Woodchase Cir  Orlando, FL 32836",
    "location": "Lafayette"
  },
  {
    "name": "Ferguson Ferguson Decals",
    "description": "Signs",
    "phone": "(407) 422-2362",
    "address": " 1314 W Anderson St  Orlando, FL 32805",
    "location": "Lafayette"
  },
  {
    "name": "SynapsePro.Media",
    "description": "Audio-Visual Creative Services",
    "phone": "(954) 940-2626",
    "address": " 3220 Alamo Dr  Orlando, FL 32805",
    "location": "Lafayette"
  },
  {
    "name": "Signarama",
    "description": "Signs",
    "phone": "(407) 857-4467",
    "address": " 1937 Sand Lake Rd  Orlando, FL 32809",
    "location": "Lafayette"
  },
  {
    "name": "High 5 Signs",
    "description": "Signs",
    "phone": "(407) 791-9501",
    "address": " 7216 Chancery Ln Ste 4  Orlando, FL 32809",
    "location": "Lafayette"
  },
  {
    "name": "Sign & Vehicle Wraps, Inc.",
    "description": "Signs",
    "phone": "(407) 859-8631",
    "address": " 1011 W Lancaster Rd Ste 7  Orlando, FL 32809",
    "location": "Lafayette"
  },
  {
    "name": "Lenny's Distributors Straight",
    "description": "Advertising Specialties",
    "phone": "(407) 730-9899",
    "address": " 3313 Lake Tiny Cir  Orlando, FL 32818",
    "location": "Lafayette"
  },
  {
    "name": "Stahl Beizen",
    "description": "Radio Station Equipment",
    "phone": "(407) 610-0991",
    "address": " 3409 Dragoon Pl  Orlando, FL 32818",
    "location": "Lafayette"
  },
  {
    "name": "Sign Vw",
    "description": "Sign Lettering",
    "phone": "(407) 859-8631",
    "address": " 955 W Lancaster Rd Ste 2  Orlando, FL 32809",
    "location": "Lafayette"
  },
  {
    "name": "Two Graphic Factory",
    "description": "Signs",
    "phone": "(407) 556-4889",
    "address": " 955 W Lancaster Rd  Orlando, FL 32809",
    "location": "Lafayette"
  },
  {
    "name": "Caribbean Air Mail",
    "description": "Direct Mail Advertising",
    "phone": "(407) 872-0775",
    "address": " 310 S Orange Blossom Trl  Orlando, FL 32805",
    "location": "Lafayette"
  },
  {
    "name": "HD Grafix",
    "description": "Drafting Services",
    "phone": "(407) 203-2888",
    "address": " 7971 S Orange Blossom Trl  Orlando, FL 32809",
    "location": "Lafayette"
  },
  {
    "name": "Arts Signs",
    "description": "Signs",
    "phone": "(407) 422-5774",
    "address": " 508 W Michigan St  Orlando, FL 32805",
    "location": "Lafayette"
  },
  {
    "name": "CUBO VISUAL LLC",
    "description": "T-Shirts",
    "phone": "(407) 255-8560",
    "address": " 8424 S Orange Blossom Trl  Orlando, FL 32809",
    "location": "Lafayette"
  },
  {
    "name": "T.Marlowe (iNtrinsic).",
    "description": "Internet Marketing & Advertising",
    "phone": "(321) 320-4202",
    "address": " Po Box 690404  Orlando, FL 32869",
    "location": "Lafayette"
  },
  {
    "name": "Aarrow Sign Spinners",
    "description": "Advertising Specialties",
    "phone": "(407) 233-4372",
    "address": " 8421 S Orange Blossom Trl  Orlando, FL 32809",
    "location": "Lafayette"
  },
  {
    "name": "Embroidery Works Plus",
    "description": "Uniforms",
    "phone": "(407) 523-2899",
    "address": " 4100 Silver Star Rd  Orlando, FL 32808",
    "location": "Lafayette"
  },
  {
    "name": "Black Leaf Signs",
    "description": "Signs",
    "phone": "(407) 279-3232",
    "address": " 1831 Tallokas Ave  Orlando, FL 32805",
    "location": "Lafayette"
  },
  {
    "name": "Infinitywaves.com",
    "description": "Internet Marketing & Advertising",
    "phone": "(201) 830-1918",
    "address": " 6342 Swanson St  Windermere, FL 34786",
    "location": "Lafayette"
  },
  {
    "name": "I and J Signs and Awnings Inc",
    "description": "Signs",
    "phone": "(407) 378-2054",
    "address": " 844 Maguire Rd  Ocoee, FL 34761",
    "location": "Lafayette"
  },
  {
    "name": "Big Daddys Signs",
    "description": "Signs",
    "phone": "(603) 452-7381",
    "address": " 825 Shadowmoss Dr  Winter Garden, FL 34787",
    "location": "Lafayette"
  },
  {
    "name": "The Sign Factory",
    "description": "Signs",
    "phone": "(407) 656-7986",
    "address": " 711 S Bluford Ave  Ocoee, FL 34761",
    "location": "Lafayette"
  },
  {
    "name": "Seehire.com",
    "description": "Internet Marketing & Advertising",
    "phone": "(754) 307-7366",
    "address": " 1746 E Silver Star Rd  Ocoee, FL 34761",
    "location": "Lafayette"
  },
  {
    "name": "FPIS Brochure Distribution",
    "description": "Advertising Specialties",
    "phone": "(407) 656-8818",
    "address": " 220 Story Rd  Ocoee, FL 34761",
    "location": "Lafayette"
  },
  {
    "name": "Igenti, Inc.",
    "description": "Internet Marketing & Advertising",
    "phone": "(407) 877-5992",
    "address": " 12200 W Colonial Dr Ste 302  Winter Garden, FL 34787",
    "location": "Lafayette"
  },
  {
    "name": "Graffix Unlimited Inc",
    "description": "Signs",
    "phone": "(407) 654-0260",
    "address": " 12301 W Colonial Dr  Winter Garden, FL 34787",
    "location": "Lafayette"
  },
  {
    "name": "Big Daddy's Signs",
    "description": "Signs",
    "phone": "(407) 347-5965",
    "address": " 1319 Green Forest Ct  Winter Garden, FL 34787",
    "location": "Lafayette"
  },
  {
    "name": "Reaching Our Destiny, Inc",
    "description": "Print Advertising",
    "phone": "(407) 603-5387",
    "address": " 13162 Social Ln  Winter Garden, FL 34787",
    "location": "Lafayette"
  },
  {
    "name": "Printing USA",
    "description": "Document Imaging",
    "phone": "(407) 857-7468",
    "address": " 4732 S Orange Blossom Trl  Orlando, FL 32839",
    "location": "Lafayette"
  },
  {
    "name": "Action Mail Services",
    "description": "Direct Mail Advertising",
    "phone": "(407) 855-9277",
    "address": " 2441 Orlando Central Pkwy  Orlando, FL 32809",
    "location": "Lafayette"
  },
  {
    "name": "Fann Emblem & Embroidery Co Inc",
    "description": "Clothing Stores",
    "phone": "(407) 422-7354",
    "address": " 1330 W Central Blvd  Orlando, FL 32805",
    "location": "Lafayette"
  },
  {
    "name": "Outdoor Images Inc",
    "description": "Signs",
    "phone": "(321) 270-0560",
    "address": " 4061 Forrestal Ave Unit 2  Orlando, FL 32806",
    "location": "Lafayette"
  },
  {
    "name": "The Monument Co LLC",
    "description": "Monuments-Wholesale & Manufacturers",
    "phone": "(407) 286-2339",
    "address": " 2000 Curry Ford Rd  Orlando, FL 32806",
    "location": "Lafayette"
  },
  {
    "name": "Logos Promote",
    "description": "Screen Printing",
    "phone": "(407) 447-5646",
    "address": " 3852 N John Young Pkwy  Orlando, FL 32804",
    "location": "Lafayette"
  },
  {
    "name": "Fusion Studios - Video Production Orlando",
    "description": "Internet Marketing & Advertising",
    "phone": "(800) 997-5060",
    "address": " 11 N Summerlin Ave Ste 210  Orlando, FL 32801",
    "location": "Lafayette"
  },
  {
    "name": "Rising Ranks",
    "description": "Internet Marketing & Advertising",
    "phone": "(321) 236-1084",
    "address": " 1701 W Wetherbee Rd #771603  Orlando, FL 32837",
    "location": "Lafayette"
  },
  {
    "name": "Orlando SEO Consultant",
    "description": "Internet Marketing & Advertising",
    "phone": "(407) 801-2736",
    "address": " 37 N Orange Ave Ste 500  Orlando, FL 32801",
    "location": "Lafayette"
  },
  {
    "name": "PRO TINT & DETAILING",
    "description": "Consumer Electronics",
    "phone": "(407) 841-2123",
    "address": " 1900 S Orange Ave  Orlando, FL 32806",
    "location": "Lafayette"
  },
  {
    "name": "Image360 South Orlando",
    "description": "Digital Printing & Imaging",
    "phone": "(407) 674-8580",
    "address": " 9350 S Orange Blossom Trl Ste 2  Orlando, FL 32837",
    "location": "Lafayette"
  },
  {
    "name": "Get The Clicks",
    "description": "Internet Marketing & Advertising",
    "phone": "(407) 476-0203",
    "address": " 37 N Orange Ave Ste 420  Orlando, FL 32801",
    "location": "Lafayette"
  },
  {
    "name": "The Sign Center",
    "description": "Signs-Erectors & Hangers",
    "phone": "(407) 579-9293",
    "address": " 460 W Landstreet Rd  Orlando, FL 32824",
    "location": "Lafayette"
  },
  {
    "name": "Specialty Art Services",
    "description": "Picture Framing",
    "phone": "(407) 523-0200",
    "address": " 3424 Shader Rd  Orlando, FL 32808",
    "location": "Lafayette"
  },
  {
    "name": "Marketing24x7 - Orlando SEO",
    "description": "Internet Marketing & Advertising",
    "phone": "(407) 288-8878",
    "address": " 390 N Orange Ave Ste 2300  Orlando, FL 32801",
    "location": "Lafayette"
  },
  {
    "name": "M J Signs",
    "description": "Signs",
    "phone": "(407) 730-4649",
    "address": " 6439 Milner Blvd  Orlando, FL 32809",
    "location": "Lafayette"
  },
  {
    "name": "Vital Signs Of Orlando",
    "description": "Advertising Specialties",
    "phone": "(407) 985-1264",
    "address": " 2111 S Division Ave  Orlando, FL 32805",
    "location": "Lafayette"
  },
  {
    "name": "Metro Bench",
    "description": "Advertising Specialties",
    "phone": "(407) 843-0088",
    "address": " 1050 W Robinson St  Orlando, FL 32805",
    "location": "Lafayette"
  },
  {
    "name": "KiksMedia",
    "description": "Internet Marketing & Advertising",
    "phone": "(407) 448-1480",
    "address": " 5366 Central Florida Parkway  Orlando, FL 32821",
    "location": "Lafayette"
  },
  {
    "name": "New Tech Signs & Printing Inc",
    "description": "Signs",
    "phone": "(407) 296-4929",
    "address": " 3767 Silver Star Rd  Orlando, FL 32808",
    "location": "Lafayette"
  },
  {
    "name": "The Baker Press",
    "description": "Printing Services-Commercial",
    "phone": "(407) 290-5800",
    "address": " 3606 Silver Star Rd  Orlando, FL 32808",
    "location": "Lafayette"
  },
  {
    "name": "Taylor Made Signs",
    "description": "Signs",
    "phone": "(407) 816-0063",
    "address": " 137 Drennen Rd  Orlando, FL 32806",
    "location": "Lafayette"
  },
  {
    "name": "Outdoor Images Of Central Florida Inc",
    "description": "Signs",
    "phone": "(407) 825-9944",
    "address": " 4601 Forrestal Ave # 2  Orlando, FL 32806",
    "location": "Lafayette"
  },
  {
    "name": "Soleykreyol",
    "description": "Internet Marketing & Advertising",
    "phone": "(321) 460-7728",
    "address": " 1310 W Colonial Dr Ste 5  Orlando, FL 32804",
    "location": "Lafayette"
  },
  {
    "name": "M & S Signs",
    "description": "Signs",
    "phone": "(407) 857-6911",
    "address": " 102 Drennen Rd  Orlando, FL 32806",
    "location": "Lafayette"
  },
  {
    "name": "SignExpress",
    "description": "Signs",
    "phone": "(407) 617-1936",
    "address": " 65 Drennen Rd  Orlando, FL 32806",
    "location": "Lafayette"
  },
  {
    "name": "Gotcha Graphics",
    "description": "Graphic Designers",
    "phone": "(407) 839-8800",
    "address": " 777 W Central Blvd Ste B  Orlando, FL 32805",
    "location": "Lafayette"
  },
  {
    "name": "Vince Balistreri Signs",
    "description": "Signs",
    "phone": "(407) 857-8334",
    "address": " 55 Drennen Rd  Orlando, FL 32806",
    "location": "Lafayette"
  },
  {
    "name": "Speedpro Imaging",
    "description": "Computer Printers & Supplies",
    "phone": "(407) 854-4003",
    "address": " 9420 Delegates Dr Ste 400  Orlando, FL 32837",
    "location": "Lafayette"
  },
  {
    "name": "N W Sign Industries Inc",
    "description": "Signs",
    "phone": "(800) 359-1151",
    "address": " 1255 La Quinta Dr  Orlando, FL 32809",
    "location": "Lafayette"
  },
  {
    "name": "Signarama - Orlando (Downtown), FL",
    "description": "Signs",
    "phone": "(407) 894-0090",
    "address": " 1100 W Colonial Dr Unit 1  Orlando, FL 32804",
    "location": "Lafayette"
  },
  {
    "name": "Sign Depot",
    "description": "Signs",
    "phone": "(407) 894-0090",
    "address": " 1100 W Colonial Dr Unit 1  Orlando, FL 32804",
    "location": "Lafayette"
  },
  {
    "name": "Nationwide Shipping",
    "description": "Signs",
    "phone": "(407) 705-7888",
    "address": " 1111 W Pineloch Ave  Orlando, FL 32801",
    "location": "Lafayette"
  },
  {
    "name": "Web Market Florida SEO",
    "description": "Internet Marketing & Advertising",
    "phone": "(407) 446-7297",
    "address": " 2750 Taylor Ave Ste A-8  Orlando, FL 32806",
    "location": "Lafayette"
  },
  {
    "name": "Boone Sign Erection and Service Inc",
    "description": "Signs-Maintenance & Repair",
    "phone": "(407) 423-4043",
    "address": " 28 W Michigan St  Orlando, FL 32806",
    "location": "Lafayette"
  },
  {
    "name": "Meyer Distributing",
    "description": "Advertising Specialties",
    "phone": "(407) 578-5181",
    "address": " 2420 Lynx Ln  Orlando, FL 32804",
    "location": "Lafayette"
  },
  {
    "name": "Millennium Marketing Group",
    "description": "Marketing Programs & Services",
    "phone": "(407) 998-1100",
    "address": " 1978 Stanhome Way  Orlando, FL 32804",
    "location": "Lafayette"
  },
  {
    "name": "Fulfillment Partners Inc.",
    "description": "Direct Mail Advertising",
    "phone": "(407) 660-8606",
    "address": " 1978 Stanhome Way  Orlando, FL 32804",
    "location": "Lafayette"
  },
  {
    "name": "COU Group Inc.",
    "description": "Internet Marketing & Advertising",
    "phone": "(407) 219-2889",
    "address": " 704 Mcdougall Ct  Orlando, FL 32809",
    "location": "Lafayette"
  },
  {
    "name": "TravelClick, an Amadeus company",
    "description": "Internet Marketing & Advertising",
    "phone": "(866) 674-4549",
    "address": " 501 W Church St Fl 3  Orlando, FL 32805",
    "location": "Lafayette"
  },
  {
    "name": "Sign Time",
    "description": "Signs",
    "phone": "(407) 316-0093",
    "address": " 2307 S Orange Ave  Orlando, FL 32806",
    "location": "Lafayette"
  },
  {
    "name": "Signs Depot",
    "description": "Signs",
    "phone": "(407) 757-0788",
    "address": " 9251 S Orange Blossom Trl Ste 9  Orlando, FL 32837",
    "location": "Lafayette"
  },
  {
    "name": "Zane Lighthouse",
    "description": "Internet Marketing & Advertising",
    "phone": "(407) 504-7186",
    "address": " 6717 Banner Lake Cir  Orlando, FL 32821",
    "location": "Lafayette"
  },
  {
    "name": "Cash Trottle",
    "description": "Internet Marketing & Advertising",
    "phone": "(407) 247-1916",
    "address": " 7132 Country Run Pkwy  Orlando, FL 32818",
    "location": "Lafayette"
  },
  {
    "name": "LED Signs Factory Direct",
    "description": "Signs",
    "phone": "(954) 440-3422",
    "address": " 4913 S Orange Ave  Orlando, FL 32806",
    "location": "Lafayette"
  },
  {
    "name": "UD Holdings Corp.",
    "description": "Internet Marketing & Advertising",
    "phone": "(877) 827-3985",
    "address": " 100 W Lucerne Cir Fl 200-l  Orlando, FL 32801",
    "location": "Lafayette"
  },
  {
    "name": "Citywide Signs Co. Inc",
    "description": "Signs-Maintenance & Repair",
    "phone": "(800) 550-9812",
    "address": " 5710 Joyce St  Orlando, FL 32839",
    "location": "Lafayette"
  },
  {
    "name": "Creative Printing",
    "description": "Signs",
    "phone": "(407) 796-7019",
    "address": " 3100 Eunice Ave  Orlando, FL 32808",
    "location": "Lafayette"
  },
  {
    "name": "Just Yard Sign & More",
    "description": "Signs",
    "phone": "(407) 205-9862",
    "address": " 2545 Industrial Blvd  Orlando, FL 32804",
    "location": "Lafayette"
  },
  {
    "name": "Paulette Clark Signs & Ba",
    "description": "Signs",
    "phone": "(407) 843-6857",
    "address": " 1118 Overbrook Dr  Orlando, FL 32804",
    "location": "Lafayette"
  },
  {
    "name": "Echo Interaction Group",
    "description": "Internet Marketing & Advertising",
    "phone": "(407) 792-5441",
    "address": " 101 S Garland Ave Ste 108  Orlando, FL 32801",
    "location": "Lafayette"
  },
  {
    "name": "Warden Promotio Ns",
    "description": "Embroidery",
    "phone": "(407) 650-0641",
    "address": " 940 S Orange Ave  Orlando, FL 32806",
    "location": "Lafayette"
  },
  {
    "name": "Warden Co",
    "description": "Advertising Specialties",
    "phone": "(407) 650-0333",
    "address": " 940 S Orange Ave Ste 101  Orlando, FL 32806",
    "location": "Lafayette"
  },
  {
    "name": "ASAP Signs",
    "description": "Signs",
    "phone": "(407) 521-7222",
    "address": " 2400 Silver Star Rd  Orlando, FL 32804",
    "location": "Lafayette"
  },
  {
    "name": "Outdoor Images of Central Florida Inc",
    "description": "Signs",
    "phone": "(407) 825-9944",
    "address": " 5659 Commerce Dr  Orlando, FL 32839",
    "location": "Lafayette"
  },
  {
    "name": "Happy Owl Marketing",
    "description": "Internet Marketing & Advertising",
    "phone": "(407) 995-6477",
    "address": " 450 S Orange Ave 3rd Fl  Orlando, FL 32801",
    "location": "Lafayette"
  },
  {
    "name": "iAnalyst: Internet Marketing Agency, PPC, Website & SEO Company in Orlando",
    "description": "Internet Marketing & Advertising",
    "phone": "(407) 499-8103",
    "address": " 300 S Orange Ave Ste 1000  Orlando, FL 32801",
    "location": "Lafayette"
  },
  {
    "name": "Design Your Pins",
    "description": "Advertising Specialties",
    "phone": "(321) 701-2211",
    "address": " 255 S Orange Ave Ste 104-1330  Orlando, FL 32801",
    "location": "Lafayette"
  },
  {
    "name": "Myauctionco.Com",
    "description": "Internet Marketing & Advertising",
    "phone": "(407) 206-6582",
    "address": " 255 S Orange Ave  Orlando, FL 32801",
    "location": "Lafayette"
  },
  {
    "name": "Ahosting, Inc.",
    "description": "Internet Marketing & Advertising",
    "phone": "(407) 476-9854",
    "address": " 189 S Orange Ave Ste 1500  Orlando, FL 32801",
    "location": "Lafayette"
  },
  {
    "name": "Purple Rock Scissors",
    "description": "Digital Printing & Imaging",
    "phone": "(407) 936-1749",
    "address": " 189 S Orange Ave Ste 2020  Orlando, FL 32801",
    "location": "Lafayette"
  },
  {
    "name": "Big Vision",
    "description": "Marketing Programs & Services",
    "phone": "(407) 378-4620",
    "address": " 189 S Orange Ave Ste 1120  Orlando, FL 32801",
    "location": "Lafayette"
  },
  {
    "name": "Www.bjoely.com",
    "description": "Internet Marketing & Advertising",
    "phone": "(407) 256-6558",
    "address": " 2404 Coolidge Ave  Orlando, FL 32804",
    "location": "Lafayette"
  },
  {
    "name": "American Quick Signs",
    "description": "Signs",
    "phone": "(407) 649-6424",
    "address": " 2708 N Orange Blossom Trl  Orlando, FL 32804",
    "location": "Lafayette"
  },
  {
    "name": "Olympic Design & Foam",
    "description": "Foam & Sponge Rubber",
    "phone": "(407) 839-0062",
    "address": " 3005 Hansrob Rd  Orlando, FL 32804",
    "location": "Lafayette"
  },
  {
    "name": "Highway Technologies",
    "description": "Signs",
    "phone": "(407) 438-8511",
    "address": " 898 W Landstreet Rd  Orlando, FL 32824",
    "location": "Lafayette"
  },
  {
    "name": "Tactical Marketing Team",
    "description": "Internet Marketing & Advertising",
    "phone": "(407) 377-6879",
    "address": " 121 S Orange Ave Ste 1500  Orlando, FL 32801",
    "location": "Lafayette"
  },
  {
    "name": "Cognent",
    "description": "Internet Marketing & Advertising",
    "phone": "(407) 809-4417",
    "address": " 121 S Orange Ave Ste 1500  Orlando, FL 32801",
    "location": "Lafayette"
  },
  {
    "name": "Click Depot Orlando",
    "description": "Internet Marketing & Advertising",
    "phone": "(407) 287-6955",
    "address": " 121 S Orange Ave Ste 1500  Orlando, FL 32801",
    "location": "Lafayette"
  },
  {
    "name": "OrlandoSEO",
    "description": "Internet Marketing & Advertising",
    "phone": "(321) 804-9733",
    "address": " 121 S Orange Ave #1500  Orlando, FL 32801",
    "location": "Lafayette"
  },
  {
    "name": "Clickable Impact",
    "description": "Internet Marketing & Advertising",
    "phone": "(407) 553-9627",
    "address": " 20 N Orange Ave  Orlando, FL 32801",
    "location": "Lafayette"
  },
  {
    "name": "Fusion Digital Marketing",
    "description": "Internet Marketing & Advertising",
    "phone": "(888) 414-6462",
    "address": " 1 S Orange Ave Ste 502  Orlando, FL 32801",
    "location": "Lafayette"
  },
  {
    "name": "Rapid inc",
    "description": "Internet Marketing & Advertising",
    "phone": "(407) 745-1356",
    "address": " 933 Lee Rd St#290  Orlando, FL 32810",
    "location": "Lafayette"
  },
  {
    "name": "Postal Savings",
    "description": "Mail & Shipping Services",
    "phone": "(407) 240-2234",
    "address": " 6015 Anno Ave  Orlando, FL 32809",
    "location": "Lafayette"
  },
  {
    "name": "StrategyBeam",
    "description": "Internet Marketing & Advertising",
    "phone": "(407) 906-0212",
    "address": " 37 N. Orange Ave. Suite 559  Orlando, FL 32801",
    "location": "Lafayette"
  },
  {
    "name": "USA Essays",
    "description": "Internet Marketing & Advertising",
    "phone": "(800) 823-8571",
    "address": " 37 N Orange Ave Ste 500  Orlando, FL 32801",
    "location": "Lafayette"
  },
  {
    "name": "Thrive Internet Marketing",
    "description": "Internet Marketing & Advertising",
    "phone": "(407) 358-7206",
    "address": " 37 N Orange Ave Ste 500  Orlando, FL 32801",
    "location": "Lafayette"
  },
  {
    "name": "Market Blue Inc",
    "description": "Internet Marketing & Advertising",
    "phone": "(407) 926-4054",
    "address": " 37 N Orange Ave  Orlando, FL 32801",
    "location": "Lafayette"
  },
  {
    "name": "DigiThinkIT, Inc.",
    "description": "Internet Marketing & Advertising",
    "phone": "(407) 442-0876",
    "address": " 37 N Orange Ave Ste 616  Orlando, FL 32801",
    "location": "Lafayette"
  },
  {
    "name": "Multi Search Media Inc",
    "description": "Internet Marketing & Advertising",
    "phone": "(888) 866-2042",
    "address": " 37 N Orange Ave  Orlando, FL 32801",
    "location": "Lafayette"
  },
  {
    "name": "Inomars",
    "description": "Internet Marketing & Advertising",
    "phone": "(321) 947-1639",
    "address": " 37 N Orange Ave Ste 500  Orlando, FL 32801",
    "location": "Lafayette"
  },
  {
    "name": "Seo Salvo Digital Marketing",
    "description": "Internet Marketing & Advertising",
    "phone": "(321) 300-4736",
    "address": " 37 N Orange Ave Ste 505  Orlando, FL 32801",
    "location": "Lafayette"
  },
  {
    "name": "Auctus Creative",
    "description": "Internet Marketing & Advertising",
    "phone": "(407) 453-3475",
    "address": " 14 E Washington St  Orlando, FL 32801",
    "location": "Lafayette"
  },
  {
    "name": "Do It Well",
    "description": "Internet Marketing & Advertising",
    "phone": "(407) 205-9177",
    "address": " 111 N Orange Ave Ste 800  Orlando, FL 32801",
    "location": "Lafayette"
  },
  {
    "name": "Higher Advertising & Pr Inc",
    "description": "Advertising Specialties",
    "phone": "(407) 447-1340",
    "address": " 30 S Magnolia Ave Ste 250  Orlando, FL 32801",
    "location": "Lafayette"
  },
  {
    "name": "Integrated Digital Strategies",
    "description": "Internet Marketing & Advertising",
    "phone": "(866) 256-2635",
    "address": " 100 E Pine St  Orlando, FL 32801",
    "location": "Lafayette"
  },
  {
    "name": "Advertising In Florida",
    "description": "Internet Marketing & Advertising",
    "phone": "(407) 675-3515",
    "address": " 111 N Orange Ave, 8th Floor, Suite 800  Orlando, FL 32801",
    "location": "Lafayette"
  },
  {
    "name": "Highforge Solutions",
    "description": "Web Site Design & Services",
    "phone": "(407) 483-1185",
    "address": " 250 N Orange Ave Ste 1010  Orlando, FL 32801",
    "location": "Lafayette"
  },
  {
    "name": "Krotov Studio",
    "description": "Internet Marketing & Advertising",
    "phone": "(929) 394-8140",
    "address": " 202 E South St Unit 3042  Orlando, FL 32801",
    "location": "Lafayette"
  },
  {
    "name": "Central Florida Stamp & Sign",
    "description": "Rubber & Plastic Stamps",
    "phone": "(407) 423-2500",
    "address": " 139 E Pine St  Orlando, FL 32801",
    "location": "Lafayette"
  },
  {
    "name": "Southwest Digital",
    "description": "Interactive Media",
    "phone": "(386) 232-7059",
    "address": " Po Box 2286  Orlando, FL 32802",
    "location": "Lafayette"
  },
  {
    "name": "Lightly Digital",
    "description": "Internet Marketing & Advertising",
    "phone": "(407) 452-5320",
    "address": " 12211 Regency Village Dr Suite 12  Orlando, FL 32821",
    "location": "Lafayette"
  },
  {
    "name": "M & A Global Management LLC",
    "description": "Internet Marketing & Advertising",
    "phone": "(321) 800-8773",
    "address": " 111 E Washington St  orlando, FL 32801",
    "location": "Lafayette"
  },
  {
    "name": "E & W Affordable Signs",
    "description": "Signs",
    "phone": "(407) 438-4874",
    "address": " 6028 S Orange Ave  Orlando, FL 32809",
    "location": "Lafayette"
  },
  {
    "name": "Sun Beach Media",
    "description": "Internet Marketing & Advertising",
    "phone": "(407) 900-3154",
    "address": " Any Place  Orlando, FL 32821",
    "location": "Lafayette"
  },
  {
    "name": "Sign Talk Flori da",
    "description": "Signs",
    "phone": "(407) 745-5564",
    "address": " 320 N Magnolia Ave  Orlando, FL 32801",
    "location": "Lafayette"
  },
  {
    "name": "Premium Digital - Web Deisign Agency",
    "description": "Internet Marketing & Advertising",
    "phone": "(786) 673-0643",
    "address": " 1317 Edgewater Dr # 3432  Orlando, FL 32804",
    "location": "Lafayette"
  },
  {
    "name": "Ice Berg Peak Digital",
    "description": "Internet Marketing & Advertising",
    "phone": "(646) 583-1188",
    "address": " 1317 Edgewater Dr # 5477  Orlando, FL 32804",
    "location": "Lafayette"
  },
  {
    "name": "SMART Growth Solutions",
    "description": "Internet Marketing & Advertising",
    "phone": "(407) 707-8060",
    "address": " 1317 Edgewater Dr # 4095  Orlando, FL 32804",
    "location": "Lafayette"
  },
  {
    "name": "CXM Consult",
    "description": "Advertising Specialties",
    "phone": "(407) 731-2628",
    "address": " 6208 S Orange Ave  Orlando, FL 32809",
    "location": "Lafayette"
  },
  {
    "name": "US Tech Inc",
    "description": "Laminations, Plastic, Paper, Etc",
    "phone": "(407) 812-6618",
    "address": " 9603 Satellite Blvd Ste 106  Orlando, FL 32837",
    "location": "Lafayette"
  },
  {
    "name": "Wood Wonders",
    "description": "Signs",
    "phone": "(407) 477-7725",
    "address": " 8200 Vineland Ave  Orlando, FL 32821",
    "location": "Lafayette"
  },
  {
    "name": "Sign Producers",
    "description": "Signs",
    "phone": "(407) 855-8864",
    "address": " 555 W Landstreet Rd  Orlando, FL 32824",
    "location": "Lafayette"
  },
  {
    "name": "Sign World",
    "description": "Advertising Specialties",
    "phone": "(407) 423-5512",
    "address": " 600 N Orange Ave  Orlando, FL 32801",
    "location": "Lafayette"
  },
  {
    "name": "Orlandomagic.com",
    "description": "Internet Marketing & Advertising",
    "phone": "(407) 916-2635",
    "address": " 301 E Pine St  Orlando, FL 32801",
    "location": "Lafayette"
  },
  {
    "name": "Sign Factory",
    "description": "Advertising Specialties",
    "phone": "(407) 859-7499",
    "address": " 75 W Colonial Dr  Orlando, FL 32801",
    "location": "Lafayette"
  },
  {
    "name": "Myrentcomps.com",
    "description": "Internet Marketing & Advertising",
    "phone": "(407) 206-3791",
    "address": " 350 E Pine St  Orlando, FL 32801",
    "location": "Lafayette"
  },
  {
    "name": "empower network",
    "description": "Internet Marketing & Advertising",
    "phone": "(321) 402-6086",
    "address": " 6613 mission club blvd apt 311  orlando, FL 32821",
    "location": "Lafayette"
  },
  {
    "name": "EVVUS",
    "description": "Internet Marketing & Advertising",
    "phone": "(727) 364-6384",
    "address": " 750 N Orange Ave  Orlando, FL 32801",
    "location": "Lafayette"
  },
  {
    "name": "Sign Producers Inc",
    "description": "Signs",
    "phone": "(407) 855-9964",
    "address": " 436 W Landstreet Rd  Orlando, FL 32824",
    "location": "Lafayette"
  },
  {
    "name": "Joker Media, LLC",
    "description": "Video Production Services",
    "phone": "(407) 852-8801",
    "address": " 424 E Central Blvd # 151  Orlando, FL 32801",
    "location": "Lafayette"
  },
  {
    "name": "Loanbrokersites.com",
    "description": "Internet Marketing & Advertising",
    "phone": "(407) 794-0009",
    "address": " 424 E Central Blvd  Orlando, FL 32801",
    "location": "Lafayette"
  },
  {
    "name": "Sweet Audio",
    "description": "Recording Service-Sound & Video",
    "phone": "(407) 619-8649",
    "address": " 537 N Magnolia Ave  Orlando, FL 32801",
    "location": "Lafayette"
  },
  {
    "name": "Everylite",
    "description": "Signs",
    "phone": "(407) 250-6706",
    "address": " 8010 Sunport Dr Ste 101  Orlando, FL 32809",
    "location": "Lafayette"
  },
  {
    "name": "Dwtickets.com",
    "description": "Internet Marketing & Advertising",
    "phone": "(407) 353-6298",
    "address": " 8472 Palm Pkwy  Orlando, FL 32836",
    "location": "Lafayette"
  },
  {
    "name": "Cheetah Marketing Group",
    "description": "Advertising Specialties",
    "phone": "(407) 274-7255",
    "address": " 530 E Central Blvd Apt 902  Orlando, FL 32801",
    "location": "Lafayette"
  },
  {
    "name": "Integrated Webworks",
    "description": "Web Site Design & Services",
    "phone": "(407) 392-1670",
    "address": " 618 E South St Ste 500  Orlando, FL 32801",
    "location": "Lafayette"
  },
  {
    "name": "True Marketing",
    "description": "Internet Marketing & Advertising",
    "phone": "(407) 481-9165",
    "address": " 100 S Eola Dr Ste 200  Orlando, FL 32801",
    "location": "Lafayette"
  },
  {
    "name": "South Street & Co.",
    "description": "Internet Marketing & Advertising",
    "phone": "(407) 867-2667",
    "address": " 415 S Summerlin Ave  Orlando, FL 32801",
    "location": "Lafayette"
  },
  {
    "name": "Zeekinus",
    "description": "Internet Marketing & Advertising",
    "phone": "(407) 929-8006",
    "address": " 11218 Dormer Way  Orlando, FL 32837",
    "location": "Lafayette"
  },
  {
    "name": "Mattwisdom.com",
    "description": "Internet Marketing & Advertising",
    "phone": "(321) 266-4434",
    "address": " 410 Broadway Ave  Orlando, FL 32803",
    "location": "Lafayette"
  },
  {
    "name": "Planet Digital",
    "description": "Advertising Specialties",
    "phone": "(407) 896-7326",
    "address": " 701 E Washington St  Orlando, FL 32801",
    "location": "Lafayette"
  },
  {
    "name": "Design Communications Ltd",
    "description": "Signs",
    "phone": "(407) 856-1233",
    "address": " 10611 Satellite Blvd  Orlando, FL 32837",
    "location": "Lafayette"
  },
  {
    "name": "Sensys America Inc",
    "description": "Signs",
    "phone": "(407) 601-7622",
    "address": " 8000 S Orange Ave  Orlando, FL 32809",
    "location": "Lafayette"
  },
  {
    "name": "Dolphin Graphix & Auto",
    "description": "Signs",
    "phone": "(407) 352-6618",
    "address": " 1887 Central Florida Pkwy  Orlando, FL 32837",
    "location": "Lafayette"
  },
  {
    "name": "Blezoo",
    "description": "Marketing Programs & Services",
    "phone": "(407) 841-8844",
    "address": " 3107 Edgewater Dr Ste 2-a  Orlando, FL 32804",
    "location": "Lafayette"
  },
  {
    "name": "Organic Followers",
    "description": "Internet Marketing & Advertising",
    "phone": "(787) 466-2021",
    "address": " 1775 Central Florida Pkwy  Orlando, FL 32837",
    "location": "Lafayette"
  },
  {
    "name": "AC Signs",
    "description": "Signs-Maintenance & Repair",
    "phone": "(407) 857-5564",
    "address": " 11100 Astronaut Blvd  Orlando, FL 32837",
    "location": "Lafayette"
  },
  {
    "name": "Hendersigns",
    "description": "Signs",
    "phone": "(407) 850-2636",
    "address": " 8811 S Orange Ave  Orlando, FL 32824",
    "location": "Lafayette"
  },
  {
    "name": "Ultrabrite Led Signs",
    "description": "Signs",
    "phone": "(407) 349-7446",
    "address": " 1460 Gemini Blvd Ste 3  Orlando, FL 32837",
    "location": "Lafayette"
  },
  {
    "name": "Studio Signs",
    "description": "Signs",
    "phone": "(407) 447-0783",
    "address": " 1462 Gemini Blvd  Orlando, FL 32837",
    "location": "Lafayette"
  },
  {
    "name": "Databanq",
    "description": "Internet Directories",
    "phone": "(407) 896-0485",
    "address": " 1505 E Robinson St  Orlando, FL 32801",
    "location": "Lafayette"
  },
  {
    "name": "Purple Moon Media",
    "description": "Publicity Service",
    "phone": "(407) 367-5641",
    "address": " 1505 E Robinson St  Orlando, FL 32801",
    "location": "Lafayette"
  },
  {
    "name": "Graft Inc",
    "description": "Video Production Services",
    "phone": "(407) 895-1139",
    "address": " 812 N Thornton Ave  Orlando, FL 32803",
    "location": "Lafayette"
  },
  {
    "name": "LOOKLIVELUXE Group",
    "description": "Consultants Referral Service",
    "phone": "(407) 205-8545",
    "address": " 51 E Orlando St Fl 32802  Orlando, FL 32804",
    "location": "Lafayette"
  },
  {
    "name": "Mail & More",
    "description": "Mail & Shipping Services",
    "phone": "(407) 299-7328",
    "address": " 5764 N Orange Blossom Trl  Orlando, FL 32810",
    "location": "Lafayette"
  },
  {
    "name": "Custom Designs",
    "description": "Advertising Specialties",
    "phone": "(407) 898-0373",
    "address": " 840 N Mills Ave  Orlando, FL 32803",
    "location": "Lafayette"
  },
  {
    "name": "Signal Outdoor Advertisin",
    "description": "Outdoor Advertising",
    "phone": "(407) 856-7079",
    "address": " 3740 All American Blvd  Orlando, FL 32810",
    "location": "Lafayette"
  },
  {
    "name": "Designs Sings Multimedi",
    "description": "Signs",
    "phone": "(407) 610-0386",
    "address": " 2013 Wellfleet Ct  Orlando, FL 32837",
    "location": "Lafayette"
  },
  {
    "name": "Signpro",
    "description": "Signs",
    "phone": "(407) 656-3441",
    "address": " 408 Little Spring Hill Dr  Ocoee, FL 34761",
    "location": "Lafayette"
  },
  {
    "name": "Florida Balloons & Promotions",
    "description": "Signs",
    "phone": "(407) 222-8877",
    "address": " 14143 Ancilla Blvd  Windermere, FL 34786",
    "location": "Lafayette"
  },
  {
    "name": "Central Florida Signpros",
    "description": "Embroidery",
    "phone": "(407) 656-7699",
    "address": " 13028 W Colonial Dr  Winter Garden, FL 34787",
    "location": "Lafayette"
  },
  {
    "name": "eMarketing Guru",
    "description": "Internet Consultants",
    "phone": "(305) 338-7736",
    "address": " 7966 Brofield Ave  Windermere, FL 34786",
    "location": "Lafayette"
  },
  {
    "name": "Cypress Signs Inc",
    "description": "Signs",
    "phone": "(407) 654-4316",
    "address": " 13340 W Colonial Dr  Winter Garden, FL 34787",
    "location": "Lafayette"
  },
  {
    "name": "Express Signs",
    "description": "Signs",
    "phone": "(407) 347-9270",
    "address": " 637 Palm Dr  Ocoee, FL 34761",
    "location": "Lafayette"
  },
  {
    "name": "West Orange Times",
    "description": "Advertising Specialties",
    "phone": "(407) 656-2121",
    "address": " 720 S Dillard St  Winter Garden, FL 34787",
    "location": "Lafayette"
  },
  {
    "name": "Central Graphics Inc.",
    "description": "Signs",
    "phone": "(407) 877-4781",
    "address": " 1055 Vineland Rd  Winter Garden, FL 34787",
    "location": "Lafayette"
  },
  {
    "name": "Sign Wave",
    "description": "Signs",
    "phone": "(407) 614-5913",
    "address": " 537 S Dillard St  Winter Garden, FL 34787",
    "location": "Lafayette"
  },
  {
    "name": "Central Graphics",
    "description": "Signs",
    "phone": "(407) 877-4781",
    "address": " 417 S Dillard St  Winter Garden, FL 34787",
    "location": "Lafayette"
  },
  {
    "name": "Daily Graphics and Design",
    "description": "Graphic Designers",
    "phone": "(407) 877-7222",
    "address": " Po Box 770430  Winter Garden, FL 34777",
    "location": "Lafayette"
  },
  {
    "name": "BC Media Sales",
    "description": "Business Plans Development",
    "phone": "(708) 250-3471",
    "address": " 6452 Cropping St  Winter Garden, FL 34787",
    "location": "Lafayette"
  },
  {
    "name": "Zentila",
    "description": "Internet Marketing & Advertising",
    "phone": "(407) 656-5683",
    "address": " 100 W Plant St  Winter Garden, FL 34787",
    "location": "Lafayette"
  },
  {
    "name": "Nicholas Prowse",
    "description": "Advertising Specialties",
    "phone": "(973) 886-7138",
    "address": " 2476 Sweet Viburnum Way  Ocoee, FL 34761",
    "location": "Lafayette"
  },
  {
    "name": "How 2 Media",
    "description": "Internet Marketing & Advertising",
    "phone": "(561) 364-2653",
    "address": " 15210 Starleigh Rd  Winter Garden, FL 34787",
    "location": "Lafayette"
  },
  {
    "name": "Fourcolor.net",
    "description": "Printing Services-Commercial",
    "phone": "(407) 877-7222",
    "address": " 1308 Vic Kay Ct  Winter Garden, FL 34787",
    "location": "Lafayette"
  },
  {
    "name": "Sign Dreamers of Central Florida",
    "description": "Signs",
    "phone": "(407) 676-4351",
    "address": " 1643 Wind Willow Rd  Belle Isle, FL 32809",
    "location": "Lafayette"
  },
  {
    "name": "Personal Touch Mailing Service",
    "description": "Direct Marketing Services",
    "phone": "(407) 857-9090",
    "address": " 129 Drennen Rd  Orlando, FL 32806",
    "location": "Lafayette"
  },
  {
    "name": "Fineline Printing - Winter Park",
    "description": "Printing Services",
    "phone": "(407) 622-6622",
    "address": " 544 W Fairbanks Ave # C-1  Winter Park, FL 32789",
    "location": "Lafayette"
  },
  {
    "name": "Flag World Incorporated",
    "description": "Banners, Flags & Pennants",
    "phone": "(407) 895-9245",
    "address": " 805 Virginia Dr  Orlando, FL 32803",
    "location": "Lafayette"
  },
  {
    "name": "groovydude creations LLC",
    "description": "Buttons-Advertising",
    "phone": "(407) 312-7877",
    "address": " PO Box 560715  Orlando, FL 32856",
    "location": "Lafayette"
  },
  {
    "name": "Madcat Marketing and Consultants",
    "description": "Embroidery",
    "phone": "(407) 695-4600",
    "address": " 1800 Pembrook Dr  Orlando, FL 32810",
    "location": "Lafayette"
  },
  {
    "name": "Spero Design, Inc.",
    "description": "Graphic Designers",
    "phone": "(407) 509-9210",
    "address": " 895 Central Florida Pkwy  Orlando, FL 32824",
    "location": "Lafayette"
  },
  {
    "name": "MC Laser Pro",
    "description": "Signs",
    "phone": "(407) 859-0201",
    "address": " 11753 S Orange Blossom Trl  Orlando, FL 32837",
    "location": "Lafayette"
  },
  {
    "name": "Authenticweb",
    "description": "Web Site Design & Services",
    "phone": "(407) 284-0510",
    "address": " 1626 Hillcrest St  Orlando, FL 32803",
    "location": "Lafayette"
  },
  {
    "name": "Visual Impact",
    "description": "Signs",
    "phone": "(407) 682-7446",
    "address": " 1311 W Fairbanks Ave  Orlando, FL 32804",
    "location": "Lafayette"
  },
  {
    "name": "Signs By Tomorrow",
    "description": "Signs",
    "phone": "(407) 678-7446",
    "address": " 1311 W Fairbanks Ave  Orlando, FL 32804",
    "location": "Lafayette"
  },
  {
    "name": "Avanti International Enterprises Inc",
    "description": "Advertising Specialties",
    "phone": "(407) 590-9251",
    "address": " 11743 Cuxham Dr  Orlando, FL 32837",
    "location": "Lafayette"
  },
  {
    "name": "Guido Graphics",
    "description": "Printers-Business Cards",
    "phone": "(321) 438-1174",
    "address": " 2510 N Orange Ave  Orlando, FL 32804",
    "location": "Lafayette"
  },
  {
    "name": "Sunbelt Signs",
    "description": "Signs",
    "phone": "(407) 532-5455",
    "address": " 3497 All American Blvd  Orlando, FL 32810",
    "location": "Lafayette"
  },
  {
    "name": "RTP Medical Solution",
    "description": "Internet Marketing & Advertising",
    "phone": "(407) 901-7588",
    "address": " 7037 Rose Ave  Orlando, FL 32810",
    "location": "Lafayette"
  },
  {
    "name": "Livingyoungbrasil.com",
    "description": "Internet Marketing & Advertising",
    "phone": "(407) 256-8856",
    "address": " 3004 Chris Ln  Orlando, FL 32806",
    "location": "Lafayette"
  },
  {
    "name": "Shealy Domain Development",
    "description": "Internet Marketing & Advertising",
    "phone": "(321) 439-9725",
    "address": " 201 S Bumby Ave  Orlando, FL 32803",
    "location": "Lafayette"
  },
  {
    "name": "CSCF Group",
    "description": "Business Plans Development",
    "phone": "(407) 234-4191",
    "address": " PO Box 568443  Orlando, FL 32856",
    "location": "Lafayette"
  },
  {
    "name": "AnalyticsBox",
    "description": "Internet Marketing & Advertising",
    "phone": "(514) 918-9472",
    "address": " PO box 547324  Orlando, FL 32854",
    "location": "Lafayette"
  },
  {
    "name": "Capital Signs",
    "description": "Advertising Specialties",
    "phone": "(407) 293-2145",
    "address": " 6110 Edgewater Dr  Orlando, FL 32810",
    "location": "Lafayette"
  },
  {
    "name": "The Sign Guys Orlando",
    "description": "Signs",
    "phone": "(407) 776-8256",
    "address": " 6192 Edgewater Dr  Orlando, FL 32810",
    "location": "Lafayette"
  },
  {
    "name": "Creative Sign Inc",
    "description": "Signs",
    "phone": "(407) 293-9393",
    "address": " 5817 Beggs Rd  Orlando, FL 32810",
    "location": "Lafayette"
  },
  {
    "name": "Aerial Messages Inc",
    "description": "Advertising-Aerial",
    "phone": "(855) 474-4865",
    "address": " 2816 E Robinson St  Orlando, FL 32803",
    "location": "Lafayette"
  },
  {
    "name": "Vital Signs of Orlando Inc",
    "description": "Signs",
    "phone": "(407) 297-0680",
    "address": " 7806 N Orange Blossom Trl  Orlando, FL 32810",
    "location": "Lafayette"
  },
  {
    "name": "Ascom Hasler",
    "description": "Direct Mail Advertising",
    "phone": "(407) 628-8181",
    "address": " 5125 Adanson St  Orlando, FL 32804",
    "location": "Lafayette"
  },
  {
    "name": "Eder Flag",
    "description": "Banners, Flags & Pennants",
    "phone": "(407) 850-5656",
    "address": " 349 Zell Dr  Orlando, FL 32824",
    "location": "Lafayette"
  },
  {
    "name": "Agenct C Media Inc.",
    "description": "Internet Marketing & Advertising",
    "phone": "(407) 758-0948",
    "address": " 4012 Conway Place Cir  Orlando, FL 32812",
    "location": "Lafayette"
  },
  {
    "name": "Capital Sign An D Design",
    "description": "Signs",
    "phone": "(407) 293-2145",
    "address": " 2682 Dr Love Rd  Orlando, FL 32810",
    "location": "Lafayette"
  },
  {
    "name": "O'Donnell Corporation",
    "description": "Signs",
    "phone": "(407) 422-0731",
    "address": " 661 N Lakewood Dr  Orlando, FL 32803",
    "location": "Lafayette"
  },
  {
    "name": "Alfa Romeo Distributors",
    "description": "Advertising Specialties",
    "phone": "(407) 856-5000",
    "address": " 1500 Tradeport Dr Ste B  Orlando, FL 32824",
    "location": "Lafayette"
  },
  {
    "name": "Really Good Content inc.",
    "description": "Internet Marketing & Advertising",
    "phone": "(949) 844-5044",
    "address": " 3701 Seminole Dr  Orlando, FL 32812",
    "location": "Lafayette"
  },
  {
    "name": "Arvo Growth Partners",
    "description": "Internet Marketing & Advertising",
    "phone": "(833) 462-2786",
    "address": " 3218 E Colonial Dr Ste G  Orlando, FL 32803",
    "location": "Lafayette"
  },
  {
    "name": "KJM Group LLC",
    "description": "Coupon Advertising",
    "phone": "(570) 309-0157",
    "address": " 1924 Conway Rd Apt 2  Orlando, FL 32812",
    "location": "Lafayette"
  },
  {
    "name": "Wealth Funnel System",
    "description": "Internet Marketing & Advertising",
    "phone": "(407) 557-6912",
    "address": " 1451 Falcon Dr  Orlando, FL 32803",
    "location": "Lafayette"
  },
  {
    "name": "Wargo Works",
    "description": "Marketing Programs & Services",
    "phone": "(407) 917-0841",
    "address": " 3012 Plaza Terrace Dr  Orlando, FL 32803",
    "location": "Lafayette"
  },
  {
    "name": "VEMMA AFFILIATE PARTNER",
    "description": "Health & Wellness Products",
    "phone": "(321) 285-7495",
    "address": " 3871 Seminole Dr  Orlando, FL 32812",
    "location": "Lafayette"
  },
  {
    "name": "PracticeDock Online Marketing Solutions",
    "description": "Internet Consultants",
    "phone": "(866) 917-1241",
    "address": " 1080 Woodcock Rd Ste 108  Orlando, FL 32803",
    "location": "Lafayette"
  },
  {
    "name": "Omar_Gutierrez",
    "description": "Advertising Specialties",
    "phone": "(407) 965-7253",
    "address": " 3479 Prairie Fox Ln  Orlando, FL 32812",
    "location": "Lafayette"
  },
  {
    "name": "Figment Signs & Vehicle Graphics",
    "description": "Advertising Specialties",
    "phone": "(321) 299-3831",
    "address": " 3956 W Town Center Blvd  Orlando, FL 32837",
    "location": "Lafayette"
  },
  {
    "name": "Signman Sez Inc",
    "description": "Signs",
    "phone": "(407) 898-5757",
    "address": " 3122 Corrine Dr  Orlando, FL 32803",
    "location": "Lafayette"
  },
  {
    "name": "Sir Speedy Signs, Print, Marketing",
    "description": "Printing Services-Commercial",
    "phone": "(407) 423-2051",
    "address": " 621 Commonwealth Ave  Orlando, FL 32803",
    "location": "Lafayette"
  },
  {
    "name": "Manic Images",
    "description": "Signs",
    "phone": "(407) 282-6561",
    "address": " 3851 Gatlin Ridge Dr  Orlando, FL 32812",
    "location": "Lafayette"
  },
  {
    "name": "Absolute Exhibits, Inc.",
    "description": "Trade Shows, Expositions & Fairs",
    "phone": "(407) 563-2595",
    "address": " 7297 S Conway Rd #900  Orlando, FL 32812",
    "location": "Lafayette"
  },
  {
    "name": "Riza Marketing",
    "description": "Internet Marketing & Advertising",
    "phone": "(407) 420-0366",
    "address": " 8007 Plunkett Ave  Orlando, FL 32810",
    "location": "Lafayette"
  },
  {
    "name": "Eclipse Studio",
    "description": "Signs",
    "phone": "(407) 353-0163",
    "address": " 5130 Curry Ford Rd  Orlando, FL 32812",
    "location": "Lafayette"
  },
  {
    "name": "Afforfdable Signs Of Central Florida",
    "description": "Signs",
    "phone": "(407) 299-1288",
    "address": " 8601 Forest City Rd  Orlando, FL 32810",
    "location": "Lafayette"
  },
  {
    "name": "Halfcosthomes",
    "description": "Internet Marketing & Advertising",
    "phone": "(407) 349-7188",
    "address": " 4620 E Colonial Dr  Orlando, FL 32803",
    "location": "Lafayette"
  },
  {
    "name": "Leda Group Inc",
    "description": "Advertising Specialties",
    "phone": "(407) 466-4114",
    "address": " 3674 Ocita Dr  Orlando, FL 32837",
    "location": "Lafayette"
  },
  {
    "name": "Adelphia Business Solutions",
    "description": "Signs",
    "phone": "(407) 659-9116",
    "address": " 1800 Pembrook Dr  Orlando, FL 32810",
    "location": "Lafayette"
  },
  {
    "name": "New Level Digital",
    "description": "Internet Marketing & Advertising",
    "phone": "(407) 719-7352",
    "address": " 4342 Hargrave St  Orlando, FL 32803",
    "location": "Lafayette"
  },
  {
    "name": "Elite Signs & Graphics",
    "description": "Signs",
    "phone": "(407) 898-0111",
    "address": " 240 N Orlando Ave  Winter Park, FL 32789",
    "location": "Lafayette"
  },
  {
    "name": "Yellow Pages of Central Florida",
    "description": "Publishers-Directory & Guide",
    "phone": "(407) 667-4745",
    "address": " 101 Southhall Ln  Maitland, FL 32751",
    "location": "Lafayette"
  },
  {
    "name": "GlobalOne SEO",
    "description": "Internet Marketing & Advertising",
    "phone": "(732) 406-1806",
    "address": " 656 Cimarosa Ct  Ocoee, FL 34761",
    "location": "Lafayette"
  },
  {
    "name": "Graphix Wizard Inc",
    "description": "Lithographers",
    "phone": "(407) 656-9742",
    "address": " 308 Valencia Ct  Winter Garden, FL 34787",
    "location": "Lafayette"
  },
  {
    "name": "Apopka Ink",
    "description": "Advertising Specialties",
    "phone": "(407) 299-0246",
    "address": " 2864 Clark St  Apopka, FL 32703",
    "location": "Lafayette"
  },
  {
    "name": "Demosthene Enterprises",
    "description": "Internet Marketing & Advertising",
    "phone": "(305) 349-3452",
    "address": " 2240 Section Dr  Apopka, FL 32703",
    "location": "Lafayette"
  },
  {
    "name": "Awp",
    "description": "Signs",
    "phone": "(407) 880-4070",
    "address": " 3125 Clarcona Rd  Apopka, FL 32703",
    "location": "Lafayette"
  },
  {
    "name": "Hth Signs",
    "description": "Signs",
    "phone": "(407) 629-0012",
    "address": " 711 Jackson Ave  Winter Park, FL 32789",
    "location": "Lafayette"
  },
  {
    "name": "Aeos Web Design",
    "description": "Web Site Design & Services",
    "phone": "(407) 395-2432",
    "address": " 301 South Tubbs Street Suite D1  Oakland, FL 34760",
    "location": "Lafayette"
  },
  {
    "name": "On Street Media",
    "description": "Advertising Specialties",
    "phone": "(407) 571-2144",
    "address": " 707 Nicolet Ave  Winter Park, FL 32789",
    "location": "Lafayette"
  },
  {
    "name": "CBS Outdoor",
    "description": "Signs",
    "phone": "(407) 975-0216",
    "address": " 2699 Lee Rd  Winter Park, FL 32789",
    "location": "Lafayette"
  },
  {
    "name": "New Creations Screen Printing and Embroidery",
    "description": "Embroidery",
    "phone": "(407) 832-2061",
    "address": " Po Box 741  Oakland, FL 34760",
    "location": "Lafayette"
  },
  {
    "name": "Homebasedbusinessdoc.com",
    "description": "Internet Marketing & Advertising",
    "phone": "(407) 961-2806",
    "address": " 2500 Lee Rd  Winter Park, FL 32789",
    "location": "Lafayette"
  },
  {
    "name": "Chloe Lane",
    "description": "Embroidery",
    "phone": "(407) 644-3007",
    "address": " 839 S Orlando Ave  Winter Park, FL 32789",
    "location": "Lafayette"
  },
  {
    "name": "USSignworks",
    "description": "Graphic Designers",
    "phone": "(407) 378-2054",
    "address": " 807 S Orlando Ave Ste T  Winter Park, FL 32789",
    "location": "Lafayette"
  },
  {
    "name": "My Online Neighborhood",
    "description": "Advertising Specialties",
    "phone": "(800) 470-8730",
    "address": " 805 S Orlando Ave Ste J  Winter Park, FL 32789",
    "location": "Lafayette"
  },
  {
    "name": "Continental Outdoor Advertising",
    "description": "Outdoor Advertising",
    "phone": "(407) 628-9988",
    "address": " 2250 Lee Rd  Winter Park, FL 32789",
    "location": "Lafayette"
  },
  {
    "name": "Mobile Atom Media",
    "description": "Communication Consultants",
    "phone": "(407) 801-9640",
    "address": " 943 Bungalow Ave  Winter Park, FL 32789",
    "location": "Lafayette"
  },
  {
    "name": "Vital Signs Of Orlando Inc",
    "description": "Signs",
    "phone": "(407) 297-0680",
    "address": " 2674 Pemberton Dr  Apopka, FL 32703",
    "location": "Lafayette"
  },
  {
    "name": "Guy Wingo Signs",
    "description": "Signs",
    "phone": "(407) 293-2145",
    "address": " 2682 Pemberton Dr  Apopka, FL 32703",
    "location": "Lafayette"
  },
  {
    "name": "Ace Signs Of Orlando",
    "description": "Signs",
    "phone": "(407) 645-1277",
    "address": " 922 Orange Ave  Winter Park, FL 32789",
    "location": "Lafayette"
  },
  {
    "name": "Ace Custom Signs of Winter Park Inc",
    "description": "Signs",
    "phone": "(407) 645-0977",
    "address": " 922 Orange Ave  Winter Park, FL 32789",
    "location": "Lafayette"
  },
  {
    "name": "Thepersonalinjurychampion.com",
    "description": "Internet Marketing & Advertising",
    "phone": "(407) 647-4010",
    "address": " 1801 Lee Rd  Winter Park, FL 32789",
    "location": "Lafayette"
  },
  {
    "name": "Simplify Marketing Group",
    "description": "Internet Marketing & Advertising",
    "phone": "(407) 340-8296",
    "address": " 150 E Reading Way  Winter Park, FL 32789",
    "location": "Lafayette"
  },
  {
    "name": "Dickinson Promotions",
    "description": "Advertising-Promotional Products",
    "phone": "(407) 951-7183",
    "address": " 1701 Lee Rd Apt J340  Winter Park, FL 32789",
    "location": "Lafayette"
  },
  {
    "name": "Bonnier Corporation",
    "description": "Publishers",
    "phone": "(407) 628-4802",
    "address": " 480 N Orlando Ave 236  Winter Park, FL 32789",
    "location": "Lafayette"
  },
  {
    "name": "Evolve Design Group",
    "description": "Marketing Programs & Services",
    "phone": "(407) 420-1234",
    "address": " 444 W New England Ave Ste 114  Winter Park, FL 32789",
    "location": "Lafayette"
  },
  {
    "name": "Brwncald.com",
    "description": "Internet Marketing & Advertising",
    "phone": "(407) 661-9500",
    "address": " 2301 Lucien Way  Maitland, FL 32751",
    "location": "Lafayette"
  },
  {
    "name": "Response Marketing Llp",
    "description": "Internet Marketing & Advertising",
    "phone": "(407) 740-4190",
    "address": " 222 W Comstock Ave St 121  Winter Park, FL 32789",
    "location": "Lafayette"
  },
  {
    "name": "Jobing.Com",
    "description": "Internet Marketing & Advertising",
    "phone": "(407) 367-4039",
    "address": " 2290 Lucien Way  Maitland, FL 32751",
    "location": "Lafayette"
  },
  {
    "name": "R & D",
    "description": "Advertising Specialties",
    "phone": "(407) 702-6655",
    "address": " 174 W Comstock Ave  Winter Park, FL 32789",
    "location": "Lafayette"
  },
  {
    "name": "Dark Lake Software, Inc.",
    "description": "Computer Software Publishers & Developers",
    "phone": "(407) 602-8046",
    "address": " 2069 Edmands Pl  Apopka, FL 32703",
    "location": "Lafayette"
  },
  {
    "name": "Sydgan",
    "description": "Advertising Specialties",
    "phone": "(407) 644-3151",
    "address": " 120 Gem Lake Dr  Maitland, FL 32751",
    "location": "Lafayette"
  },
  {
    "name": "J W Berry Signs Inc",
    "description": "Signs",
    "phone": "(407) 628-1647",
    "address": " 151 S New York Ave  Winter Park, FL 32789",
    "location": "Lafayette"
  },
  {
    "name": "Safety ER",
    "description": "Safety Equipment & Clothing",
    "phone": "(407) 339-8600",
    "address": " 1320 E Altamonte Dr  Altamonte Springs, FL 32701",
    "location": "Lafayette"
  },
  {
    "name": "Crown Trophy",
    "description": "Awards",
    "phone": "(407) 786-0430",
    "address": " 851 W State Road 436  Altamonte Springs, FL 32714",
    "location": "Lafayette"
  },
  {
    "name": "Social Network Development",
    "description": "Internet Marketing & Advertising",
    "phone": "(855) 777-4426",
    "address": " 1834 islebrook dr  orlando, FL 32824",
    "location": "Lafayette"
  },
  {
    "name": "Perry Becker De Sign",
    "description": "Advertising Specialties",
    "phone": "(407) 960-4850",
    "address": " 4096 Wardell Pl  Orlando, FL 32814",
    "location": "Lafayette"
  },
  {
    "name": "Texting Base, Inc.",
    "description": "Internet Marketing & Advertising",
    "phone": "(813) 464-0945",
    "address": " 4767 New Broad St  Orlando, FL 32814",
    "location": "Lafayette"
  },
  {
    "name": "Mobile Ad Co., Inc.",
    "description": "Internet Marketing & Advertising",
    "phone": "(407) 641-4999",
    "address": " 4767 New Broad St  Orlando, FL 32814",
    "location": "Lafayette"
  },
  {
    "name": "Creative Why",
    "description": "Marketing Programs & Services",
    "phone": "(407) 601-3358",
    "address": " 4767 New Broad St  Orlando, FL 32814",
    "location": "Lafayette"
  },
  {
    "name": "Osceola.Com",
    "description": "Internet Marketing & Advertising",
    "phone": "(407) 816-1336",
    "address": " 645 Iowa Woods Cir E  Orlando, FL 32824",
    "location": "Lafayette"
  },
  {
    "name": "Emedsolpvtltdiglobalcare.Com",
    "description": "Internet Marketing & Advertising",
    "phone": "(321) 206-8820",
    "address": " 1360 Lake Baldwin Ln  Orlando, FL 32814",
    "location": "Lafayette"
  },
  {
    "name": "Signius Communications",
    "description": "Signs",
    "phone": "(407) 306-0321",
    "address": " 5575 S Semoran Blvd Ste 503  Orlando, FL 32822",
    "location": "Lafayette"
  },
  {
    "name": "Creative Imaging Limited",
    "description": "Lithographers",
    "phone": "(813) 546-3558",
    "address": " 1618 Hookbill Ct  Orlando, FL 32837",
    "location": "Lafayette"
  },
  {
    "name": "Advantage Advertising and Marketing",
    "description": "Copy Writers",
    "phone": "(407) 730-4172",
    "address": " 5132 Dockside Dr  Orlando, FL 32822",
    "location": "Lafayette"
  },
  {
    "name": "All the way up Advertising & Promotions",
    "description": "Outdoor Advertising",
    "phone": "(585) 448-6804",
    "address": " 5969 Lee Vista Blvd  Orlando, FL 32822",
    "location": "Lafayette"
  },
  {
    "name": "SIGNS PRINTING 360 PROPAGANDA",
    "description": "Balloons-Advertising & Signage",
    "phone": "(407) 591-6277",
    "address": " 569 N Semoran Blvd  Orlando, FL 32807",
    "location": "Lafayette"
  },
  {
    "name": "Just Yard Signs",
    "description": "Signs",
    "phone": "(407) 401-9835",
    "address": " 4880 Distribution Ct  Orlando, FL 32822",
    "location": "Lafayette"
  },
  {
    "name": "Graphic Color Design Inc",
    "description": "Computer Graphics",
    "phone": "(407) 420-7989",
    "address": " 4701 Distribution Ct Ste 6  Orlando, FL 32822",
    "location": "Lafayette"
  },
  {
    "name": "Minuteman Press",
    "description": "Printing Services",
    "phone": "(407) 286-1039",
    "address": " 4709 Distribution Ct Ste #2  Orlando, FL 32822",
    "location": "Lafayette"
  },
  {
    "name": "123sign.Net",
    "description": "Internet Marketing & Advertising",
    "phone": "(407) 810-6344",
    "address": " 4701 Distribution Ct Ste 6  Orlando, FL 32822",
    "location": "Lafayette"
  },
  {
    "name": "Just-In Wood Signs, LLC",
    "description": "Bars",
    "phone": "(407) 440-4987",
    "address": " 4751 Distribution Ct  Orlando, FL 32822",
    "location": "Lafayette"
  },
  {
    "name": "Orlando Laser Engraving",
    "description": "Trophy Engravers",
    "phone": "(407) 705-3058",
    "address": " 4855 Distribution Ct Ste 1  Orlando, FL 32822",
    "location": "Lafayette"
  },
  {
    "name": "Fresh Ink",
    "description": "Advertising Specialties",
    "phone": "(407) 412-5905",
    "address": " 4729 Patch Rd  Orlando, FL 32822",
    "location": "Lafayette"
  },
  {
    "name": "Via Optronics",
    "description": "Signs",
    "phone": "(407) 745-5031",
    "address": " 6220 Hazeltine National Dr Ste 120  Orlando, FL 32822",
    "location": "Lafayette"
  },
  {
    "name": "Holbrook Consulting Group",
    "description": "Internet Marketing & Advertising",
    "phone": "(800) 448-1241",
    "address": " 2797 Stanfield Ave  Orlando, FL 32814",
    "location": "Lafayette"
  },
  {
    "name": "Sign A Rama",
    "description": "Signs",
    "phone": "(407) 678-7704",
    "address": " 2050 N Semoran Blvd  Orlando, FL 32807",
    "location": "Lafayette"
  },
  {
    "name": "Picture Perfect 360",
    "description": "Internet Marketing & Advertising",
    "phone": "(407) 256-2980",
    "address": " 5672 Century 21 Blvd Apt 38  Orlando, FL 32807",
    "location": "Lafayette"
  },
  {
    "name": "Web3 Corporation",
    "description": "Internet Marketing & Advertising",
    "phone": "(407) 308-5726",
    "address": " 6901 Tpc Dr  Orlando, FL 32822",
    "location": "Lafayette"
  },
  {
    "name": "Rampartorlando.com",
    "description": "Internet Marketing & Advertising",
    "phone": "(407) 282-9552",
    "address": " 6457 Hazeltine National Dr  Orlando, FL 32822",
    "location": "Lafayette"
  },
  {
    "name": "Hi Tech Neon Designs",
    "description": "Signs",
    "phone": "(321) 235-2853",
    "address": " 6367 E Colonial Dr Ste B  Orlando, FL 32807",
    "location": "Lafayette"
  },
  {
    "name": "Wholesale Print Shop",
    "description": "Digital Printing & Imaging",
    "phone": "(407) 730-3496",
    "address": " 6124 Hanging Moss Rd  Orlando, FL 32807",
    "location": "Lafayette"
  },
  {
    "name": "Just Yard Signs Inc.",
    "description": "Signs",
    "phone": "(407) 978-7008",
    "address": " 2235 Mercator Dr  Orlando, FL 32807",
    "location": "Lafayette"
  },
  {
    "name": "Vina Signs",
    "description": "Signs",
    "phone": "(407) 227-2636",
    "address": " 210 N Goldenrod Rd  Orlando, FL 32807",
    "location": "Lafayette"
  },
  {
    "name": "Fresh Ink Signs and Graphics",
    "description": "Print Advertising",
    "phone": "(407) 412-5905",
    "address": " 207 N Goldenrod Rd Ste 100  Orlando, FL 32807",
    "location": "Lafayette"
  },
  {
    "name": "Boom Graphics",
    "description": "Signs",
    "phone": "(407) 306-9500",
    "address": " 207 N Goldenrod Rd Ste 800  Orlando, FL 32807",
    "location": "Lafayette"
  },
  {
    "name": "J D Wilson Signs",
    "description": "Signs",
    "phone": "(407) 678-2592",
    "address": " 6948 Venture Cir  Orlando, FL 32807",
    "location": "Lafayette"
  },
  {
    "name": "Interstate Sign & Lights",
    "description": "Signs",
    "phone": "(407) 681-3989",
    "address": " 6958 Venture Cir  Orlando, FL 32807",
    "location": "Lafayette"
  },
  {
    "name": "OptiView 360 Online Marketing & Entertainment",
    "description": "Internet Marketing & Advertising",
    "phone": "(407) 731-0767",
    "address": " 7309 E Colonial Dr Suite 601  Orlando, FL 32807",
    "location": "Lafayette"
  },
  {
    "name": "Bps Signs & Graphics",
    "description": "Signs",
    "phone": "(407) 960-5691",
    "address": " 2200 N Forsyth Rd  Orlando, FL 32807",
    "location": "Lafayette"
  },
  {
    "name": "Mdmindful.com",
    "description": "Internet Marketing & Advertising",
    "phone": "(407) 760-0333",
    "address": " 7824 Lake Underhill Rd  Orlando, FL 32822",
    "location": "Lafayette"
  },
  {
    "name": "Tesoros De Bendicion",
    "description": "Advertising Specialties",
    "phone": "(321) 229-9703",
    "address": " 7314 E Colonial Dr  Orlando, FL 32807",
    "location": "Lafayette"
  },
  {
    "name": "Lightning Signs",
    "description": "Signs",
    "phone": "(407) 679-7339",
    "address": " 2447 N Forsyth Rd  Orlando, FL 32807",
    "location": "Lafayette"
  },
  {
    "name": "Visual Image Design Firm LLC",
    "description": "Signs-Maintenance & Repair",
    "phone": "(321) 248-4131",
    "address": " 6845 Narcoossee Rd  Orlando, FL 32822",
    "location": "Lafayette"
  },
  {
    "name": "Central Florida Mobile Advertisement",
    "description": "Advertising Specialties",
    "phone": "(407) 883-3169",
    "address": " 344 Canoe Trail Ln  Orlando, FL 32825",
    "location": "Lafayette"
  },
  {
    "name": "CT Social",
    "description": "Internet Marketing & Advertising",
    "phone": "(407) 476-0677",
    "address": " 509 S Chickasaw Trl # 233  Orlando, FL 32825",
    "location": "Lafayette"
  },
  {
    "name": "En La Brea llc",
    "description": "Internet Marketing & Advertising",
    "phone": "(407) 797-2407",
    "address": " 509 S Chickasaw Trail #104  Orlando, FL 32825",
    "location": "Lafayette"
  },
  {
    "name": "J & J Webworks",
    "description": "Internet Marketing & Advertising",
    "phone": "(407) 739-9333",
    "address": " 1014 Jib Dr Apt 108  Orlando, FL 32825",
    "location": "Lafayette"
  },
  {
    "name": "Brand 201",
    "description": "Advertising Specialties",
    "phone": "(678) 612-5683",
    "address": " 9556 Elm Forest Ln  Orlando, FL 32829",
    "location": "Lafayette"
  },
  {
    "name": "XO Digital Marketing",
    "description": "Internet Marketing & Advertising",
    "phone": "(407) 499-4319",
    "address": " 9318 Shepton St  Orlando, FL 32825",
    "location": "Lafayette"
  },
  {
    "name": "Strachan Art & Signs",
    "description": "Advertising Specialties",
    "phone": "(407) 671-4542",
    "address": " 3930 Port Simbor Ave  Orlando, FL 32817",
    "location": "Lafayette"
  },
  {
    "name": "Acme Signs and Prints",
    "description": "Screen Printing",
    "phone": "(407) 412-5918",
    "address": " 9422 E Colonial Dr  Orlando, FL 32817",
    "location": "Lafayette"
  },
  {
    "name": "Deans Crossing Info Sign Up",
    "description": "Advertising Specialties",
    "phone": "(407) 925-9783",
    "address": " Dean Rd  Orlando, FL 32825",
    "location": "Lafayette"
  },
  {
    "name": "Central Florida Media Solutions",
    "description": "Internet Marketing & Advertising",
    "phone": "(407) 614-7636",
    "address": " 2538 Woods Edge Cir  Orlando, FL 32817",
    "location": "Lafayette"
  },
  {
    "name": "ClickIt Marketing Solutions",
    "description": "Internet Marketing & Advertising",
    "phone": "(407) 434-9104",
    "address": " 9811 Dean Acre Dr  Orlando, FL 32825",
    "location": "Lafayette"
  },
  {
    "name": "Sir Speedy",
    "description": "Printing Services-Commercial",
    "phone": "(407) 423-7556",
    "address": " 6900 Tavistock Lakes Blvd Ste 400  Orlando, FL 32827",
    "location": "Lafayette"
  },
  {
    "name": "Online Marketing Gorilla",
    "description": "Internet Marketing & Advertising",
    "phone": "(321) 947-3078",
    "address": " 6900 Tavistock Lakes Blvd Ste 400  Orlando, FL 32827",
    "location": "Lafayette"
  },
  {
    "name": "iBuild Church Sites",
    "description": "Internet Consultants",
    "phone": "(407) 342-0234",
    "address": " 10208 Trilliums CT  Orlando, FL 32825",
    "location": "Lafayette"
  },
  {
    "name": "Better Graphics",
    "description": "Advertising Specialties",
    "phone": "(407) 613-2813",
    "address": " 10524 Moss Park Rd Ste 204-359  Orlando, FL 32832",
    "location": "Lafayette"
  },
  {
    "name": "Sign & Design S",
    "description": "Advertising Specialties",
    "phone": "(407) 960-4750",
    "address": " 10037 University Blvd  Orlando, FL 32817",
    "location": "Lafayette"
  },
  {
    "name": "Signup Design",
    "description": "Signs",
    "phone": "(407) 492-6639",
    "address": " 10775 Gran Paradiso Dr  Orlando, FL 32832",
    "location": "Lafayette"
  },
  {
    "name": "Sunrise Printing & Signs",
    "description": "Printing Services",
    "phone": "(321) 284-3803",
    "address": " 1220 Dyer Blvd  Kissimmee, FL 34741",
    "location": "Lafayette"
  },
  {
    "name": "Print Station",
    "description": "Printing Services-Commercial",
    "phone": "(407) 682-5899",
    "address": " 491 N. Highway 434 Suite 137  Altamonte Springs, FL 32714",
    "location": "Lafayette"
  },
  {
    "name": "Acme Stamp & Sign Company",
    "description": "Rubber & Plastic Stamps",
    "phone": "(407) 898-5550",
    "address": " 6969 University Blvd  Winter Park, FL 32792",
    "location": "Lafayette"
  },
  {
    "name": "Mail Unlimited Inc",
    "description": "Mail & Shipping Services",
    "phone": "(407) 657-9333",
    "address": " 4607 Metric Dr  Winter Park, FL 32792",
    "location": "Lafayette"
  },
  {
    "name": "Custom signs & Embroidery LLC",
    "description": "Advertising Specialties",
    "phone": "(407) 396-9868",
    "address": " 5405 W Irlo Bronson Memorial Hwy  Kissimmee, FL 34746",
    "location": "Lafayette"
  },
  {
    "name": "Envision Orlando",
    "description": "Signs",
    "phone": "(407) 951-5532",
    "address": " 1150 Solana Ave  Winter Park, FL 32789",
    "location": "Lafayette"
  },
  {
    "name": "Success Landscape Marketing",
    "description": "Internet Marketing & Advertising",
    "phone": "(407) 571-9508",
    "address": " 1133 Louisiana Ave Ste 100  Winter Park, FL 32789",
    "location": "Lafayette"
  },
  {
    "name": "KRE8 Media Inc.",
    "description": "Media Brokers",
    "phone": "(407) 629-5454",
    "address": " 200 E New England Ave Ste 300  Winter Park, FL 32789",
    "location": "Lafayette"
  },
  {
    "name": "Qyhvzb.com",
    "description": "Internet Marketing & Advertising",
    "phone": "(203) 679-9499",
    "address": " 300 N New York Ave  Winter Park, FL 32790",
    "location": "Lafayette"
  },
  {
    "name": "Graphic Marketing",
    "description": "Marketing Programs & Services",
    "phone": "(407) 647-8999",
    "address": " 941 N Pennsylvania Ave  Winter Park, FL 32789",
    "location": "Lafayette"
  },
  {
    "name": "ActivEngage, Inc.",
    "description": "Computer Software Publishers & Developers",
    "phone": "(321) 441-7722",
    "address": " 2701 Maitland Center Pkwy  Maitland, FL 32751",
    "location": "Lafayette"
  },
  {
    "name": "Designage",
    "description": "Signs",
    "phone": "(407) 647-2950",
    "address": " 311 Circle Dr  Maitland, FL 32751",
    "location": "Lafayette"
  },
  {
    "name": "Fox Promotional Products",
    "description": "Advertising-Promotional Products",
    "phone": "(407) 398-5179",
    "address": " 311 N Knowles Ave Apt 203  Winter Park, FL 32789",
    "location": "Lafayette"
  },
  {
    "name": "X Studios Inc.",
    "description": "Internet Marketing & Advertising",
    "phone": "(321) 281-1708",
    "address": " 2700 Westhall Ln Ste 225  Maitland, FL 32751",
    "location": "Lafayette"
  },
  {
    "name": "A Fox Promotions",
    "description": "Advertising-Promotional Products",
    "phone": "(407) 539-1969",
    "address": " 1131 Willa Vista Trl  Maitland, FL 32751",
    "location": "Lafayette"
  },
  {
    "name": "All Express Signs",
    "description": "Signs",
    "phone": "(407) 507-2635",
    "address": " 2930 Vineland Rd  Kissimmee, FL 34746",
    "location": "Lafayette"
  },
  {
    "name": "Abel Communications",
    "description": "Advertising Specialties",
    "phone": "(407) 539-3994",
    "address": " PO Box 146  Winter Park, FL 32790",
    "location": "Lafayette"
  },
  {
    "name": "Southern Cross Media LLC",
    "description": "Internet Marketing & Advertising",
    "phone": "(321) 356-5350",
    "address": " 903 lake Lily Dr. A 322  Maitland, FL 32751",
    "location": "Lafayette"
  },
  {
    "name": "Findmynewhomeez.com",
    "description": "Internet Marketing & Advertising",
    "phone": "(321) 396-2726",
    "address": " 2457 Verde View Dr  Apopka, FL 32703",
    "location": "Lafayette"
  },
  {
    "name": "Khan & Sons T's",
    "description": "Signs",
    "phone": "(407) 396-9868",
    "address": " 5405 W Irlo Bronson Memorial Hwy  Kissimmee, FL 34746",
    "location": "Lafayette"
  },
  {
    "name": "Dark Blu Media",
    "description": "Internet Marketing & Advertising",
    "phone": "(407) 666-7559",
    "address": " 3510 Bent Wood Dr  Kissimmee, FL 34741",
    "location": "Lafayette"
  },
  {
    "name": "Imagine Digital eXpressions",
    "description": "Internet Marketing & Advertising",
    "phone": "(407) 205-7761",
    "address": " 3001 Laurel Run Ln  Kissimmee, FL 34741",
    "location": "Lafayette"
  },
  {
    "name": "Floridadreamhomes.com",
    "description": "Internet Marketing & Advertising",
    "phone": "(407) 396-4474",
    "address": " 5511 W Irlo Bronson Memorial Hwy  Kissimmee, FL 34746",
    "location": "Lafayette"
  },
  {
    "name": "407 Signs",
    "description": "Business Cards",
    "phone": "(407) 507-2686",
    "address": " 5797 W Irlo Bronson Memorial Hwy  Kissimmee, FL 34746",
    "location": "Lafayette"
  },
  {
    "name": "Wellstonforum.com",
    "description": "Internet Marketing & Advertising",
    "phone": "(407) 967-1086",
    "address": " 5271 Cane Island Loop  Kissimmee, FL 34746",
    "location": "Lafayette"
  },
  {
    "name": "All In One Branding",
    "description": "Web Site Design & Services",
    "phone": "(407) 903-6005",
    "address": " 1020 Sunshine Ln  Altamonte Springs, FL 32714",
    "location": "Lafayette"
  },
  {
    "name": "LaBeau Media",
    "description": "Internet Marketing & Advertising",
    "phone": "(561) 440-3839",
    "address": " PO Box 947762  Maitland, FL 32794",
    "location": "Lafayette"
  },
  {
    "name": "International Promotional",
    "description": "Advertising-Promotional Products",
    "phone": "(407) 786-4233",
    "address": " 925 Sunshine Ln  Altamonte Springs, FL 32714",
    "location": "Lafayette"
  },
  {
    "name": "Anchor Promotional Merchandise",
    "description": "Advertising-Promotional Products",
    "phone": "(407) 831-4233",
    "address": " 925 Sunshine Ln Ste 1040  Altamonte Springs, FL 32714",
    "location": "Lafayette"
  },
  {
    "name": "4D Interactive Inc",
    "description": "Production Companies-Film, TV, Radio, Etc",
    "phone": "(407) 622-7536",
    "address": " 111 S Maitland Ave  Maitland, FL 32751",
    "location": "Lafayette"
  },
  {
    "name": "The Sunshine Group",
    "description": "Advertising Specialties",
    "phone": "(407) 623-3333",
    "address": " 125 S Swoope Ave Ste 101  Maitland, FL 32751",
    "location": "Lafayette"
  },
  {
    "name": "Quick Advertising, Inc.",
    "description": "Signs",
    "phone": "(407) 774-0003",
    "address": " 3030 E Semoran Blvd Ste 156  Apopka, FL 32703",
    "location": "Lafayette"
  },
  {
    "name": "Oakley Signs & Graphics Inc",
    "description": "Signs",
    "phone": "(407) 262-8200",
    "address": " 550 Northlake Blvd  Altamonte Springs, FL 32701",
    "location": "Lafayette"
  },
  {
    "name": "Marker Infocomm Inc",
    "description": "Direct Mail Advertising",
    "phone": "(407) 754-9000",
    "address": " 550 Northlake Blvd Ste 1004  Altamonte Springs, FL 32701",
    "location": "Lafayette"
  },
  {
    "name": "Heritage Financial Service",
    "description": "Advertising Specialties",
    "phone": "(407) 702-6655",
    "address": " 166 Lookout Pl  Maitland, FL 32751",
    "location": "Lafayette"
  },
  {
    "name": "Svelte 30 Nutritional Consultant",
    "description": "Signs",
    "phone": "(407) 350-5940",
    "address": " 960 E Osceola Pkwy  Kissimmee, FL 34744",
    "location": "Lafayette"
  },
  {
    "name": "P3D Creations",
    "description": "Prototypes",
    "phone": "(407) 785-4119",
    "address": " Altamonte Springs FL 32714  Altamonte Springs, FL 32714",
    "location": "Lafayette"
  },
  {
    "name": "e-repuCare.com",
    "description": "Internet Consultants",
    "phone": "(321) 209-5170",
    "address": " Orlando  Kissimmee, FL 34741",
    "location": "Lafayette"
  }
]
