[
  {
    "name": "Magnolia Advertising Spec",
    "description": "Advertising Agencies",
    "phone": "(239) 775-7070",
    "address": " 5346 Sholtz St  Naples, FL 34113",
    "location": "Levy"
  },
  {
    "name": "44i, Inc.",
    "description": "Advertising Agencies",
    "phone": "(239) 940-5781",
    "address": " 7523 Moorgate Point Way  Naples, FL 34113",
    "location": "Levy"
  },
  {
    "name": "Ad Depot",
    "description": "Advertising Agencies",
    "phone": "(239) 435-9410",
    "address": " 4670 Cardinal Way  Naples, FL 34112",
    "location": "Levy"
  },
  {
    "name": "Le Palavra Group",
    "description": "Advertising Agencies",
    "phone": "(239) 324-1084",
    "address": " 165 1st St  Naples, FL 34113",
    "location": "Levy"
  },
  {
    "name": "Patricia McCann Advertising",
    "description": "Advertising Agencies",
    "phone": "(239) 465-8274",
    "address": " 3605 Boca Ciega Dr  Naples, FL 34112",
    "location": "Levy"
  },
  {
    "name": "Paul R Sheahan Co",
    "description": "Advertising Agencies",
    "phone": "(239) 732-1704",
    "address": " 3073 Van Buren Ave  Naples, FL 34112",
    "location": "Levy"
  },
  {
    "name": "Ima Creative Inc",
    "description": "Advertising Agencies",
    "phone": "(239) 331-8122",
    "address": " 2853 Linda Dr  Naples, FL 34112",
    "location": "Levy"
  },
  {
    "name": "Valva George",
    "description": "Advertising Agencies",
    "phone": "(239) 774-2040",
    "address": " 770 Eagle Creek Dr  Naples, FL 34113",
    "location": "Levy"
  },
  {
    "name": "Leonard K Stark Consultant Service",
    "description": "Advertising Agencies",
    "phone": "(239) 793-4458",
    "address": " 511 Eagle Creek Dr  Naples, FL 34113",
    "location": "Levy"
  },
  {
    "name": "ID Advertising and Marketing",
    "description": "Advertising Agencies",
    "phone": "(239) 417-0734",
    "address": " 255 Glen Eagle Cir  Naples, FL 34104",
    "location": "Levy"
  },
  {
    "name": "John Caskey Jr Ofc",
    "description": "Advertising Agencies",
    "phone": "(239) 732-7440",
    "address": " 2595 Tarpon Rd  Naples, FL 34102",
    "location": "Levy"
  },
  {
    "name": "Media Display",
    "description": "Advertising Agencies",
    "phone": "(239) 530-7798",
    "address": " 2168 Tarpon Rd  Naples, FL 34102",
    "location": "Levy"
  },
  {
    "name": "Streetwise Enterprises",
    "description": "Advertising Agencies",
    "phone": "(239) 775-9216",
    "address": " 1971 Holiday Ln  Naples, FL 34104",
    "location": "Levy"
  },
  {
    "name": "Haute Image Internationale",
    "description": "Advertising Agencies",
    "phone": "(239) 692-9495",
    "address": " 1100 Commercial Blvd Ste 109  Naples, FL 34104",
    "location": "Levy"
  },
  {
    "name": "Concierge's Image",
    "description": "Advertising Agencies",
    "phone": "(239) 403-4080",
    "address": " 1100 Commercial Blvd  Naples, FL 34104",
    "location": "Levy"
  },
  {
    "name": "Mabrelia Inc",
    "description": "Advertising Agencies",
    "phone": "(239) 263-1291",
    "address": " 3673 Exchange Ave  Naples, FL 34104",
    "location": "Levy"
  },
  {
    "name": "Boardroompr",
    "description": "Advertising Agencies",
    "phone": "(239) 360-9340",
    "address": " 3606 Enterprise Ave  Naples, FL 34104",
    "location": "Levy"
  },
  {
    "name": "Budget Direct Ads",
    "description": "Advertising Agencies",
    "phone": "(239) 422-6468",
    "address": " 4511 32nd Ave SW  Naples, FL 34116",
    "location": "Levy"
  },
  {
    "name": "L+C Creative Group",
    "description": "Advertising Agencies",
    "phone": "(239) 228-7372",
    "address": " 849 7th Ave S  Naples, FL 34102",
    "location": "Levy"
  },
  {
    "name": "Latino Advertising Inc",
    "description": "Advertising Agencies",
    "phone": "(239) 352-9972",
    "address": " 5424 27th Pl SW  Naples, FL 34116",
    "location": "Levy"
  },
  {
    "name": "4 What Interactive",
    "description": "Advertising Agencies",
    "phone": "(239) 495-3010",
    "address": " 501 Goodlette-Frank Rd N  Naples, FL 34102",
    "location": "Levy"
  },
  {
    "name": "Buttercup Studio",
    "description": "Advertising Agencies",
    "phone": "(239) 659-1032",
    "address": " 660 Tamiami Trl N  Naples, FL 34102",
    "location": "Levy"
  },
  {
    "name": "Dave Horton Advertising",
    "description": "Advertising Agencies",
    "phone": "(239) 687-9499",
    "address": " 2128 55th St SW  Naples, FL 34116",
    "location": "Levy"
  },
  {
    "name": "Wright Group",
    "description": "Advertising Agencies",
    "phone": "(239) 436-1992",
    "address": " 1302 Noble Heron Way  Naples, FL 34105",
    "location": "Levy"
  },
  {
    "name": "Gulf Bay Advertising Agency",
    "description": "Advertising Agencies",
    "phone": "(239) 732-9400",
    "address": " 8156 Fiddlers Creek Pkwy  Naples, FL 34114",
    "location": "Levy"
  },
  {
    "name": "Technological Inc",
    "description": "Advertising Agencies",
    "phone": "(239) 436-7242",
    "address": " 5571 Hunter Blvd  Naples, FL 34116",
    "location": "Levy"
  },
  {
    "name": "Billboards USA",
    "description": "Advertising Agencies",
    "phone": "(941) 629-1115",
    "address": " 6819 Del Mar Ter  Naples, FL 34105",
    "location": "Levy"
  },
  {
    "name": "Impact Marketing",
    "description": "Advertising Agencies",
    "phone": "(239) 304-2057",
    "address": " 2900 14th St N  Naples, FL 34103",
    "location": "Levy"
  },
  {
    "name": "Web Vocals Advertising Agency",
    "description": "Advertising Agencies",
    "phone": "(855) 977-8785",
    "address": " 4225 Heritage Cir  Naples, FL 34116",
    "location": "Levy"
  },
  {
    "name": "Elephant Marketing & Media",
    "description": "Advertising Agencies",
    "phone": "(239) 449-6107",
    "address": " 3510 Kraft Rd Ste 200  Naples, FL 34105",
    "location": "Levy"
  },
  {
    "name": "Ad Designs of Naples Inc",
    "description": "Advertising Agencies",
    "phone": "(239) 263-2021",
    "address": " 838 Anchor Rode Dr  Naples, FL 34103",
    "location": "Levy"
  },
  {
    "name": "The Drivers World",
    "description": "Advertising Agencies",
    "phone": "(630) 489-9339",
    "address": " 1766 Bald Eagle Dr  Naples, FL 34105",
    "location": "Levy"
  },
  {
    "name": "Life Christian Church",
    "description": "Advertising Agencies",
    "phone": "(239) 304-9255",
    "address": " 1005 Shady Rest Ln  Naples, FL 34103",
    "location": "Levy"
  },
  {
    "name": "Southern Rail MANAGEMENT",
    "description": "Advertising Agencies",
    "phone": "(239) 649-6922",
    "address": " 523 Turtle Hatch Ln  Naples, FL 34103",
    "location": "Levy"
  },
  {
    "name": "The Sailboat Agency",
    "description": "Advertising Agencies",
    "phone": "(239) 710-2197",
    "address": " 4850 Tamiami Trl N  Naples, FL 34103",
    "location": "Levy"
  },
  {
    "name": "Cheetah Agency",
    "description": "Advertising Agencies",
    "phone": "(239) 329-0202",
    "address": " 4851 Tamiami Trl N  Naples, FL 34103",
    "location": "Levy"
  },
  {
    "name": "AdSource",
    "description": "Advertising Agencies",
    "phone": "(239) 495-0007",
    "address": " 1415 Panther Ln Suite 159  Naples, FL 34109",
    "location": "Levy"
  },
  {
    "name": "FabLocal",
    "description": "Advertising Agencies",
    "phone": "(888) 945-5999",
    "address": " 6640 Willow Park Dr  Naples, FL 34109",
    "location": "Levy"
  },
  {
    "name": "Schlesinger Advertising",
    "description": "Advertising Agencies",
    "phone": "(239) 261-1146",
    "address": " 5203 Starfish Ave  Naples, FL 34103",
    "location": "Levy"
  },
  {
    "name": "Funky BubbleGum Marketing",
    "description": "Advertising Agencies",
    "phone": "(954) 600-1663",
    "address": " 1236 Laurel Ct  Marco Island, FL 34145",
    "location": "Levy"
  },
  {
    "name": "Gulf Media Advertising Agency",
    "description": "Advertising Agencies",
    "phone": "(239) 860-5300",
    "address": " 2430 Vanderbilt Beach Rd Ste 108-103  Naples, FL 34109",
    "location": "Levy"
  },
  {
    "name": "Wilson Creative Group",
    "description": "Advertising Agencies",
    "phone": "(239) 597-9480",
    "address": " 2343 Vanderbilt Beach Rd  Naples, FL 34109",
    "location": "Levy"
  },
  {
    "name": "Pop Advertising Partners",
    "description": "Advertising Agencies",
    "phone": "(908) 963-7766",
    "address": " 60 Emerald Woods Dr  Naples, FL 34108",
    "location": "Levy"
  },
  {
    "name": "Scaleup Media",
    "description": "Advertising Agencies",
    "phone": "(239) 259-7474",
    "address": " 8805 Tamiami Trl N  Naples, FL 34108",
    "location": "Levy"
  },
  {
    "name": "Absher Design Group/Adg",
    "description": "Advertising Agencies",
    "phone": "(239) 596-4770",
    "address": " 5870 Spanish Oaks Ln  Naples, FL 34119",
    "location": "Levy"
  },
  {
    "name": "Effectv",
    "description": "Advertising Agencies",
    "phone": "(888) 877-9799",
    "address": " 999 Vanderbilt Beach Rd  Naples, FL 34108",
    "location": "Levy"
  },
  {
    "name": "Mediabrains Inc",
    "description": "Advertising Agencies",
    "phone": "(239) 594-3200",
    "address": " 999 Vanderbilt Beach Rd Ste 607  Naples, FL 34108",
    "location": "Levy"
  },
  {
    "name": "Nancy Tuck",
    "description": "Advertising Agencies",
    "phone": "(239) 593-8646",
    "address": " 1590 Clermont Dr Unit 205  Naples, FL 34109",
    "location": "Levy"
  },
  {
    "name": "B2 Advertising",
    "description": "Advertising Agencies",
    "phone": "(239) 593-3600",
    "address": " 5675 Strand Ct  Naples, FL 34110",
    "location": "Levy"
  },
  {
    "name": "Blackfrog Agency",
    "description": "Advertising Agencies",
    "phone": "(888) 799-6003",
    "address": " 2211 Noble Ct  Naples, FL 34110",
    "location": "Levy"
  },
  {
    "name": "Lokal-Naples FL",
    "description": "Advertising Agencies",
    "phone": "(239) 784-0939",
    "address": " 1085 Business Ln  Naples, FL 34110",
    "location": "Levy"
  },
  {
    "name": "SMS Consultants Inc",
    "description": "Advertising Agencies",
    "phone": "(239) 455-3831",
    "address": " 2819 Orange Grove Trl  Naples, FL 34120",
    "location": "Levy"
  },
  {
    "name": "Spin Advertising",
    "description": "Advertising Agencies",
    "phone": "(734) 730-3374",
    "address": " 1360 Sweetwater Cv  Naples, FL 34110",
    "location": "Levy"
  },
  {
    "name": "Salad Werks",
    "description": "Advertising Agencies",
    "phone": "(239) 642-0790",
    "address": " 950 N Collier Blvd Ste 414  Marco Island, FL 34145",
    "location": "Levy"
  },
  {
    "name": "Vacation Store",
    "description": "Advertising Agencies",
    "phone": "(239) 394-3444",
    "address": " 1857 San Marco Rd  Marco Island, FL 34145",
    "location": "Levy"
  },
  {
    "name": "A Flag It",
    "description": "Advertising Agencies",
    "phone": "(239) 396-4342",
    "address": " 27261 South Riverside Drive  Bonita Springs, FL 34135",
    "location": "Levy"
  },
  {
    "name": "Sunset Marketing",
    "description": "Advertising Agencies",
    "phone": "(727) 755-8239",
    "address": " 5972 cerromar dr  naples, FL 34112",
    "location": "Levy"
  },
  {
    "name": "Lasso Up",
    "description": "Advertising Agencies",
    "phone": "(888) 700-9412",
    "address": " 6229 Union Island Way  Naples, FL 34113",
    "location": "Levy"
  },
  {
    "name": "Intech Printing & Direct Mail",
    "description": "Advertising Agencies",
    "phone": "(239) 643-3430",
    "address": " 4408 Corporate Sq  Naples, FL 34104",
    "location": "Levy"
  },
  {
    "name": "Fiddler Productions Film Video",
    "description": "Advertising Agencies",
    "phone": "(239) 435-1818",
    "address": " 4707 Enterprise Ave  Naples, FL 34104",
    "location": "Levy"
  },
  {
    "name": "GpL Printing Company",
    "description": "Advertising Agencies",
    "phone": "(239) 331-9975",
    "address": " 1011 Radio Rd  Naples, FL 34104",
    "location": "Levy"
  },
  {
    "name": "Avenue Visual",
    "description": "Advertising Agencies",
    "phone": "(239) 961-6810",
    "address": " 3606 Enterprise Ave Ste 307  Naples, FL 34104",
    "location": "Levy"
  },
  {
    "name": "Arma Communications, Inc.",
    "description": "Advertising Agencies",
    "phone": "(239) 248-0460",
    "address": " 225 Banyan Blvd Ste 220  Naples, FL 34102",
    "location": "Levy"
  },
  {
    "name": "Guest Informant",
    "description": "Advertising Agencies",
    "phone": "(239) 434-8328",
    "address": " 2900 14th St N  Naples, FL 34103",
    "location": "Levy"
  },
  {
    "name": "Smart Markiting",
    "description": "Advertising Agencies",
    "phone": "(239) 403-7556",
    "address": " 3033 Riviera Dr  Naples, FL 34103",
    "location": "Levy"
  },
  {
    "name": "DREAMFly Marketing",
    "description": "Advertising Agencies",
    "phone": "(239) 682-0082",
    "address": " 6145 Montelena Cir Apt 5102  Naples, FL 34119",
    "location": "Levy"
  },
  {
    "name": "Smart Marketing",
    "description": "Advertising Agencies",
    "phone": "(239) 403-7755",
    "address": " 6240 Shirley St  Naples, FL 34109",
    "location": "Levy"
  },
  {
    "name": "Industrial Distribution Resources",
    "description": "Advertising Agencies",
    "phone": "(239) 591-3777",
    "address": " 6609 Willow Park Dr  Naples, FL 34109",
    "location": "Levy"
  },
  {
    "name": "Hanalex Corp",
    "description": "Advertising Agencies",
    "phone": "(239) 643-5545",
    "address": " 545 Wedgewood Way  Naples, FL 34119",
    "location": "Levy"
  },
  {
    "name": "Tca Graphics Inc",
    "description": "Advertising Agencies",
    "phone": "(239) 325-9857",
    "address": " 6835 Lantana Bridge Rd  Naples, FL 34109",
    "location": "Levy"
  },
  {
    "name": "Astute Marketing and Consulting",
    "description": "Advertising Agencies",
    "phone": "(239) 284-2340",
    "address": " 2430 Vanderbilt Beach Rd  Naples, FL 34109",
    "location": "Levy"
  },
  {
    "name": "Naples Digital Marketing Agency Fannit",
    "description": "Advertising Agencies",
    "phone": "(239) 345-3680",
    "address": " 811 Wilson Blvd S  Naples, FL 34117",
    "location": "Levy"
  },
  {
    "name": "Mona Lisa Graphic Design",
    "description": "Advertising Agencies",
    "phone": "(239) 325-1860",
    "address": " 999 Vanderbilt Beach Rd Ste 200  Naples, FL 34108",
    "location": "Levy"
  },
  {
    "name": "Discount Emails USA",
    "description": "Advertising Agencies",
    "phone": "(239) 248-0049",
    "address": " 2290 Saturnia Grande Dr  Naples, FL 34119",
    "location": "Levy"
  },
  {
    "name": "Gulfshore Life Magazine",
    "description": "Advertising Agencies",
    "phone": "(239) 594-9980",
    "address": " 9051 Tamiami Trl N Ste 202  Naples, FL 34108",
    "location": "Levy"
  },
  {
    "name": "Koller Marketing Group",
    "description": "Advertising Agencies",
    "phone": "(239) 293-4659",
    "address": " 8710 Ibis Cove Cir  Naples, FL 34119",
    "location": "Levy"
  },
  {
    "name": "B3 Marketing Naples Fl Office",
    "description": "Advertising Agencies",
    "phone": "(561) 405-1299",
    "address": " 7925 Preserve Cir Apt 328  Naples, FL 34119",
    "location": "Levy"
  },
  {
    "name": "Valpak of Southwest Florida",
    "description": "Advertising Agencies",
    "phone": "(239) 594-3531",
    "address": " 10681 Airport-Pulling Rd Suite 21  Naples, FL 34109",
    "location": "Levy"
  },
  {
    "name": "B-Squared Advertising",
    "description": "Advertising Agencies",
    "phone": "(239) 593-3600",
    "address": " 5675 Strand Ct  Naples, FL 34110",
    "location": "Levy"
  },
  {
    "name": "Abovewater Public Relations",
    "description": "Advertising Agencies",
    "phone": "(239) 596-9149",
    "address": " 107 Madison Dr  Naples, FL 34110",
    "location": "Levy"
  },
  {
    "name": "Reverb Media Inc",
    "description": "Advertising Agencies",
    "phone": "(239) 919-3353",
    "address": " 930 Everglades Blvd S  Naples, FL 34117",
    "location": "Levy"
  },
  {
    "name": "Glenn Torres | The Godfather Of Marketing",
    "description": "Advertising Agencies",
    "phone": "(239) 567-9937",
    "address": " 16230 Allura Cir  Naples, FL 34110",
    "location": "Levy"
  },
  {
    "name": "ActiveData Digital Marketing",
    "description": "Advertising Agencies",
    "phone": "(239) 465-0310",
    "address": " 1004 Collier Center Way Ste 206  Naples, FL 34110",
    "location": "Levy"
  },
  {
    "name": "Maximum Potential Marketing",
    "description": "Advertising Agencies",
    "phone": "(239) 323-1885",
    "address": " 4570 20th St NE  Naples, FL 34120",
    "location": "Levy"
  },
  {
    "name": "Naples Promo Deals",
    "description": "Advertising Specialties",
    "phone": "(239) 348-2699",
    "address": " 5683 Rattlesnake Hammock Rd  Naples, FL 34113",
    "location": "Levy"
  },
  {
    "name": "Brandworx",
    "description": "Advertising-Promotional Products",
    "phone": "(239) 793-3441",
    "address": " 104 Bordeaux Cir  Naples, FL 34112",
    "location": "Levy"
  },
  {
    "name": "Johnthemasterbarber.com",
    "description": "Internet Marketing & Advertising",
    "phone": "(630) 202-3450",
    "address": " 101 Champagne Ct  Naples, FL 34112",
    "location": "Levy"
  },
  {
    "name": "Shirley Calhoon Advertising",
    "description": "Advertising Specialties",
    "phone": "(239) 774-7457",
    "address": " 8914 Shenendoah Cir  Naples, FL 34113",
    "location": "Levy"
  },
  {
    "name": "P I Electric",
    "description": "Electricians",
    "phone": "(239) 774-0900",
    "address": " 3615 Thomasson Dr  Naples, FL 34112",
    "location": "Levy"
  }
]
