[
  {
    "name": "Mc Consulting Agency",
    "description": "Advertising Agencies",
    "phone": "(321) 635-9906",
    "address": " 1237 Sleepy Hollow Ln  Rockledge, FL 32955",
    "location": "Liberty"
  },
  {
    "name": "John Ohara Consulting",
    "description": "Advertising Agencies",
    "phone": "(321) 633-6917",
    "address": " 872 Croton Rd  Rockledge, FL 32955",
    "location": "Liberty"
  },
  {
    "name": "Geshelli Labs",
    "description": "Advertising Agencies",
    "phone": "(321) 312-0155",
    "address": " 5575 Schenck Ave  Rockledge, FL 32955",
    "location": "Liberty"
  },
  {
    "name": "3 E Consultants Inc",
    "description": "Advertising Agencies",
    "phone": "(321) 631-4442",
    "address": " 319 River Edge Blvd Ste 208  Cocoa, FL 32922",
    "location": "Liberty"
  },
  {
    "name": "Thrifty Nickel Want ADS",
    "description": "Advertising Agencies",
    "phone": "(321) 459-0092",
    "address": " 240 S Courtenay Pkwy  Merritt Island, FL 32952",
    "location": "Liberty"
  },
  {
    "name": "LocaliQ",
    "description": "Advertising Agencies",
    "phone": "(877) 525-6084",
    "address": " 1005 Viera Blvd Unit 101  Viera, FL 32955",
    "location": "Liberty"
  },
  {
    "name": "Johnasia Anderson",
    "description": "Advertising Agencies",
    "phone": "(321) 208-7865",
    "address": " 2845 W King St  Cocoa, FL 32926",
    "location": "Liberty"
  },
  {
    "name": "Brandt Ronat & Company",
    "description": "Advertising Agencies",
    "phone": "(321) 453-3101",
    "address": " 60 McLeod St  Merritt Island, FL 32953",
    "location": "Liberty"
  },
  {
    "name": "Wolf Jessee Paquin Communications",
    "description": "Advertising Agencies",
    "phone": "(321) 633-8281",
    "address": " 1970 Michigan Ave  Cocoa, FL 32922",
    "location": "Liberty"
  },
  {
    "name": "Digital Spark Marketing",
    "description": "Advertising Agencies",
    "phone": "(607) 725-8240",
    "address": " 213 Sykes Point Ln  Merritt Island, FL 32953",
    "location": "Liberty"
  },
  {
    "name": "Near My BNB",
    "description": "Advertising Agencies",
    "phone": "(321) 243-6589",
    "address": " 120 Venetian Way Ste 21  Merritt Island, FL 32953",
    "location": "Liberty"
  },
  {
    "name": "Opus Advertising",
    "description": "Advertising Agencies",
    "phone": "(321) 799-0098",
    "address": " 2210 S Atlantic Ave  Cocoa Beach, FL 32931",
    "location": "Liberty"
  },
  {
    "name": "Senior Scene Magazine",
    "description": "Advertising Agencies",
    "phone": "(321) 777-1114",
    "address": " 712 Spanish Cove Dr  Melbourne, FL 32940",
    "location": "Liberty"
  },
  {
    "name": "Global Concepts Media Agency LLC",
    "description": "Advertising Agencies",
    "phone": "(417) 425-7678",
    "address": " 431 Vizcaya Ct  Melbourne, FL 32940",
    "location": "Liberty"
  },
  {
    "name": "Brevard Discount Connection",
    "description": "Advertising Agencies",
    "phone": "(321) 482-4542",
    "address": " 4144 Fenrose Cir  Melbourne, FL 32940",
    "location": "Liberty"
  },
  {
    "name": "Gautreaux Consultants Inc",
    "description": "Advertising Agencies",
    "phone": "(321) 799-2795",
    "address": " 200 Saint Lucie Ln Apt 408  Cocoa Beach, FL 32931",
    "location": "Liberty"
  },
  {
    "name": "Superior Advertising & Marketing",
    "description": "Advertising Agencies",
    "phone": "(321) 784-9321",
    "address": " 339 Jack Dr  Cocoa Beach, FL 32931",
    "location": "Liberty"
  },
  {
    "name": "Dennis Kyle Laser Consultant",
    "description": "Advertising Agencies",
    "phone": "(321) 863-4172",
    "address": " 3525 Bull Run Ct  Melbourne, FL 32934",
    "location": "Liberty"
  },
  {
    "name": "Transworld Advertising Inc",
    "description": "Advertising Agencies",
    "phone": "(321) 259-7737",
    "address": " 3684 N Wickham Rd  Melbourne, FL 32935",
    "location": "Liberty"
  },
  {
    "name": "Express Signs",
    "description": "Advertising Agencies",
    "phone": "(321) 722-0280",
    "address": " 1558 S Wickham Rd  Melbourne, FL 32904",
    "location": "Liberty"
  },
  {
    "name": "Coastal Media & Business Marketing",
    "description": "Advertising Agencies",
    "phone": "(321) 508-5145",
    "address": " 105 SE 2nd St  Satellite Beach, FL 32937",
    "location": "Liberty"
  },
  {
    "name": "Creative Design Works Inc",
    "description": "Advertising Agencies",
    "phone": "(321) 223-9882",
    "address": " 1895 Atrium Dr  Melbourne, FL 32935",
    "location": "Liberty"
  },
  {
    "name": "Sky Advertising",
    "description": "Advertising Agencies",
    "phone": "(321) 777-0140",
    "address": " 664 S Patrick Dr  Satellite Beach, FL 32937",
    "location": "Liberty"
  },
  {
    "name": "Mtn Advertising",
    "description": "Advertising Agencies",
    "phone": "(321) 779-1010",
    "address": " 1355 S Patrick Dr  Satellite Beach, FL 32937",
    "location": "Liberty"
  },
  {
    "name": "Pace Media",
    "description": "Advertising Agencies",
    "phone": "(321) 610-3299",
    "address": " 1413 S Patrick Dr  Satellite Beach, FL 32937",
    "location": "Liberty"
  },
  {
    "name": "Key Business Connections Inc",
    "description": "Advertising Agencies",
    "phone": "(321) 610-1836",
    "address": " 2620 Aurora Rd  Melbourne, FL 32935",
    "location": "Liberty"
  },
  {
    "name": "B2K12 Branding Solutions",
    "description": "Advertising Agencies",
    "phone": "(321) 200-0427",
    "address": " 2165 Avocado Ave  Melbourne, FL 32935",
    "location": "Liberty"
  },
  {
    "name": "Building Management Systems",
    "description": "Advertising Agencies",
    "phone": "(321) 254-6981",
    "address": " 1501 W Eau Gallie Blvd  Melbourne, FL 32935",
    "location": "Liberty"
  },
  {
    "name": "Newsnotes Advertising",
    "description": "Advertising Agencies",
    "phone": "(608) 831-9600",
    "address": " 610 Ocean St  Satellite Beach, FL 32937",
    "location": "Liberty"
  },
  {
    "name": "McBride Marketing Group",
    "description": "Advertising Agencies",
    "phone": "(321) 259-1795",
    "address": " 668 Law St  Melbourne, FL 32935",
    "location": "Liberty"
  },
  {
    "name": "McBride Woodbridge Marketing",
    "description": "Advertising Agencies",
    "phone": "(321) 259-1795",
    "address": " 668 Law St  Melbourne, FL 32935",
    "location": "Liberty"
  },
  {
    "name": "The AD Leaf Marketing Firm",
    "description": "Advertising Agencies",
    "phone": "(321) 255-0900",
    "address": " 2238 Sarno Road  Melbourne, FL 32935",
    "location": "Liberty"
  },
  {
    "name": "Technical Equipment Distributors",
    "description": "Advertising Agencies",
    "phone": "(321) 259-2711",
    "address": " 4280 Dow Rd Ste 102  Melbourne, FL 32934",
    "location": "Liberty"
  },
  {
    "name": "HTN Digital Solutions",
    "description": "Advertising Agencies",
    "phone": "(866) 929-1971",
    "address": " 380 N Wickham Rd  Melbourne, FL 32935",
    "location": "Liberty"
  },
  {
    "name": "Cowbell Agency Individual",
    "description": "Advertising Agencies",
    "phone": "(321) 259-1795",
    "address": " 2050 S Patrick Dr Ste A  Indian Harbour Beach, FL 32937",
    "location": "Liberty"
  },
  {
    "name": "Real Consumer Tips The-Cocoa",
    "description": "Advertising Agencies",
    "phone": "(321) 635-6006",
    "address": " 4315 Woodland Park Dr  Melbourne, FL 32904",
    "location": "Liberty"
  },
  {
    "name": "K B Asset Management",
    "description": "Advertising Agencies",
    "phone": "(321) 773-4413",
    "address": " 2980 Ericusa Ln  Indialantic, FL 32903",
    "location": "Liberty"
  },
  {
    "name": "Downey Rob Photography",
    "description": "Advertising Agencies",
    "phone": "(321) 676-1886",
    "address": " 5745 Cajeput Cir  Melbourne Village, FL 32904",
    "location": "Liberty"
  },
  {
    "name": "B C B",
    "description": "Advertising Agencies",
    "phone": "(321) 724-8506",
    "address": " 310 Lago Cir  Melbourne, FL 32904",
    "location": "Liberty"
  },
  {
    "name": "Homes & Land of Brevard",
    "description": "Advertising Agencies",
    "phone": "(321) 676-8981",
    "address": " 1333 Gateway Dr  Melbourne, FL 32901",
    "location": "Liberty"
  },
  {
    "name": "Gabrielli Marketing",
    "description": "Advertising Agencies",
    "phone": "(321) 996-0027",
    "address": " 881 Barton Blvd  Rockledge, FL 32955",
    "location": "Liberty"
  },
  {
    "name": "MegaPostcard",
    "description": "Advertising Agencies",
    "phone": "(412) 398-0814",
    "address": " 4934 Oaklefe Ct  Rockledge, FL 32955",
    "location": "Liberty"
  },
  {
    "name": "765 Media LLC",
    "description": "Advertising Agencies",
    "phone": "(321) 735-9842",
    "address": " 252 Brevard Ave  Cocoa, FL 32922",
    "location": "Liberty"
  },
  {
    "name": "Think Different Designs",
    "description": "Advertising Agencies",
    "phone": "(321) 421-9086",
    "address": " 3758 Hollisten Cir  Melbourne, FL 32940",
    "location": "Liberty"
  },
  {
    "name": "Florida Digital Media",
    "description": "Advertising Agencies",
    "phone": "(321) 757-2788",
    "address": " 222 Teal Drive  Cocoa, FL 32926",
    "location": "Liberty"
  },
  {
    "name": "Moetto Mobile Marketing",
    "description": "Advertising Agencies",
    "phone": "(321) 345-6630",
    "address": " 915 N Courtenay Pkwy  Merritt Island, FL 32953",
    "location": "Liberty"
  },
  {
    "name": "The Timeless CEO",
    "description": "Advertising Agencies",
    "phone": "(321) 408-7612",
    "address": " 1175 N Courtenay Pkwy Ste 4A  Merritt Island, FL 32953",
    "location": "Liberty"
  },
  {
    "name": "Yellow Page Directory Service Inc",
    "description": "Advertising Agencies",
    "phone": "(321) 254-6012",
    "address": " 640 Classic Ct  Melbourne, FL 32940",
    "location": "Liberty"
  },
  {
    "name": "Zephyr Studio",
    "description": "Advertising Agencies",
    "phone": "(321) 848-6909",
    "address": " 6208 Erik Ct  Melbourne, FL 32940",
    "location": "Liberty"
  },
  {
    "name": "All Media Graphics",
    "description": "Advertising Agencies",
    "phone": "(321) 698-1550",
    "address": " 7777 N Wickham Rd Ste 12-124  Melbourne, FL 32940",
    "location": "Liberty"
  },
  {
    "name": "A1a Sign Wave Co",
    "description": "Advertising Agencies",
    "phone": "(321) 799-1774",
    "address": " 106 N Orlando Ave  Cocoa Beach, FL 32931",
    "location": "Liberty"
  },
  {
    "name": "Wolf Enterprises",
    "description": "Advertising Agencies",
    "phone": "(321) 449-1211",
    "address": " 2060 Leeward Ln  Merritt Island, FL 32953",
    "location": "Liberty"
  },
  {
    "name": "Dentalfone",
    "description": "Advertising Agencies",
    "phone": "(855) 385-3663",
    "address": " 3000 North Atlantic Avenue  Cocoa Beach, FL 32931",
    "location": "Liberty"
  },
  {
    "name": "Invision Multimedia",
    "description": "Advertising Agencies",
    "phone": "(321) 253-1000",
    "address": " 6300 N Wickham Rd  Melbourne, FL 32940",
    "location": "Liberty"
  },
  {
    "name": "SPACE COAST COUPONS Inc.",
    "description": "Advertising Agencies",
    "phone": "(321) 268-7667",
    "address": " 8501 Astronaut Blvd  Cape Canaveral, FL 32920",
    "location": "Liberty"
  },
  {
    "name": "Paleofun Inc",
    "description": "Advertising Agencies",
    "phone": "(321) 783-1447",
    "address": " 250 W Cocoa Beach Cswy  Cocoa Beach, FL 32931",
    "location": "Liberty"
  },
  {
    "name": "PressureWashingBrevard",
    "description": "Advertising Agencies",
    "phone": "(321) 458-2736",
    "address": " 308 Johnson Ave  Cape Canaveral, FL 32920",
    "location": "Liberty"
  },
  {
    "name": "SPACE COAST SMS Inc. TEXT MESSAGE MARKETING",
    "description": "Advertising Agencies",
    "phone": "(321) 438-7325",
    "address": " 8501 Astronaut Blvd  Cape Canaveral, FL 32920",
    "location": "Liberty"
  },
  {
    "name": "GYB Marketing Inc",
    "description": "Advertising Agencies",
    "phone": "(321) 392-3132",
    "address": " 8501 Astronaut Blvd Ste 5  Cape Canaveral, FL 32920",
    "location": "Liberty"
  },
  {
    "name": "Front Page Solution",
    "description": "Advertising Agencies",
    "phone": "(321) 505-7932",
    "address": " 4100 N Wickham Rd Ste 107A-198  Melbourne, FL 32935",
    "location": "Liberty"
  },
  {
    "name": "Real Easy Software Solutions",
    "description": "Advertising Agencies",
    "phone": "(321) 574-0373",
    "address": " 2800 Aurora Rd  Melbourne, FL 32935",
    "location": "Liberty"
  },
  {
    "name": "Thrifty Nickel Classifieds",
    "description": "Advertising Agencies",
    "phone": "(321) 775-0700",
    "address": " 2525 Aurora Rd  Melbourne, FL 32935",
    "location": "Liberty"
  },
  {
    "name": "A Cut Above Video Productions, Inc.",
    "description": "Advertising Agencies",
    "phone": "(321) 253-5677",
    "address": " 4450 W Eau Gallie Blvd Ste 220  Melbourne, FL 32934",
    "location": "Liberty"
  },
  {
    "name": "Rainbow Distributing",
    "description": "Advertising Agencies",
    "phone": "(321) 777-5936",
    "address": " 131 Tomahawk Dr  Indian Harbour Beach, FL 32937",
    "location": "Liberty"
  },
  {
    "name": "Wavecrest Graphics",
    "description": "Advertising Agencies",
    "phone": "(321) 722-3416",
    "address": " 140 Tomahawk Dr  Indian Harbour Beach, FL 32937",
    "location": "Liberty"
  },
  {
    "name": "DCP Productions",
    "description": "Advertising Agencies",
    "phone": "(321) 777-1874",
    "address": " 210 S Robert Way  Satellite Beach, FL 32937",
    "location": "Liberty"
  },
  {
    "name": "H5-Tech Solutions",
    "description": "Advertising Agencies",
    "phone": "(321) 421-7191",
    "address": " 1600 W Eau Gallie Blvd  Melbourne, FL 32935",
    "location": "Liberty"
  },
  {
    "name": "Valpak of Space Coast FL",
    "description": "Advertising Agencies",
    "phone": "(321) 622-8157",
    "address": " 1600 Sarno Rd, #119H  Melbourne, FL 32935",
    "location": "Liberty"
  },
  {
    "name": "CK Communications",
    "description": "Advertising Agencies",
    "phone": "(321) 752-5802",
    "address": " 457 Montreal Ave  Melbourne, FL 32935",
    "location": "Liberty"
  },
  {
    "name": "Everythingbrevard.com",
    "description": "Advertising Agencies",
    "phone": "(321) 676-8920",
    "address": " 5660 Crane Rd  Melbourne, FL 32904",
    "location": "Liberty"
  },
  {
    "name": "YP Marketing Solutions",
    "description": "Advertising Agencies",
    "phone": "(321) 956-5400",
    "address": " 100 Rialto Pl Ste 1010  Melbourne, FL 32901",
    "location": "Liberty"
  },
  {
    "name": "AutoUpLinkUSA Of Florida",
    "description": "Internet Marketing & Advertising",
    "phone": "(800) 443-2139",
    "address": " 1720 bridgeport cir  Rockledge, FL 32955",
    "location": "Liberty"
  },
  {
    "name": "Adverleads",
    "description": "Internet Marketing & Advertising",
    "phone": "(321) 693-0963",
    "address": " 2944 Matthew Dr  Rockledge, FL 32955",
    "location": "Liberty"
  },
  {
    "name": "Kendal Signs",
    "description": "Signs",
    "phone": "(321) 636-5116",
    "address": " 580 Gus Hipp Blvd  Rockledge, FL 32955",
    "location": "Liberty"
  },
  {
    "name": "Allegra Design Print Mail",
    "description": "Printing Services",
    "phone": "(321) 632-7272",
    "address": " 2040 Murrell Rd  Rockledge, FL 32955",
    "location": "Liberty"
  },
  {
    "name": "Dragonfly Web Solutions LLC",
    "description": "Business & Trade Organizations",
    "phone": "(321) 505-9212",
    "address": " PO Box 560894  Rockledge, FL 32956",
    "location": "Liberty"
  },
  {
    "name": "JDot Media",
    "description": "Aerial Photographers",
    "phone": "(813) 618-3908",
    "address": " 937 Yorktowne Dr  Rockledge, FL 32955",
    "location": "Liberty"
  },
  {
    "name": "Dentist Finder US",
    "description": "Internet Marketing & Advertising",
    "phone": "(321) 305-4588",
    "address": " 819 Topaz Dr  Rockledge, FL 32955",
    "location": "Liberty"
  },
  {
    "name": "Monoceros, Inc.",
    "description": "Advertising Specialties",
    "phone": "(407) 218-5860",
    "address": " 3810 Murrell Rd # 271  Rockledge, FL 32955",
    "location": "Liberty"
  },
  {
    "name": "Viera Networks",
    "description": "Internet Consultants",
    "phone": "(321) 622-3309",
    "address": " 3810 Murrell Rd Suite 201  Rockledge, FL 32955",
    "location": "Liberty"
  },
  {
    "name": "Brevard Graphics",
    "description": "Internet Marketing & Advertising",
    "phone": "(321) 368-2744",
    "address": " 524 Glenbrook Cir  Rockledge, FL 32955",
    "location": "Liberty"
  },
  {
    "name": "ShopinPal, Inc.",
    "description": "Internet Marketing & Advertising",
    "phone": "(321) 617-5696",
    "address": " 328 Brookcrest Cir  Rockledge, FL 32955",
    "location": "Liberty"
  },
  {
    "name": "Woodsigns.com",
    "description": "Signs",
    "phone": "(321) 632-9038",
    "address": " 414 Richard Rd  Rockledge, FL 32955",
    "location": "Liberty"
  },
  {
    "name": "Brevard Achievement Center",
    "description": "Mail & Shipping Services",
    "phone": "(321) 632-8610",
    "address": " 1845 Cogswell St  Rockledge, FL 32955",
    "location": "Liberty"
  },
  {
    "name": "Berry Signs",
    "description": "Signs",
    "phone": "(321) 631-6150",
    "address": " 1740 Huntington Ln  Rockledge, FL 32955",
    "location": "Liberty"
  },
  {
    "name": "Portable LED.com",
    "description": "Internet Marketing & Advertising",
    "phone": "(321) 631-6150",
    "address": " 1740 Huntington Ln  Rockledge, FL 32955",
    "location": "Liberty"
  },
  {
    "name": "WebBaze",
    "description": "Web Site Design & Services",
    "phone": "(321) 298-2533",
    "address": " 000 Murrell Rd  Rockledge, FL 32955",
    "location": "Liberty"
  },
  {
    "name": "Wholesale Sign Super Store",
    "description": "Signs",
    "phone": "(386) 736-4918",
    "address": " 115 Gus Hipp Blvd  Rockledge, FL 32955",
    "location": "Liberty"
  },
  {
    "name": "Madhouse Media Company",
    "description": "Internet Marketing & Advertising",
    "phone": "(561) 339-9654",
    "address": " 1892 Sun Gazer Dr  Rockledge, FL 32955",
    "location": "Liberty"
  },
  {
    "name": "Hmbaccounting.com",
    "description": "Internet Marketing & Advertising",
    "phone": "(321) 433-1191",
    "address": " 976 Brevard Ave  Rockledge, FL 32955",
    "location": "Liberty"
  },
  {
    "name": "Cocoa Signs",
    "description": "Signs",
    "phone": "(321) 636-4300",
    "address": " 408 Florida Ave  Cocoa, FL 32922",
    "location": "Liberty"
  },
  {
    "name": "Digi Donkey Web Design",
    "description": "Internet Marketing & Advertising",
    "phone": "(321) 433-0801",
    "address": " 315 Brevard Ave  Cocoa, FL 32922",
    "location": "Liberty"
  },
  {
    "name": "Herb Rollins Equipment",
    "description": "Signs",
    "phone": "(321) 632-5032",
    "address": " 141 Clearlake Rd  Cocoa, FL 32922",
    "location": "Liberty"
  },
  {
    "name": "H & R Signs & Flags",
    "description": "Signs",
    "phone": "(321) 632-5032",
    "address": " 141 Clearlake Rd  Cocoa, FL 32922",
    "location": "Liberty"
  },
  {
    "name": "Lickity-Split Signs & Banners",
    "description": "Signs",
    "phone": "(321) 459-0024",
    "address": " 691 S Courtenay Pkwy  Merritt Island, FL 32952",
    "location": "Liberty"
  },
  {
    "name": "Club Tan",
    "description": "Signs",
    "phone": "(321) 636-9993",
    "address": " 310 Shearer Blvd  Cocoa, FL 32922",
    "location": "Liberty"
  },
  {
    "name": "PIP Marketing, Signs, Print",
    "description": "Printing Services",
    "phone": "(321) 452-2800",
    "address": " 275 Magnolia Ave Ste 2  Merritt Island, FL 32952",
    "location": "Liberty"
  },
  {
    "name": "MailRoom Merritt Island",
    "description": "Mail & Shipping Services",
    "phone": "(321) 452-0110",
    "address": " 137 S Courtenay Pkwy  Merritt Island, FL 32952",
    "location": "Liberty"
  },
  {
    "name": "Firehouse Graphics & Signs",
    "description": "Signs",
    "phone": "(321) 454-9600",
    "address": " 285 N Courtenay Pkwy  Merritt Island, FL 32953",
    "location": "Liberty"
  },
  {
    "name": "My Island Designs",
    "description": "Internet Consultants",
    "phone": "(321) 301-4797",
    "address": " 517 N Courtenay Pkwy  Merritt Island, FL 32953",
    "location": "Liberty"
  },
  {
    "name": "Riverside Signs",
    "description": "Signs",
    "phone": "(321) 978-5092",
    "address": " 1050 N Cocoa Blvd  Cocoa, FL 32922",
    "location": "Liberty"
  },
  {
    "name": "Shawk Technology Inc.",
    "description": "Internet Marketing & Advertising",
    "phone": "(321) 506-9345",
    "address": " 330 Alabama Ave  Merritt Island, FL 32953",
    "location": "Liberty"
  },
  {
    "name": "FedEx Office Print & Ship Center",
    "description": "Copying & Duplicating Service",
    "phone": "(321) 453-4646",
    "address": " 650 E Merritt Island Cswy  Merritt Island, FL 32952",
    "location": "Liberty"
  },
  {
    "name": "Adfactor, Inc.",
    "description": "Internet Marketing & Advertising",
    "phone": "(877) 328-7552",
    "address": " 1129 N Courtenay Pkwy  Merritt Island, FL 32953",
    "location": "Liberty"
  },
  {
    "name": "Omni Digial Art",
    "description": "Advertising Specialties",
    "phone": "(321) 806-4128",
    "address": " 76 E Merritt Island Cswy Ste 207  Merritt Island, FL 32952",
    "location": "Liberty"
  },
  {
    "name": "Sign Lords",
    "description": "Signs",
    "phone": "(321) 877-2809",
    "address": " 131 N Courtenay Pkwy  Merritt Island, FL 32953",
    "location": "Liberty"
  },
  {
    "name": "A&B Graphics",
    "description": "Print Advertising",
    "phone": "(321) 631-1001",
    "address": " 843 N Cocoa Blvd  cocoa, FL 32922",
    "location": "Liberty"
  },
  {
    "name": "Jahnke Robert",
    "description": "Signs",
    "phone": "(321) 452-3038",
    "address": " 403 4th St  Merritt Island, FL 32953",
    "location": "Liberty"
  },
  {
    "name": "Graphic Details, Inc",
    "description": "Truck Painting & Lettering",
    "phone": "(321) 452-2101",
    "address": " 503 N Courtenay Pkwy  Merritt Island, FL 32953",
    "location": "Liberty"
  },
  {
    "name": "TJC Advertising",
    "description": "Signs",
    "phone": "(321) 459-1771",
    "address": " 2095 Mona Ct  Merritt Island, FL 32952",
    "location": "Liberty"
  },
  {
    "name": "Signs To Go",
    "description": "Magnets-Retail",
    "phone": "(321) 632-0669",
    "address": " 1491 N Cocoa Blvd  Cocoa, FL 32922",
    "location": "Liberty"
  },
  {
    "name": "Hollenback, Joseph E Jr",
    "description": "Signs",
    "phone": "(321) 632-0727",
    "address": " 205 Maplewood Blvd  Cocoa, FL 32926",
    "location": "Liberty"
  },
  {
    "name": "Space Coast Sales",
    "description": "Internet Marketing & Advertising",
    "phone": "(321) 453-7627",
    "address": " 1635 Yates Dr  Merritt Island, FL 32952",
    "location": "Liberty"
  },
  {
    "name": "Super Media Girl",
    "description": "Speakers, Lectures & Seminars",
    "phone": "(321) 258-5097",
    "address": " 3500 Funston Cir  Melbourne, FL 32940",
    "location": "Liberty"
  },
  {
    "name": "Drumup Media Group",
    "description": "Internet Marketing & Advertising",
    "phone": "(321) 505-4583",
    "address": " 1048 Carriage Hill Road  Melbourne, FL 32940",
    "location": "Liberty"
  },
  {
    "name": "Certified Internet Solutions",
    "description": "Internet Consultants",
    "phone": "(321) 412-6658",
    "address": " 530 Wickham Lakes Dr  Melbourne, FL 32940",
    "location": "Liberty"
  },
  {
    "name": "SearhCred Inc.",
    "description": "Internet Marketing & Advertising",
    "phone": "(855) 736-2723",
    "address": " 7777 N Wickham Rd  Melbourne, FL 32940",
    "location": "Liberty"
  },
  {
    "name": "FASTSIGNS",
    "description": "Signs",
    "phone": "(321) 610-7684",
    "address": " 7640 N Wickham Rd  Melbourne, FL 32940",
    "location": "Liberty"
  },
  {
    "name": "Mad Hatter Promotions",
    "description": "Internet Marketing & Advertising",
    "phone": "(321) 543-1346",
    "address": " 340 Myrtlewood Rd  Melbourne, FL 32940",
    "location": "Liberty"
  },
  {
    "name": "Time to Sign Inc",
    "description": "Advertising Specialties",
    "phone": "(321) 726-9466",
    "address": " 7215 Waelti Dr  Melbourne, FL 32940",
    "location": "Liberty"
  },
  {
    "name": "Sign Access",
    "description": "Signs-Maintenance & Repair",
    "phone": "(321) 752-9040",
    "address": " 7205 Waelti Dr  Melbourne, FL 32940",
    "location": "Liberty"
  },
  {
    "name": "Outdoor Images Inc",
    "description": "Signs",
    "phone": "(321) 710-6166",
    "address": " 3175 Grissom Parkway  Cocoa, FL 32926",
    "location": "Liberty"
  },
  {
    "name": "Safari Media Direct",
    "description": "Advertising Specialties",
    "phone": "(321) 877-3863",
    "address": " 3670 N Highway 1  Cocoa, FL 32926",
    "location": "Liberty"
  },
  {
    "name": "TipTopWebsite.com",
    "description": "Internet Marketing & Advertising",
    "phone": "(800) 753-5129",
    "address": " 2023 N Atlantic Ave  Cocoa Beach, FL 32931",
    "location": "Liberty"
  },
  {
    "name": "Accuprint Printing & Graphics",
    "description": "Signs",
    "phone": "(321) 428-0084",
    "address": " 2275 N Courtenay Pkwy Ste 3  Merritt Island, FL 32953",
    "location": "Liberty"
  },
  {
    "name": "Savings Safari",
    "description": "Direct Mail Advertising",
    "phone": "(321) 633-3060",
    "address": " 3670 N Highway 1  Cocoa, FL 32926",
    "location": "Liberty"
  },
  {
    "name": "Direct Graphix",
    "description": "Direct Mail Advertising",
    "phone": "(321) 633-3060",
    "address": " 3670 N Highway 1  Cocoa, FL 32926",
    "location": "Liberty"
  },
  {
    "name": "A1a Sign Wave Company",
    "description": "Signs",
    "phone": "(321) 799-1774",
    "address": " 11 Harbor Cir  Cocoa Beach, FL 32931",
    "location": "Liberty"
  },
  {
    "name": "Treefrog Data Solutions",
    "description": "Advertising Specialties",
    "phone": "(321) 784-6004",
    "address": " 1010 S Brevard Ave  Cocoa Beach, FL 32931",
    "location": "Liberty"
  },
  {
    "name": "Oddesigns",
    "description": "Signs",
    "phone": "(321) 613-5080",
    "address": " 8 N Brevard Ave  Cocoa Beach, FL 32931",
    "location": "Liberty"
  },
  {
    "name": "Digital Blades Marketing",
    "description": "Internet Marketing & Advertising",
    "phone": "(321) 613-8451",
    "address": " 428 S Orlando Avenue Unit C  Cocoa Beach, FL 32931",
    "location": "Liberty"
  },
  {
    "name": "Onsite123.com",
    "description": "Internet Marketing & Advertising",
    "phone": "(321) 392-0697",
    "address": " 2552 Meadow Ln  Cocoa, FL 32926",
    "location": "Liberty"
  },
  {
    "name": "Jeanos LLC",
    "description": "Internet Marketing & Advertising",
    "phone": "(321) 205-4334",
    "address": " 2023 N Atlantic Ave # 27  Cocoa Beach, FL 32931",
    "location": "Liberty"
  },
  {
    "name": "QMtel Communications",
    "description": "Computer Software & Services",
    "phone": "(321) 323-1436",
    "address": " 1980 N Atlantic Ave #121  Cocoa Beach, FL 32931",
    "location": "Liberty"
  },
  {
    "name": "Advanced Signs",
    "description": "Print Advertising",
    "phone": "(321) 720-3476",
    "address": " 6300 N Wickham Rd  Melbourne, FL 32940",
    "location": "Liberty"
  },
  {
    "name": "ODDesigns",
    "description": "Signs",
    "phone": "(321) 208-2725",
    "address": " 4364 N Atlantic Ave  Cocoa Beach, FL 32931",
    "location": "Liberty"
  },
  {
    "name": "9 Mile Media",
    "description": "Internet Marketing & Advertising",
    "phone": "(321) 613-4805",
    "address": " 103 Cleveland Ave  Cocoa Beach, FL 32931",
    "location": "Liberty"
  },
  {
    "name": "Pioneer Printing And Graphics",
    "description": "Printing Services",
    "phone": "(321) 868-0560",
    "address": " 6500 N Atlantic Ave  Cape Canaveral, FL 32920",
    "location": "Liberty"
  },
  {
    "name": "Advanced Graphics, Inc.",
    "description": "Signs",
    "phone": "(800) 927-8247",
    "address": " 342 Williams Point Blvd  Cocoa, FL 32927",
    "location": "Liberty"
  },
  {
    "name": "Mike Gulick's Signs (formerly Go Signs)",
    "description": "Signs-Maintenance & Repair",
    "phone": "(321) 784-5431",
    "address": " 8105 Canaveral Blvd  Cape Canaveral, FL 32920",
    "location": "Liberty"
  },
  {
    "name": "Porter World Trade",
    "description": "Advertising Specialties",
    "phone": "(321) 783-1649",
    "address": " 405 Atlantis Rd  Cape Canaveral, FL 32920",
    "location": "Liberty"
  },
  {
    "name": "DeSantis Digital Works LLC",
    "description": "Internet Marketing & Advertising",
    "phone": "(321) 626-4724",
    "address": " 2725 Center Pl  Melbourne, FL 32940",
    "location": "Liberty"
  },
  {
    "name": "Sign Man Inc",
    "description": "Advertising Specialties",
    "phone": "(321) 259-1703",
    "address": " 4580 N Us Highway 1  Melbourne, FL 32935",
    "location": "Liberty"
  },
  {
    "name": "Kaeser&Blair Authorized Dealer",
    "description": "Advertising Specialties",
    "phone": "(321) 272-5053",
    "address": " 4045A Parkway Dr.  Melbourne, FL 32934",
    "location": "Liberty"
  },
  {
    "name": "Century 2001 Screen Printing",
    "description": "Advertising Specialties",
    "phone": "(321) 777-3284",
    "address": " 110 Tomahawk Dr  Indian Harbour Beach, FL 32937",
    "location": "Liberty"
  },
  {
    "name": "BCreative",
    "description": "Digital Printing & Imaging",
    "phone": "(321) 728-0978",
    "address": " 748 North Dr  Melbourne, FL 32934",
    "location": "Liberty"
  },
  {
    "name": "Melvin Signs South",
    "description": "Signs",
    "phone": "(321) 327-3214",
    "address": " 989 Macco Rd  Cocoa, FL 32927",
    "location": "Liberty"
  },
  {
    "name": "American Screen Printers, LLC",
    "description": "Printers-Business Cards",
    "phone": "(321) 249-2771",
    "address": " 700 S John Rodes Blvd  Melbourne, FL 32904",
    "location": "Liberty"
  },
  {
    "name": "United Service Source Inc",
    "description": "Digital Printing & Imaging",
    "phone": "(321) 723-5395",
    "address": " 9145 Ellis Rd  Melbourne, FL 32904",
    "location": "Liberty"
  },
  {
    "name": "Mahalo Marketing",
    "description": "Internet Marketing & Advertising",
    "phone": "(321) 305-3636",
    "address": " 607 Manatee Dr  Satellite Beach, FL 32937",
    "location": "Liberty"
  },
  {
    "name": "Big B Marketing",
    "description": "Internet Marketing & Advertising",
    "phone": "(321) 775-3995",
    "address": " 455 Atlantis Dr  Satellite Beach, FL 32937",
    "location": "Liberty"
  },
  {
    "name": "New Generation Graphics and Signs",
    "description": "Signs",
    "phone": "(321) 610-1687",
    "address": " 2447 N Wickham Rd  Melbourne, FL 32935",
    "location": "Liberty"
  },
  {
    "name": "E-Juice Connoisseur",
    "description": "Advertising-Shoppers Publications",
    "phone": "(321) 432-8631",
    "address": " 2364 Eden Park Dr  Melbourne, FL 32935",
    "location": "Liberty"
  },
  {
    "name": "Stand Out Printing",
    "description": "Printers-Business Cards",
    "phone": "(321) 610-7890",
    "address": " 2740 N Harbor City Blvd  Melbourne, FL 32935",
    "location": "Liberty"
  },
  {
    "name": "The Paramount Group.us",
    "description": "Internet Marketing & Advertising",
    "phone": "(321) 238-8225",
    "address": " 1110 Highway A1A  Satellite Beach, FL 32937",
    "location": "Liberty"
  },
  {
    "name": "Nautic Studios",
    "description": "Web Site Hosting",
    "phone": "(321) 684-7460",
    "address": " 2800 Aurora Rd STE I  Melbourne, FL 32935",
    "location": "Liberty"
  },
  {
    "name": "Brevard's Local Thrifty Nickel",
    "description": "Advertising Specialties",
    "phone": "(321) 610-7729",
    "address": " 2525 Aurora Rd  Melbourne, FL 32935",
    "location": "Liberty"
  },
  {
    "name": "Pah Constructors",
    "description": "Signs",
    "phone": "(321) 253-1402",
    "address": " 5101 W Eau Gallie Blvd  Melbourne, FL 32934",
    "location": "Liberty"
  },
  {
    "name": "Abornewords",
    "description": "Internet Marketing & Advertising",
    "phone": "(321) 265-1461",
    "address": " 1040 Masterson St  Melbourne, FL 32935",
    "location": "Liberty"
  },
  {
    "name": "New Generation Graphics",
    "description": "Graphic Designers",
    "phone": "(321) 610-1687",
    "address": " 1973 Guava Ave  Melbourne, FL 32935",
    "location": "Liberty"
  },
  {
    "name": "Blue Tangerine",
    "description": "Web Site Design & Services",
    "phone": "(321) 309-6900",
    "address": " 2020 W Eau Gallie Blvd Ste 105  Melbourne, FL 32935",
    "location": "Liberty"
  },
  {
    "name": "ThisSign4Rent.com",
    "description": "Signs",
    "phone": "(321) 249-0093",
    "address": " 751 North Dr Ste 4  Melbourne, FL 32934",
    "location": "Liberty"
  },
  {
    "name": "Custom Button Company",
    "description": "Magnets-Retail",
    "phone": "(352) 390-3081",
    "address": " 1500 W Eau Gallie Blvd  Melbourne, FL 32935",
    "location": "Liberty"
  },
  {
    "name": "Sign Pro",
    "description": "Signs",
    "phone": "(321) 914-5767",
    "address": " 2380 Sarno Rd  Melbourne, FL 32935",
    "location": "Liberty"
  },
  {
    "name": "Sign Depot Brevard Company Inc",
    "description": "Signs",
    "phone": "(321) 777-1681",
    "address": " 1845 S Patrick Dr  Indian Harbour Beach, FL 32937",
    "location": "Liberty"
  },
  {
    "name": "PJ Cycles",
    "description": "Motorcycle Customizing",
    "phone": "(321) 241-4977",
    "address": " 500 North Dr Ste 7  Melbourne, FL 32934",
    "location": "Liberty"
  },
  {
    "name": "Bocin International",
    "description": "Advertising-Promotional Products",
    "phone": "(321) 777-7500",
    "address": " 1680 Highway A1a  Satellite Beach, FL 32937",
    "location": "Liberty"
  },
  {
    "name": "Your Logo by Geiger",
    "description": "Clothing Stores",
    "phone": "(321) 259-4266",
    "address": " 720 Saint Clair St  Melbourne, FL 32935",
    "location": "Liberty"
  },
  {
    "name": "Boatmat Corporation Embroidery Services",
    "description": "Embroidery",
    "phone": "(321) 751-4636",
    "address": " 1420 Cypress Ave  Melbourne, FL 32935",
    "location": "Liberty"
  },
  {
    "name": "Vox Monkey",
    "description": "Marketing Programs & Services",
    "phone": "(407) 963-8460",
    "address": " 390 N Wickham Rd Ste G  Melbourne, FL 32935",
    "location": "Liberty"
  },
  {
    "name": "Mandala Arts LLC",
    "description": "Internet Marketing & Advertising",
    "phone": "(321) 626-3561",
    "address": " 1600 Sarno Rd Ste 117  Melbourne, FL 32935",
    "location": "Liberty"
  },
  {
    "name": "Apartment Promotions Inc",
    "description": "Direct Mail Advertising",
    "phone": "(321) 757-9209",
    "address": " 1600 Sarno Rd  Melbourne, FL 32935",
    "location": "Liberty"
  },
  {
    "name": "Promotional Plus Inc.",
    "description": "Advertising-Promotional Products",
    "phone": "(321) 327-5694",
    "address": " Po Box 120604  Melbourne, FL 32912",
    "location": "Liberty"
  },
  {
    "name": "Moana Creative Marketing",
    "description": "Internet Marketing & Advertising",
    "phone": "(321) 622-0181",
    "address": " 1010 Pinetree Dr Apt 205  Indian Harbour Beach, FL 32937",
    "location": "Liberty"
  },
  {
    "name": "Next Level Digital Media & Marketing",
    "description": "Internet Marketing & Advertising",
    "phone": "(321) 213-3553",
    "address": " 255 East Dr Ste L  Melbourne, FL 32904",
    "location": "Liberty"
  },
  {
    "name": "Signs of Sunshine",
    "description": "Signs",
    "phone": "(321) 676-8688",
    "address": " 420 Stan Dr  Melbourne, FL 32904",
    "location": "Liberty"
  },
  {
    "name": "A Affordable Sign Co Of Central Florida",
    "description": "Engraving",
    "phone": "(321) 724-2266",
    "address": " 9100 Ellis Rd  Melbourne, FL 32904",
    "location": "Liberty"
  },
  {
    "name": "Space Coast Graphics And Signs",
    "description": "Signs",
    "phone": "(321) 914-0878",
    "address": " 700 S John Rodes Blvd  Melbourne, FL 32904",
    "location": "Liberty"
  },
  {
    "name": "one stop signs and printing",
    "description": "Signs-Maintenance & Repair",
    "phone": "(321) 914-0878",
    "address": " 700 S John Rodes Blvd  Melbourne, FL 32904",
    "location": "Liberty"
  },
  {
    "name": "Wayfast Signs Banners",
    "description": "Graphic Designers",
    "phone": "(321) 728-4181",
    "address": " 448 N Harbor City Blvd  Melbourne, FL 32935",
    "location": "Liberty"
  },
  {
    "name": "The Florida Design Group",
    "description": "Web Site Design & Services",
    "phone": "(321) 541-1425",
    "address": " 218a E Eau Gallie Blvd # 165  Indian Harbour Beach, FL 32937",
    "location": "Liberty"
  },
  {
    "name": "Www.woodsimplymade.com",
    "description": "Internet Marketing & Advertising",
    "phone": "(321) 506-4434",
    "address": " 692 Atlantis Rd  Melbourne, FL 32904",
    "location": "Liberty"
  },
  {
    "name": "World Search Design",
    "description": "Internet Marketing & Advertising",
    "phone": "(703) 473-8121",
    "address": " 520 Conifer St  Melbourne, FL 32904",
    "location": "Liberty"
  },
  {
    "name": "Rock Paper Simple",
    "description": "Web Site Design & Services",
    "phone": "(321) 626-2172",
    "address": " 1335 Gateway Dr Suite 2007  Melbourne, FL 32901",
    "location": "Liberty"
  },
  {
    "name": "Direct Ads",
    "description": "Direct Mail Advertising",
    "phone": "(321) 268-3039",
    "address": " 520 Twin Lakes Dr  Titusville, FL 32780",
    "location": "Liberty"
  },
  {
    "name": "SEO Experts Inc",
    "description": "Internet Marketing & Advertising",
    "phone": "(321) 613-1316",
    "address": " 100 Rialto Pl Ste 711  Melbourne, FL 32901",
    "location": "Liberty"
  },
  {
    "name": "Launchworks Marketing",
    "description": "Internet Marketing & Advertising",
    "phone": "(321) 988-4769",
    "address": " 100 Rialto Pl Ste 700  Melbourne, FL 32901",
    "location": "Liberty"
  },
  {
    "name": "Ellison Signs and Art",
    "description": "Signs",
    "phone": "(321) 722-3416",
    "address": " 1705 S Harbor City Blvd  Melbourne, FL 32901",
    "location": "Liberty"
  }
]
