[
  {
    "name": "Decision Management International",
    "description": "Advertising Agencies",
    "phone": "(941) 748-8100",
    "address": " 1111 3rd St W  Bradenton, FL 34205",
    "location": "Manatee"
  },
  {
    "name": "Net Sphere",
    "description": "Advertising Agencies",
    "phone": "(941) 300-0531",
    "address": " 1201 6th Ave W  Bradenton, FL 34205",
    "location": "Manatee"
  },
  {
    "name": "Offercio",
    "description": "Advertising Agencies",
    "phone": "(866) 932-3250",
    "address": " 1201 6th Ave W Ste 100  Bradenton, FL 34205",
    "location": "Manatee"
  },
  {
    "name": "Movers Digital Marketers",
    "description": "Advertising Agencies",
    "phone": "(941) 600-7323",
    "address": " 1201 6th Ave W  Bradenton, FL 34205",
    "location": "Manatee"
  },
  {
    "name": "Straight Line Services",
    "description": "Advertising Agencies",
    "phone": "(941) 746-6117",
    "address": " 1505 6th Ave W  Bradenton, FL 34205",
    "location": "Manatee"
  },
  {
    "name": "Suncheer Marketing",
    "description": "Advertising Agencies",
    "phone": "(941) 751-6376",
    "address": " 1013 47th Ave E  Bradenton, FL 34203",
    "location": "Manatee"
  },
  {
    "name": "K D Marketing",
    "description": "Advertising Agencies",
    "phone": "(941) 756-0640",
    "address": " 3611 Cambridge Dr W  Bradenton, FL 34205",
    "location": "Manatee"
  },
  {
    "name": "F 1 Consultations Inc",
    "description": "Advertising Agencies",
    "phone": "(941) 896-8876",
    "address": " 1077 57th Ave W  Bradenton, FL 34207",
    "location": "Manatee"
  },
  {
    "name": "Atlas Solutions",
    "description": "Advertising Agencies",
    "phone": "(941) 727-1014",
    "address": " 2071 58th Avenue Cir E  Bradenton, FL 34203",
    "location": "Manatee"
  },
  {
    "name": "Printavizion",
    "description": "Advertising Agencies",
    "phone": "(813) 803-5200",
    "address": " 4524 Marlin Ln  Palmetto, FL 34221",
    "location": "Manatee"
  },
  {
    "name": "Reel Deal Advertising",
    "description": "Advertising Agencies",
    "phone": "(877) 899-7865",
    "address": " 6728 26th St W  Bradenton, FL 34207",
    "location": "Manatee"
  },
  {
    "name": "Rooks Advertising",
    "description": "Advertising Agencies",
    "phone": "(941) 747-2021",
    "address": " 6170 State Road 70 E  Bradenton, FL 34203",
    "location": "Manatee"
  },
  {
    "name": "The Waterlefe Directory",
    "description": "Advertising Agencies",
    "phone": "(941) 708-6734",
    "address": " 512 Mossy Branch Ln  Bradenton, FL 34212",
    "location": "Manatee"
  },
  {
    "name": "My Corner Now.Com",
    "description": "Advertising Agencies",
    "phone": "(941) 755-9600",
    "address": " 5454 Lena Rd Unit 106  Bradenton, FL 34211",
    "location": "Manatee"
  },
  {
    "name": "Cactus Sky Communicationss",
    "description": "Advertising Agencies",
    "phone": "(941) 756-1932",
    "address": " 5454 Lena Rd Unit 104  Bradenton, FL 34211",
    "location": "Manatee"
  },
  {
    "name": "Local Digital First",
    "description": "Advertising Agencies",
    "phone": "(941) 777-7701",
    "address": " 11015 Gatewood Dr  Bradenton, FL 34211",
    "location": "Manatee"
  },
  {
    "name": "Ad Exact Advertising",
    "description": "Advertising Agencies",
    "phone": "(941) 777-7701",
    "address": " 11015 Gatewood Dr  Bradenton, FL 34211",
    "location": "Manatee"
  },
  {
    "name": "Mp Usa",
    "description": "Advertising Agencies",
    "phone": "(941) 727-7700",
    "address": " 2319 72nd Ave E  Sarasota, FL 34243",
    "location": "Manatee"
  },
  {
    "name": "Marketing By Design",
    "description": "Advertising Agencies",
    "phone": "(941) 907-6060",
    "address": " 6504 Palm Leaf Ct  Sarasota, FL 34243",
    "location": "Manatee"
  },
  {
    "name": "Valpak",
    "description": "Advertising Agencies",
    "phone": "(941) 776-8019",
    "address": " 2802 89th Ave E  Parrish, FL 34219",
    "location": "Manatee"
  },
  {
    "name": "Cpm Us",
    "description": "Advertising Agencies",
    "phone": "(941) 351-7583",
    "address": " 7425 16th St E  Sarasota, FL 34243",
    "location": "Manatee"
  },
  {
    "name": "Nuestar Mobile Marketing",
    "description": "Advertising Agencies",
    "phone": "(727) 560-9698",
    "address": " 5207 72nd St E  Palmetto, FL 34221",
    "location": "Manatee"
  },
  {
    "name": "Glass Advertising Inc",
    "description": "Advertising Agencies",
    "phone": "(941) 351-4516",
    "address": " 8051 N Tamiami Trl  Sarasota, FL 34243",
    "location": "Manatee"
  },
  {
    "name": "McClay Inglesby Advertising",
    "description": "Advertising Agencies",
    "phone": "(727) 906-4320",
    "address": " 2167 Vivian Way S  Saint Petersburg, FL 33712",
    "location": "Manatee"
  },
  {
    "name": "Sirius Advertising Inc",
    "description": "Advertising Agencies",
    "phone": "(727) 865-0033",
    "address": " 500 Jasmine Way S  Saint Petersburg, FL 33705",
    "location": "Manatee"
  },
  {
    "name": "Palm Bay Advertising, Inc",
    "description": "Advertising Agencies",
    "phone": "(813) 586-1685",
    "address": " 3695 40th St S  Saint Petersburg, FL 33711",
    "location": "Manatee"
  },
  {
    "name": "Helinger Advertising",
    "description": "Advertising-Promotional Products",
    "phone": "(727) 327-3333",
    "address": " 4201 Central Ave  Saint Petersburg, FL 33713",
    "location": "Manatee"
  },
  {
    "name": "Advertising Associates corp",
    "description": "Advertising Specialties",
    "phone": "(727) 800-8077",
    "address": " 360 Central ave ste 800  Saint Petersburg, FL 33701",
    "location": "Manatee"
  },
  {
    "name": "Wilson Media & Advertising",
    "description": "Advertising Agencies",
    "phone": "(727) 894-6100",
    "address": " 300 3rd Ave N  Saint Petersburg, FL 33701",
    "location": "Manatee"
  },
  {
    "name": "Resseguie Advertising",
    "description": "Advertising Agencies",
    "phone": "(813) 642-0606",
    "address": " 2203 N Creek Ct  Sun City Center, FL 33573",
    "location": "Manatee"
  },
  {
    "name": "Paradise Advertising & Marketing",
    "description": "Advertising Agencies",
    "phone": "(727) 821-5155",
    "address": " 5999 Central Ave  Saint Petersburg, FL 33710",
    "location": "Manatee"
  },
  {
    "name": "Advantage Indoor Advertising",
    "description": "Advertising Agencies",
    "phone": "(727) 800-2600",
    "address": " 6100 Central Ave  Saint Petersburg, FL 33707",
    "location": "Manatee"
  },
  {
    "name": "Paradise Advertising & Marketing, Inc.",
    "description": "Marketing Programs & Services",
    "phone": "(727) 821-5155",
    "address": " 150 2nd Ave N Ste 800  Saint Petersburg, FL 33701",
    "location": "Manatee"
  },
  {
    "name": "Godfrey Design & Advertising",
    "description": "Advertising Specialties",
    "phone": "(727) 579-1899",
    "address": " 275 96th Ave N Ste 7  Saint Petersburg, FL 33702",
    "location": "Manatee"
  },
  {
    "name": "Phoenix Advertising Graphics",
    "description": "Screen Printing",
    "phone": "(813) 642-0002",
    "address": " 6101 Adamsville Rd  Gibsonton, FL 33534",
    "location": "Manatee"
  },
  {
    "name": "Advertising & Marketing Spec",
    "description": "Advertising Agencies",
    "phone": "(727) 527-6419",
    "address": " 4906 33rd Ave N  Saint Petersburg, FL 33710",
    "location": "Manatee"
  },
  {
    "name": "Phoenix Advertising",
    "description": "Advertising Agencies",
    "phone": "(813) 642-0002",
    "address": " 11542 Sumner Rd  Wimauma, FL 33598",
    "location": "Manatee"
  },
  {
    "name": "Gulf Bay Advertising",
    "description": "Advertising Specialties",
    "phone": "(727) 289-4508",
    "address": " 11600 7th St E  Treasure Island, FL 33706",
    "location": "Manatee"
  },
  {
    "name": "Bob Advertising & Design",
    "description": "Advertising Agencies",
    "phone": "(727) 577-0760",
    "address": " 9413 Treasure Ln NE  Saint Petersburg, FL 33702",
    "location": "Manatee"
  },
  {
    "name": "Adventures In Advertising",
    "description": "Advertising Specialties",
    "phone": "(727) 578-3633",
    "address": " 843 93rd Ave N  Saint Petersburg, FL 33702",
    "location": "Manatee"
  },
  {
    "name": "World Advertising Of Florida",
    "description": "Advertising-Promotional Products",
    "phone": "(813) 831-9058",
    "address": " 4623 W Leona St  Tampa, FL 33629",
    "location": "Manatee"
  },
  {
    "name": "Berlin Outdoor Advertising",
    "description": "Outdoor Advertising",
    "phone": "(941) 488-1314",
    "address": " 240 Bahama St.  Venice, FL 34285",
    "location": "Manatee"
  },
  {
    "name": "Chris Dixon Advertising Consultant",
    "description": "Business Coaches & Consultants",
    "phone": "(727) 579-2219",
    "address": " 11300 4th St N  Saint Petersburg, FL 33716",
    "location": "Manatee"
  },
  {
    "name": "Fleming Advertising",
    "description": "Advertising Agencies",
    "phone": "(727) 374-6845",
    "address": " 167 114th Ave NE  Saint Petersburg, FL 33716",
    "location": "Manatee"
  },
  {
    "name": "Dolphin Bay Advertising",
    "description": "Advertising-Broadcast & Film",
    "phone": "(813) 839-2626",
    "address": " 6102 S Macdill Ave Ste G  Tampa, FL 33611",
    "location": "Manatee"
  },
  {
    "name": "Advertising & Marketing Co",
    "description": "Advertising Agencies",
    "phone": "(813) 832-2724",
    "address": " 4836 W Gandy Blvd  Tampa, FL 33611",
    "location": "Manatee"
  },
  {
    "name": "Doner Advertising",
    "description": "Advertising Specialties",
    "phone": "(813) 741-9967",
    "address": " 8303 Moccasin Trail Dr  Riverview, FL 33578",
    "location": "Manatee"
  },
  {
    "name": "Distinctive Impressions Advertising & Promotions",
    "description": "Marketing Programs & Services",
    "phone": "(813) 672-2573",
    "address": " 11705 Boyette Rd # 414  Riverview, FL 33569",
    "location": "Manatee"
  },
  {
    "name": "Media Impact Advertising",
    "description": "Advertising Agencies",
    "phone": "(727) 536-3342",
    "address": " 13825 Icot Blvd  Clearwater, FL 33760",
    "location": "Manatee"
  },
  {
    "name": "Southeast Advertising Inc",
    "description": "Advertising Agencies",
    "phone": "(727) 530-1603",
    "address": " 14001 63rd Way N  Clearwater, FL 33760",
    "location": "Manatee"
  },
  {
    "name": "On Ideas",
    "description": "Advertising Agencies",
    "phone": "(941) 365-2710",
    "address": " 1605 Main St  Sarasota, FL 34236",
    "location": "Manatee"
  },
  {
    "name": "Positively Main Street Graphics Advertising Art & Design",
    "description": "Advertising Agencies",
    "phone": "(941) 366-4959",
    "address": " 1460 Main St  Sarasota, FL 34236",
    "location": "Manatee"
  },
  {
    "name": "Nextiny Marketing",
    "description": "Advertising Agencies",
    "phone": "(941) 870-0623",
    "address": " 1819 Main St Ste 235  Sarasota, FL 34236",
    "location": "Manatee"
  },
  {
    "name": "Baskerville Swirles & Ward",
    "description": "Advertising Agencies",
    "phone": "(941) 366-3888",
    "address": " 1740 Main St  Sarasota, FL 34236",
    "location": "Manatee"
  },
  {
    "name": "Next-Mark",
    "description": "Advertising Agencies",
    "phone": "(941) 544-2765",
    "address": " 40 S Pineapple Ave  Sarasota, FL 34236",
    "location": "Manatee"
  },
  {
    "name": "Genuity Group",
    "description": "Advertising Agencies",
    "phone": "(941) 955-1800",
    "address": " 1991 Main St Ste 248  Sarasota, FL 34236",
    "location": "Manatee"
  },
  {
    "name": "Spredx",
    "description": "Advertising Agencies",
    "phone": "(941) 227-4857",
    "address": " 1343 Main St Ste 312  Sarasota, FL 34236",
    "location": "Manatee"
  },
  {
    "name": "RevSurge Digital",
    "description": "Advertising Agencies",
    "phone": "(941) 402-7442",
    "address": " 1343 Main St Ste 705  Sarasota, FL 34236",
    "location": "Manatee"
  },
  {
    "name": "Modus Direct",
    "description": "Advertising Agencies",
    "phone": "(941) 552-6770",
    "address": " 1343 Main St Ste 301  Sarasota, FL 34236",
    "location": "Manatee"
  },
  {
    "name": "Acrobatrix Worldwide",
    "description": "Advertising Agencies",
    "phone": "(941) 953-9155",
    "address": " 1962 Main St  Sarasota, FL 34236",
    "location": "Manatee"
  },
  {
    "name": "Ad Nerds Media",
    "description": "Advertising Agencies",
    "phone": "(941) 244-5015",
    "address": " 1990 Main St  Sarasota, FL 34236",
    "location": "Manatee"
  },
  {
    "name": "Cheetah Agency",
    "description": "Advertising Agencies",
    "phone": "(941) 662-4242",
    "address": " 1990 Main St  Sarasota, FL 34236",
    "location": "Manatee"
  },
  {
    "name": "Smith And Associates Advertising",
    "description": "Advertising Agencies",
    "phone": "(941) 355-7900",
    "address": " 33 S Palm Ave  Sarasota, FL 34236",
    "location": "Manatee"
  },
  {
    "name": "Links Management Inc",
    "description": "Advertising Agencies",
    "phone": "(941) 366-2086",
    "address": " 22 S Links Ave  Sarasota, FL 34236",
    "location": "Manatee"
  },
  {
    "name": "Inter Ad Agency",
    "description": "Advertising Agencies",
    "phone": "(941) 365-5200",
    "address": " 45 S Palm Ave  Sarasota, FL 34236",
    "location": "Manatee"
  },
  {
    "name": "Gulf Rayz Media",
    "description": "Advertising Agencies",
    "phone": "(941) 364-4300",
    "address": " 2170 Main St Ste 103  Sarasota, FL 34237",
    "location": "Manatee"
  },
  {
    "name": "Infinity Designs & The Logo Shop",
    "description": "Advertising Agencies",
    "phone": "(941) 373-9797",
    "address": " 1938 Adams Ln  Sarasota, FL 34236",
    "location": "Manatee"
  },
  {
    "name": "Mosiac Studios Inc",
    "description": "Advertising Agencies",
    "phone": "(941) 907-9639",
    "address": " 7307 Merchant Ct  Lakewood Ranch, FL 34240",
    "location": "Manatee"
  },
  {
    "name": "Adgals Inc",
    "description": "Advertising Agencies",
    "phone": "(941) 554-8245",
    "address": " 533 S Pineapple Ave  Sarasota, FL 34236",
    "location": "Manatee"
  },
  {
    "name": "Logan & Long Inc",
    "description": "Advertising Agencies",
    "phone": "(941) 366-0995",
    "address": " 1902 Oak St  Sarasota, FL 34236",
    "location": "Manatee"
  },
  {
    "name": "Made U Look Promotions",
    "description": "Advertising Agencies",
    "phone": "(941) 343-9070",
    "address": " 1467 Georgetowne Dr  Sarasota, FL 34232",
    "location": "Manatee"
  },
  {
    "name": "Cc Direct",
    "description": "Advertising Agencies",
    "phone": "(941) 552-6770",
    "address": " 7361 International Pl  Lakewood Ranch, FL 34240",
    "location": "Manatee"
  },
  {
    "name": "New Vision Advertising",
    "description": "Advertising Agencies",
    "phone": "(941) 366-3757",
    "address": " 1751 Mound St  Sarasota, FL 34236",
    "location": "Manatee"
  },
  {
    "name": "Grapevine Communication",
    "description": "Advertising Agencies",
    "phone": "(941) 351-0024",
    "address": " 5201 Paylor Ln  Lakewood Ranch, FL 34240",
    "location": "Manatee"
  },
  {
    "name": "Key Advertising",
    "description": "Advertising Agencies",
    "phone": "(941) 377-3488",
    "address": " 1415 Ranchero Dr  Sarasota, FL 34240",
    "location": "Manatee"
  },
  {
    "name": "Knight Marketing",
    "description": "Advertising Agencies",
    "phone": "(941) 361-3070",
    "address": " 2032 Hawthorne St  Sarasota, FL 34239",
    "location": "Manatee"
  },
  {
    "name": "RSVP Advertising of Sarasota",
    "description": "Advertising Agencies",
    "phone": "(941) 360-2145",
    "address": " 16535 County Road 675  Parrish, FL 34219",
    "location": "Manatee"
  },
  {
    "name": "Edelsbacher Design Group Inc",
    "description": "Advertising Agencies",
    "phone": "(941) 925-4921",
    "address": " 430 N Cattlemen Rd  Sarasota, FL 34232",
    "location": "Manatee"
  },
  {
    "name": "Simply Strategy",
    "description": "Advertising Agencies",
    "phone": "(941) 320-3182",
    "address": " 1837 Mid Ocean Cir  Sarasota, FL 34239",
    "location": "Manatee"
  },
  {
    "name": "Lifejackets Productions",
    "description": "Advertising Agencies",
    "phone": "(941) 927-6500",
    "address": " 3250 Espanola Dr  Sarasota, FL 34239",
    "location": "Manatee"
  },
  {
    "name": "Drive Digital Group",
    "description": "Advertising Agencies",
    "phone": "(941) 379-0002",
    "address": " 371 Interstate Blvd  Sarasota, FL 34240",
    "location": "Manatee"
  },
  {
    "name": "Healthcare Management Dcsns",
    "description": "Advertising Agencies",
    "phone": "(941) 346-1030",
    "address": " 3336 Higel Ave  Sarasota, FL 34242",
    "location": "Manatee"
  },
  {
    "name": "SEO Counselors",
    "description": "Advertising Agencies",
    "phone": "(941) 444-6099",
    "address": " 3230 Southgate Circle Suite #102  Sarasota, FL 34236",
    "location": "Manatee"
  },
  {
    "name": "Triple M Media Inc",
    "description": "Advertising Agencies",
    "phone": "(941) 323-7080",
    "address": " 6222 Tower Ln  Sarasota, FL 34240",
    "location": "Manatee"
  },
  {
    "name": "GT Alliance",
    "description": "Advertising Agencies",
    "phone": "(941) 726-0486",
    "address": " 999 Cattlemen Rd  Sarasota, FL 34232",
    "location": "Manatee"
  },
  {
    "name": "Leedom Group",
    "description": "Advertising Agencies",
    "phone": "(941) 955-1597",
    "address": " 3700 S Tamiami Trl Ste 1  Sarasota, FL 34239",
    "location": "Manatee"
  },
  {
    "name": "Admart Media",
    "description": "Advertising Agencies",
    "phone": "(941) 487-8825",
    "address": " 15 Paradise Plz Fl 34239  Sarasota, FL 34239",
    "location": "Manatee"
  },
  {
    "name": "Premium Advertising",
    "description": "Advertising Agencies",
    "phone": "(941) 702-8607",
    "address": " 1235 Sarasota Center Blvd  Sarasota, FL 34240",
    "location": "Manatee"
  },
  {
    "name": "Nielubowicz & Associates Inc",
    "description": "Advertising Agencies",
    "phone": "(941) 924-5077",
    "address": " 1900 Glengary St  Sarasota, FL 34231",
    "location": "Manatee"
  },
  {
    "name": "Brown Pine Cone",
    "description": "Advertising Agencies",
    "phone": "(941) 999-1399",
    "address": " 6321 Porter Rd Ste 4  Sarasota, FL 34240",
    "location": "Manatee"
  },
  {
    "name": "KSC Inc",
    "description": "Advertising Agencies",
    "phone": "(941) 906-1555",
    "address": " 40 Sarasota Center Blvd  Sarasota, FL 34240",
    "location": "Manatee"
  },
  {
    "name": "Fpra",
    "description": "Advertising Agencies",
    "phone": "(941) 365-2135",
    "address": " 40 Sarasota Center Blvd  Sarasota, FL 34240",
    "location": "Manatee"
  },
  {
    "name": "Bbhw Media Group",
    "description": "Advertising Agencies",
    "phone": "(941) 377-2249",
    "address": " 2147 Porter Lake Dr  Sarasota, FL 34240",
    "location": "Manatee"
  },
  {
    "name": "World Consumer Alliance",
    "description": "Advertising Agencies",
    "phone": "(941) 444-7184",
    "address": " 2201 Cantu Ct Ste 102  Sarasota, FL 34232",
    "location": "Manatee"
  },
  {
    "name": "Confluent Creative",
    "description": "Advertising Agencies",
    "phone": "(941) 722-0317",
    "address": " 717 Manatee Ave W Ste 100  Bradenton, FL 34205",
    "location": "Manatee"
  },
  {
    "name": "Nolan Group",
    "description": "Advertising Agencies",
    "phone": "(941) 744-0660",
    "address": " 431 12th St W Unit 203  Bradenton, FL 34205",
    "location": "Manatee"
  },
  {
    "name": "Deckard & Company",
    "description": "Advertising Agencies",
    "phone": "(941) 462-4546",
    "address": " 1201 6th Ave W Ste 100  Bradenton, FL 34205",
    "location": "Manatee"
  },
  {
    "name": "Image360 Bradenton",
    "description": "Advertising Agencies",
    "phone": "(941) 792-4453",
    "address": " 4230 26th St W  Bradenton, FL 34205",
    "location": "Manatee"
  },
  {
    "name": "NF Creative Solutions",
    "description": "Advertising Agencies",
    "phone": "(941) 780-0702",
    "address": " 3409 Cortez Rd W  Bradenton, FL 34210",
    "location": "Manatee"
  },
  {
    "name": "TruReach Marketing",
    "description": "Advertising Agencies",
    "phone": "(888) 315-4769",
    "address": " 7322 Manatee Ave W  Bradenton, FL 34209",
    "location": "Manatee"
  },
  {
    "name": "Beach Lion Studios",
    "description": "Advertising Agencies",
    "phone": "(727) 207-1108",
    "address": " Po Box 416  Ellenton, FL 34222",
    "location": "Manatee"
  },
  {
    "name": "Construction Marketing Inc.",
    "description": "Advertising Agencies",
    "phone": "(941) 312-7801",
    "address": " 2526 Trailmate Dr  Sarasota, FL 34243",
    "location": "Manatee"
  },
  {
    "name": "Vivid Studios",
    "description": "Advertising Agencies",
    "phone": "(941) 896-5219",
    "address": " 2524 Trailmate Dr  Sarasota, FL 34243",
    "location": "Manatee"
  },
  {
    "name": "5 For Fighting",
    "description": "Advertising Agencies",
    "phone": "(941) 744-7599",
    "address": " 8205 Haven Harbour Way  Bradenton, FL 34212",
    "location": "Manatee"
  },
  {
    "name": "Bell Graphics",
    "description": "Advertising Agencies",
    "phone": "(941) 792-6030",
    "address": " 10226 46th Ave W  Bradenton, FL 34210",
    "location": "Manatee"
  },
  {
    "name": "Blue Diamond Webs",
    "description": "Advertising Agencies",
    "phone": "(907) 355-8883",
    "address": " 8111 Lemonwood Dr. South  Ellenton, FL 34222",
    "location": "Manatee"
  },
  {
    "name": "Dock29 Marketing",
    "description": "Advertising Agencies",
    "phone": "(941) 776-1925",
    "address": " 3823 91st Ave E  Parrish, FL 34219",
    "location": "Manatee"
  },
  {
    "name": "WebSearchFX",
    "description": "Advertising Agencies",
    "phone": "(941) 877-0205",
    "address": " 12715 Nightshade Pl  Bradenton, FL 34202",
    "location": "Manatee"
  },
  {
    "name": "Fox Business Group",
    "description": "Advertising Agencies",
    "phone": "(941) 758-2404",
    "address": " 6004 93rd Street Cir E  Bradenton, FL 34202",
    "location": "Manatee"
  },
  {
    "name": "Blue Wave Multi Media Advertising",
    "description": "Advertising Agencies",
    "phone": "(800) 253-1272",
    "address": " 11523 Saw Palm Creek Trl  Bradenton, FL 34211",
    "location": "Manatee"
  },
  {
    "name": "Foster Business Development, LLC",
    "description": "Advertising Agencies",
    "phone": "(941) 962-3827",
    "address": " 8374 Market St # 189  Lakewood Ranch, FL 34202",
    "location": "Manatee"
  },
  {
    "name": "SignZoo",
    "description": "Advertising Agencies",
    "phone": "(941) 355-5653",
    "address": " 4139 N Washington Blvd  Sarasota, FL 34234",
    "location": "Manatee"
  },
  {
    "name": "99 Calls",
    "description": "Advertising Agencies",
    "phone": "(800) 717-4669",
    "address": " 10930 State Road 70 E  Lakewood Ranch, FL 34202",
    "location": "Manatee"
  },
  {
    "name": "Aker Marketing",
    "description": "Advertising Agencies",
    "phone": "(941) 552-7890",
    "address": " 9040 Town Center Pkwy  Lakewood Ranch, FL 34202",
    "location": "Manatee"
  },
  {
    "name": "Valpak of The Suncoast",
    "description": "Advertising Agencies",
    "phone": "(941) 776-8838",
    "address": " 8374 Market St # 157  Lakewood Ranch, FL 34202",
    "location": "Manatee"
  },
  {
    "name": "Frankly",
    "description": "Advertising Agencies",
    "phone": "(732) 682-6164",
    "address": " Address On File With Bbb  Sarasota, FL 34235",
    "location": "Manatee"
  },
  {
    "name": "Main Street Search Marketing",
    "description": "Advertising Agencies",
    "phone": "(844) 326-4080",
    "address": " 8130 Lakewood Main St, #321  Lakewood Ranch, FL 34202",
    "location": "Manatee"
  },
  {
    "name": "AlignDESIGN",
    "description": "Advertising Agencies",
    "phone": "(941) 747-2051",
    "address": " 307 167th Blvd ne  Bradenton, FL 34212",
    "location": "Manatee"
  },
  {
    "name": "NetReputation",
    "description": "Advertising Agencies",
    "phone": "(941) 229-3696",
    "address": " 1100 N Tuttle Ave  Sarasota, FL 34237",
    "location": "Manatee"
  },
  {
    "name": "Relativity SEO",
    "description": "Advertising Agencies",
    "phone": "(941) 251-5267",
    "address": " 517 72nd St  Holmes Beach, FL 34217",
    "location": "Manatee"
  },
  {
    "name": "Digital 941",
    "description": "Advertising Agencies",
    "phone": "(941) 867-0442",
    "address": " 710 N Lemon Ave  Sarasota, FL 34236",
    "location": "Manatee"
  },
  {
    "name": "Be Creative USA Inc",
    "description": "Advertising Agencies",
    "phone": "(941) 366-8800",
    "address": " 1419 5th St Ste D  Sarasota, FL 34236",
    "location": "Manatee"
  },
  {
    "name": "Stockhouse Media Corp",
    "description": "Advertising Agencies",
    "phone": "(941) 365-5719",
    "address": " 1133 4th St  Sarasota, FL 34236",
    "location": "Manatee"
  },
  {
    "name": "Shannon Post",
    "description": "Advertising Agencies",
    "phone": "(703) 732-2096",
    "address": " 100 N Washington Blvd  Sarasota, FL 34236",
    "location": "Manatee"
  },
  {
    "name": "Image360 Sarasota Central",
    "description": "Advertising Agencies",
    "phone": "(941) 951-7888",
    "address": " 1693 Main St  Sarasota, FL 34236",
    "location": "Manatee"
  },
  {
    "name": "Ziegler Capital Markets",
    "description": "Advertising Agencies",
    "phone": "(941) 955-0769",
    "address": " 1341 Main St  Sarasota, FL 34236",
    "location": "Manatee"
  },
  {
    "name": "Cap Brand Marketing",
    "description": "Advertising Agencies",
    "phone": "(941) 953-9191",
    "address": " 1962 Main St  Sarasota, FL 34236",
    "location": "Manatee"
  },
  {
    "name": "The Click Depot",
    "description": "Advertising Agencies",
    "phone": "(941) 306-3055",
    "address": " 1990 Main St Ste 772-A  Sarasota, FL 34236",
    "location": "Manatee"
  },
  {
    "name": "Odato Marketing Group, Inc.",
    "description": "Advertising Agencies",
    "phone": "(941) 954-0345",
    "address": " 330 S Pineapple Ave Ste 203  Sarasota, FL 34236",
    "location": "Manatee"
  },
  {
    "name": "Marketing by Design",
    "description": "Advertising Agencies",
    "phone": "(941) 907-6060",
    "address": " 6001 Business Blvd  Lakewood Ranch, FL 34240",
    "location": "Manatee"
  },
  {
    "name": "Advice",
    "description": "Advertising Agencies",
    "phone": "(941) 907-9507",
    "address": " 7365 Merchant Ct Ste 4  Lakewood Ranch, FL 34240",
    "location": "Manatee"
  },
  {
    "name": "Griffin Marketing Services",
    "description": "Advertising Agencies",
    "phone": "(941) 312-5350",
    "address": " 7357 International Pl Ste 102  Lakewood Ranch, FL 34240",
    "location": "Manatee"
  },
  {
    "name": "Create Marketing Group",
    "description": "Advertising Agencies",
    "phone": "(941) 479-4919",
    "address": " 1568 Hickory View Cir  Parrish, FL 34219",
    "location": "Manatee"
  },
  {
    "name": "Matt Made Media",
    "description": "Advertising Agencies",
    "phone": "(941) 552-9402",
    "address": " 2274 Bay St  Sarasota, FL 34237",
    "location": "Manatee"
  },
  {
    "name": "CustomerClicks Company of Sarasota, Digital Marketing, Website Design",
    "description": "Advertising Agencies",
    "phone": "(941) 500-4282",
    "address": " 1501 S Shade Ave  Sarasota, FL 34239",
    "location": "Manatee"
  },
  {
    "name": "Ad America SEO & Web Design",
    "description": "Advertising Agencies",
    "phone": "(941) 203-3100",
    "address": " 8306 Curlew Ct.  Bradenton, FL 34202",
    "location": "Manatee"
  },
  {
    "name": "Indigo Design",
    "description": "Advertising Agencies",
    "phone": "(941) 882-1731",
    "address": " 2531 Siesta Dr  Sarasota, FL 34239",
    "location": "Manatee"
  },
  {
    "name": "Innovative Agent Service",
    "description": "Advertising Agencies",
    "phone": "(941) 921-5027",
    "address": " 2945 Bee Ridge Rd  Sarasota, FL 34239",
    "location": "Manatee"
  },
  {
    "name": "The Sarasota Home Mag Inc",
    "description": "Advertising Agencies",
    "phone": "(941) 379-8780",
    "address": " 5540 Bee Ridge Rd  Sarasota, FL 34233",
    "location": "Manatee"
  },
  {
    "name": "Infobankmedia",
    "description": "Advertising Agencies",
    "phone": "(941) 313-6614",
    "address": " 4040 Longhorn Dr  Sarasota, FL 34233",
    "location": "Manatee"
  },
  {
    "name": "AM PM Mailing Service",
    "description": "Direct Mail Advertising",
    "phone": "(941) 747-4899",
    "address": " 805 Manatee Ave W  Bradenton, FL 34205",
    "location": "Manatee"
  },
  {
    "name": "Certified SEO",
    "description": "Interactive Media",
    "phone": "(941) 201-3294",
    "address": " 824 Manatee Ave W  Bradenton, FL 34205",
    "location": "Manatee"
  },
  {
    "name": "Manatee Apparel Graphics",
    "description": "Printing Services",
    "phone": "(941) 746-6353",
    "address": " 1130 9th St W  Bradenton, FL 34205",
    "location": "Manatee"
  },
  {
    "name": "Starwheel Websites",
    "description": "Web Site Design & Services",
    "phone": "(941) 557-7090",
    "address": " 1201 6th Ave W Ste 100  Bradenton, FL 34205",
    "location": "Manatee"
  },
  {
    "name": "RYP Marketing",
    "description": "Internet Marketing & Advertising",
    "phone": "(941) 757-3075",
    "address": " 1201 6th Ave W Ste 500c  Bradenton, FL 34205",
    "location": "Manatee"
  },
  {
    "name": "D Boi Designs",
    "description": "Internet Marketing & Advertising",
    "phone": "(941) 565-0624",
    "address": " 2208 19th St W  Bradenton, FL 34205",
    "location": "Manatee"
  },
  {
    "name": "Teez By Design",
    "description": "T-Shirts",
    "phone": "(941) 745-2257",
    "address": " 303 301 Blvd West  Bradenton, FL 34208",
    "location": "Manatee"
  },
  {
    "name": "Florida Sign Co",
    "description": "Signs",
    "phone": "(800) 986-9901",
    "address": " 1101 29th Ave W  Bradenton, FL 34205",
    "location": "Manatee"
  },
  {
    "name": "Jeffcoat Blueprinting",
    "description": "Blueprinting",
    "phone": "(941) 747-6499",
    "address": " 1325 Tamiami Trl  Bradenton, FL 34205",
    "location": "Manatee"
  },
  {
    "name": "Myteamprints.com",
    "description": "Internet Marketing & Advertising",
    "phone": "(888) 940-9191",
    "address": " 2850 Manatee Ave E  Bradenton, FL 34208",
    "location": "Manatee"
  },
  {
    "name": "Signs 2 Go Inc",
    "description": "Advertising Specialties",
    "phone": "(941) 748-9400",
    "address": " 2854 Manatee Ave E  Bradenton, FL 34208",
    "location": "Manatee"
  },
  {
    "name": "Build Signs Online",
    "description": "Signs",
    "phone": "(941) 748-9400",
    "address": " 2854 Manatee Avenue East  Bradenton, FL 34208",
    "location": "Manatee"
  },
  {
    "name": "Anthro Enterprises",
    "description": "Signs",
    "phone": "(941) 747-7746",
    "address": " 3557 1st St  Bradenton, FL 34208",
    "location": "Manatee"
  },
  {
    "name": "Images by Silhouette, LLC",
    "description": "Internet Marketing & Advertising",
    "phone": "(727) 201-1770",
    "address": " 3810 5th St E  Bradenton, FL 34208",
    "location": "Manatee"
  },
  {
    "name": "FASTSIGNS",
    "description": "Signs",
    "phone": "(941) 229-3380",
    "address": " 3615 14th St W  Bradenton, FL 34205",
    "location": "Manatee"
  },
  {
    "name": "Center Lane Road Striping",
    "description": "Signs",
    "phone": "(941) 753-0549",
    "address": " 4421 12th Street Ct E  Bradenton, FL 34203",
    "location": "Manatee"
  },
  {
    "name": "Display Products International",
    "description": "Signs",
    "phone": "(941) 567-4047",
    "address": " 2908 29th Ave E  Bradenton, FL 34208",
    "location": "Manatee"
  },
  {
    "name": "Care2learn.Com",
    "description": "Internet Marketing & Advertising",
    "phone": "(941) 747-5060",
    "address": " 3027 Manatee Ave W  Bradenton, FL 34205",
    "location": "Manatee"
  },
  {
    "name": "Signarama",
    "description": "Signs",
    "phone": "(941) 747-7746",
    "address": " 4259 14th St W  Bradenton, FL 34205",
    "location": "Manatee"
  },
  {
    "name": "Discount Signs and Wraps",
    "description": "Signs",
    "phone": "(941) 896-9651",
    "address": " 3322 Manatee Ave W  Bradenton, FL 34205",
    "location": "Manatee"
  },
  {
    "name": "Speed King Signs",
    "description": "Signs",
    "phone": "(941) 722-7446",
    "address": " 411 7th St W Ste 2  Palmetto, FL 34221",
    "location": "Manatee"
  },
  {
    "name": "Ten Digit Publishing",
    "description": "Internet Marketing & Advertising",
    "phone": "(941) 531-9600",
    "address": " 1180 8th Ave W Ste 318  Palmetto, FL 34221",
    "location": "Manatee"
  },
  {
    "name": "Signs 4 R Times Inc",
    "description": "Signs",
    "phone": "(941) 722-8888",
    "address": " 937 10th St E  Palmetto, FL 34221",
    "location": "Manatee"
  },
  {
    "name": "CJPW Group, Inc.",
    "description": "Advertising Specialties",
    "phone": "(941) 417-7318",
    "address": " 1500 15th Avenue Dr E Unit 105  Palmetto, FL 34221",
    "location": "Manatee"
  },
  {
    "name": "Johnson Printing",
    "description": "Printing Services-Commercial",
    "phone": "(941) 746-4171",
    "address": " 1500 15th Avenue Dr E  Palmetto, FL 34221",
    "location": "Manatee"
  },
  {
    "name": "Magee Sign Service Inc",
    "description": "Signs",
    "phone": "(941) 722-5391",
    "address": " 1511 20th Ave E  Palmetto, FL 34221",
    "location": "Manatee"
  },
  {
    "name": "Allegra - Marketing, Print, & Mail",
    "description": "Direct Mail Advertising",
    "phone": "(941) 758-6500",
    "address": " 4230 26th St W  Bradenton, FL 34205",
    "location": "Manatee"
  },
  {
    "name": "FedEx Office Print & Ship Center",
    "description": "Copying & Duplicating Service",
    "phone": "(941) 752-0875",
    "address": " 4401 14th St W  Bradenton, FL 34207",
    "location": "Manatee"
  },
  {
    "name": "Mastovich Design",
    "description": "Animation Services",
    "phone": "(941) 730-7073",
    "address": " 3210 20th Ave W  Bradenton, FL 34205",
    "location": "Manatee"
  },
  {
    "name": "Siesta Digital",
    "description": "Internet Marketing & Advertising",
    "phone": "(941) 999-3200",
    "address": " 4101 Lake Bayshore Dr  Bradenton, FL 34205",
    "location": "Manatee"
  },
  {
    "name": "Iagulli Signs & Craft Pennants Manufacturing",
    "description": "Signs",
    "phone": "(941) 753-4549",
    "address": " 2404 43rd Ave W  Bradenton, FL 34205",
    "location": "Manatee"
  },
  {
    "name": "Signs Now",
    "description": "Signs",
    "phone": "(941) 792-4453",
    "address": " 4230 26th St W  Bradenton, FL 34205",
    "location": "Manatee"
  },
  {
    "name": "Signs By Tomorrow",
    "description": "Signs",
    "phone": "(941) 792-4453",
    "address": " 4230 26th St W  Bradenton, FL 34205",
    "location": "Manatee"
  },
  {
    "name": "Mastercraft Signs",
    "description": "Signs",
    "phone": "(941) 708-0977",
    "address": " 4653 19th St W  Bradenton, FL 34207",
    "location": "Manatee"
  }
]
