[
  {
    "name": "Marlite Inc",
    "description": "Advertising Agencies",
    "phone": "(305) 655-3520",
    "address": " 300 NE 183rd St  Miami, FL 33179",
    "location": "Martin"
  },
  {
    "name": "Mike Davis Consultant PA",
    "description": "Advertising Agencies",
    "phone": "(305) 974-4549",
    "address": " 99 NW 183rd St  Miami, FL 33169",
    "location": "Martin"
  },
  {
    "name": "Metellus Inc",
    "description": "Advertising Agencies",
    "phone": "(305) 974-4857",
    "address": " 99 NW 183rd St  Miami, FL 33169",
    "location": "Martin"
  },
  {
    "name": "Family Matters",
    "description": "Advertising Agencies",
    "phone": "(786) 520-4255",
    "address": " 99 NW 183rd St  Miami, FL 33169",
    "location": "Martin"
  },
  {
    "name": "Highleveladvertising",
    "description": "Advertising Agencies",
    "phone": "(954) 625-9123",
    "address": " 111 NW 183rd St Ste 302  Miami, FL 33169",
    "location": "Martin"
  },
  {
    "name": "Www.Exhibitdeal.Com",
    "description": "Advertising Agencies",
    "phone": "(310) 899-1257",
    "address": " 18502 NE 5th Ave  Miami, FL 33179",
    "location": "Martin"
  },
  {
    "name": "Got It Newspaper",
    "description": "Advertising Agencies",
    "phone": "(954) 839-7502",
    "address": " 18350 nw 2nd Ave  Miami, FL 33169",
    "location": "Martin"
  },
  {
    "name": "Walter Vision Productions Inc",
    "description": "Advertising Agencies",
    "phone": "(305) 572-9313",
    "address": " 801 NE 167th St  North Miami Beach, FL 33162",
    "location": "Martin"
  },
  {
    "name": "Poetic Akhu",
    "description": "Advertising Agencies",
    "phone": "(786) 253-5612",
    "address": " 540 NW 165th Street Rd  Miami, FL 33169",
    "location": "Martin"
  },
  {
    "name": "Maax And Company",
    "description": "Advertising Agencies",
    "phone": "(305) 999-9721",
    "address": " 190 NE 199th St  Miami, FL 33179",
    "location": "Martin"
  },
  {
    "name": "Linder Consulting Group",
    "description": "Advertising Agencies",
    "phone": "(305) 956-9725",
    "address": " 1551 NE Miami Gardens Dr  Miami, FL 33179",
    "location": "Martin"
  },
  {
    "name": "Mobile Billboard Miami",
    "description": "Advertising Agencies",
    "phone": "(305) 814-5880",
    "address": " 19820 NE 10th Ct  Miami, FL 33179",
    "location": "Martin"
  },
  {
    "name": "Saggio International Bus Sltns",
    "description": "Advertising Agencies",
    "phone": "(786) 440-5275",
    "address": " 20295 NW 2nd Ave  Miami, FL 33169",
    "location": "Martin"
  },
  {
    "name": "Afrovisions Pr Advertising Inc",
    "description": "Advertising Agencies",
    "phone": "(305) 949-8239",
    "address": " 1348 NE 147th St  Miami, FL 33161",
    "location": "Martin"
  },
  {
    "name": "Zebra Advertisement",
    "description": "Advertising Agencies",
    "phone": "(305) 974-4204",
    "address": " 1021 Ives Dairy Rd Ste 212  Miami, FL 33179",
    "location": "Martin"
  },
  {
    "name": "T D I",
    "description": "Advertising Agencies",
    "phone": "(305) 622-2877",
    "address": " 1570 NW 165th St  Miami, FL 33169",
    "location": "Martin"
  },
  {
    "name": "Square One Branding",
    "description": "Advertising Agencies",
    "phone": "(786) 552-6343",
    "address": " 8201 Coral Way  Miami, FL 33155",
    "location": "Martin"
  },
  {
    "name": "Advertising Updated Inc",
    "description": "Advertising Agencies",
    "phone": "(305) 944-6718",
    "address": " 1248 NE 154th St  North Miami Beach, FL 33162",
    "location": "Martin"
  },
  {
    "name": "Rabinovici And Assoc",
    "description": "Advertising Agencies",
    "phone": "(305) 655-0021",
    "address": " 20815 NE 16th Ave  Miami, FL 33179",
    "location": "Martin"
  },
  {
    "name": "A S R O M Tech",
    "description": "Advertising Agencies",
    "phone": "(786) 520-4455",
    "address": " 75 NE 211th St  Miami, FL 33179",
    "location": "Martin"
  },
  {
    "name": "The LED City",
    "description": "Advertising Agencies",
    "phone": "(786) 744-3050",
    "address": " 1943 NE 148th St  Miami, FL 33181",
    "location": "Martin"
  },
  {
    "name": "Castingland Miami",
    "description": "Advertising Agencies",
    "phone": "(786) 542-0500",
    "address": " 475 NE 123rd St  North Miami, FL 33161",
    "location": "Martin"
  },
  {
    "name": "I Hostthm.Com",
    "description": "Advertising Agencies",
    "phone": "(305) 891-7322",
    "address": " 14260 NE 12th Ave  North Miami, FL 33161",
    "location": "Martin"
  },
  {
    "name": "Ad-Pros Group",
    "description": "Advertising Agencies",
    "phone": "(305) 956-9906",
    "address": " 1810 NE 153rd St  North Miami Beach, FL 33162",
    "location": "Martin"
  },
  {
    "name": "Mak Media",
    "description": "Advertising Agencies",
    "phone": "(305) 956-9563",
    "address": " 15050 NE 20th Ave Ste 101  North Miami, FL 33181",
    "location": "Martin"
  },
  {
    "name": "Net Temps",
    "description": "Advertising Agencies",
    "phone": "(305) 956-2476",
    "address": " 17501 Biscayne Blvd  Aventura, FL 33160",
    "location": "Martin"
  },
  {
    "name": "Spark Creative Design",
    "description": "Advertising Agencies",
    "phone": "(305) 933-3703",
    "address": " 18161 Biscayne Blvd  Aventura, FL 33160",
    "location": "Martin"
  },
  {
    "name": "Haitian American Leadership",
    "description": "Advertising Agencies",
    "phone": "(786) 953-4041",
    "address": " 12811 W Dixie Hwy  North Miami, FL 33161",
    "location": "Martin"
  },
  {
    "name": "Moro Advertising Solutions",
    "description": "Advertising Agencies",
    "phone": "(305) 681-2252",
    "address": " 545 NW 129th St  North Miami, FL 33168",
    "location": "Martin"
  },
  {
    "name": "Keyes Martin & Gaby",
    "description": "Advertising Agencies",
    "phone": "(305) 702-6386",
    "address": " 13899 Biscayne Blvd  North Miami Beach, FL 33181",
    "location": "Martin"
  },
  {
    "name": "Hunter-Hamersmith & Associates Advertising Inc",
    "description": "Advertising Agencies",
    "phone": "(305) 895-3492",
    "address": " 725 NE 125th St  North Miami, FL 33161",
    "location": "Martin"
  },
  {
    "name": "HH Advertising Inc",
    "description": "Advertising Agencies",
    "phone": "(305) 895-8430",
    "address": " 725 NE 125th St  North Miami, FL 33161",
    "location": "Martin"
  },
  {
    "name": "Learn About",
    "description": "Advertising Agencies",
    "phone": "(484) 661-7411",
    "address": " 2750 NE 183rd St  Aventura, FL 33160",
    "location": "Martin"
  },
  {
    "name": "Mr3 Marketing",
    "description": "Advertising Agencies",
    "phone": "(305) 931-0332",
    "address": " 2780 NE 183rd St  Aventura, FL 33160",
    "location": "Martin"
  },
  {
    "name": "Tropic Survival Advertising & Marketing",
    "description": "Advertising Agencies",
    "phone": "(305) 899-7229",
    "address": " 1125 NE 125th St Ste 400  North Miami, FL 33161",
    "location": "Martin"
  },
  {
    "name": "Jano Ad Agency",
    "description": "Advertising Agencies",
    "phone": "(305) 498-4142",
    "address": " 2875 NE 191st St  Aventura, FL 33180",
    "location": "Martin"
  },
  {
    "name": "The Badimon Group",
    "description": "Advertising Agencies",
    "phone": "(305) 785-8511",
    "address": " 2971 NE 185th St APT 1906  Miami, FL 33180",
    "location": "Martin"
  },
  {
    "name": "Limelite",
    "description": "Advertising Agencies",
    "phone": "(786) 787-0409",
    "address": " 18851 NE 29th Ave Ste 100  Miami, FL 33180",
    "location": "Martin"
  },
  {
    "name": "Encajes Sa",
    "description": "Advertising Agencies",
    "phone": "(786) 924-3781",
    "address": " 18851 NE 29th Ave  Miami, FL 33180",
    "location": "Martin"
  },
  {
    "name": "Avtalents Inc",
    "description": "Advertising Agencies",
    "phone": "(305) 450-5568",
    "address": " 3300 NE 191st St  Miami, FL 33180",
    "location": "Martin"
  },
  {
    "name": "Fire Pepper Marketing",
    "description": "Advertising Agencies",
    "phone": "(305) 777-1786",
    "address": " 2627 NE 203rd St Ste 202  Miami, FL 33180",
    "location": "Martin"
  },
  {
    "name": "Rodriguez, Jose",
    "description": "Advertising Agencies",
    "phone": "(305) 751-3144",
    "address": " 45 NW 119th St  Miami, FL 33168",
    "location": "Martin"
  },
  {
    "name": "SEED Branding Studio",
    "description": "Advertising Agencies",
    "phone": "(305) 987-0876",
    "address": " 3330 NE 190th St Apt 1419  Miami, FL 33180",
    "location": "Martin"
  },
  {
    "name": "Arena Advertising Inc",
    "description": "Advertising Agencies",
    "phone": "(305) 466-5551",
    "address": " 3370 NE 190th St  Miami, FL 33180",
    "location": "Martin"
  },
  {
    "name": "Seo4anyone.Com",
    "description": "Advertising Agencies",
    "phone": "(954) 446-0070",
    "address": " 20900 NE 30th Ave STE 730  Miami, FL 33180",
    "location": "Martin"
  },
  {
    "name": "Latinmedios.com Inc",
    "description": "Advertising Agencies",
    "phone": "(305) 466-3830",
    "address": " 20900 NE 30th Ave  Miami, FL 33180",
    "location": "Martin"
  },
  {
    "name": "Lloyds Bushel & Associates Corp",
    "description": "Advertising Agencies",
    "phone": "(305) 981-2353",
    "address": " 11098 Biscayne Blvd  Miami, FL 33161",
    "location": "Martin"
  },
  {
    "name": "Free TV Commercials",
    "description": "Advertising Agencies",
    "phone": "(786) 512-8294",
    "address": " 19999 E Country Club Dr  Miami, FL 33180",
    "location": "Martin"
  },
  {
    "name": "Star Town Plus",
    "description": "Advertising Agencies",
    "phone": "(305) 758-7433",
    "address": " 12010 N Miami Ave  North Miami, FL 33168",
    "location": "Martin"
  },
  {
    "name": "E-Clicks Digital",
    "description": "Advertising Agencies",
    "phone": "(954) 292-1717",
    "address": " 3201 NE 183rd St  Aventura, FL 33160",
    "location": "Martin"
  },
  {
    "name": "Quaker Lane Associates Corp",
    "description": "Advertising Agencies",
    "phone": "(305) 918-0611",
    "address": " 3201 NE 183rd St Apt 2005  Aventura, FL 33160",
    "location": "Martin"
  },
  {
    "name": "GLG Projects Intergration",
    "description": "Advertising Agencies",
    "phone": "(305) 892-7152",
    "address": " 12550 Biscayne Blvd Ste 311  North Miami, FL 33181",
    "location": "Martin"
  },
  {
    "name": "Berman Margo",
    "description": "Advertising Agencies",
    "phone": "(305) 949-7711",
    "address": " 3351 NE 164th St  North Miami Beach, FL 33160",
    "location": "Martin"
  },
  {
    "name": "Miami Offshore Service",
    "description": "Advertising Agencies",
    "phone": "(786) 472-1889",
    "address": " 12555 Biscayne Blvd  North Miami, FL 33181",
    "location": "Martin"
  },
  {
    "name": "Athena Production Inc",
    "description": "Advertising Agencies",
    "phone": "(305) 935-7044",
    "address": " 3215 NE 184th St  North Miami Beach, FL 33160",
    "location": "Martin"
  },
  {
    "name": "Behr Advertising, Inc.",
    "description": "Advertising Agencies",
    "phone": "(305) 674-8406",
    "address": " 1801 NE 123rd St Ste 314  North Miami, FL 33181",
    "location": "Martin"
  },
  {
    "name": "Green Dot Advertising",
    "description": "Advertising Agencies",
    "phone": "(305) 674-8406",
    "address": " 1801 NE 123rd St  North Miami, FL 33181",
    "location": "Martin"
  },
  {
    "name": "Media Department II",
    "description": "Advertising Agencies",
    "phone": "(305) 892-5272",
    "address": " 12000 Biscayne Blvd  North Miami, FL 33181",
    "location": "Martin"
  },
  {
    "name": "Martinez & Fernandez",
    "description": "Advertising Agencies",
    "phone": "(305) 558-6555",
    "address": " 11900 Biscayne Blvd  North Miami, FL 33181",
    "location": "Martin"
  },
  {
    "name": "Tech X Roi",
    "description": "Advertising Agencies",
    "phone": "(773) 234-8482",
    "address": " 17021 N Bay Rd  Sunny Isles Beach, FL 33160",
    "location": "Martin"
  },
  {
    "name": "Infinite Market Agency",
    "description": "Advertising Agencies",
    "phone": "(305) 849-9117",
    "address": " 16401 NW 37th Ave  Opa Locka, FL 33054",
    "location": "Martin"
  },
  {
    "name": "Labes Ad Aguiar",
    "description": "Advertising Agencies",
    "phone": "(786) 463-4669",
    "address": " 200 Sunny Isles Blvd  Sunny Isles Beach, FL 33160",
    "location": "Martin"
  },
  {
    "name": "S-Tainer Co",
    "description": "Advertising Agencies",
    "phone": "(954) 880-1166",
    "address": " 1580 SW 25th St  West Park, FL 33023",
    "location": "Martin"
  },
  {
    "name": "Neotech Productions",
    "description": "Advertising Agencies",
    "phone": "(305) 725-0125",
    "address": " 629 SW 2nd St  Hallandale Beach, FL 33009",
    "location": "Martin"
  },
  {
    "name": "Groove Music Promotion",
    "description": "Advertising Agencies",
    "phone": "(720) 805-5525",
    "address": " 2837 Bahama Dr  Miramar, FL 33023",
    "location": "Martin"
  },
  {
    "name": "Video SEO Media",
    "description": "Advertising Agencies",
    "phone": "(954) 248-6650",
    "address": " 7951 Riviera Blvd  Miramar, FL 33023",
    "location": "Martin"
  },
  {
    "name": "The Menda Group Inc",
    "description": "Advertising Agencies",
    "phone": "(754) 217-4738",
    "address": " 7971 Riviera Blvd  Miramar, FL 33023",
    "location": "Martin"
  },
  {
    "name": "Mycom North America",
    "description": "Advertising Agencies",
    "phone": "(954) 964-3283",
    "address": " 3865 Pembroke Rd  Hollywood, FL 33021",
    "location": "Martin"
  },
  {
    "name": "Adtech Electric Advertising",
    "description": "Advertising Agencies",
    "phone": "(786) 533-3210",
    "address": " 221 W Hallandale Beach Blvd  Hallandale Beach, FL 33009",
    "location": "Martin"
  },
  {
    "name": "Rabinovici & Associates, Inc.",
    "description": "Advertising Agencies",
    "phone": "(305) 655-0021",
    "address": " 800 Silks Run Unit 2320  Hallandale Beach, FL 33009",
    "location": "Martin"
  },
  {
    "name": "Enermax",
    "description": "Advertising Agencies",
    "phone": "(305) 932-0540",
    "address": " 3050 Aventura Blvd Ste 203  Miami, FL 33180",
    "location": "Martin"
  },
  {
    "name": "W INTL Group",
    "description": "Advertising Agencies",
    "phone": "(305) 918-7834",
    "address": " 20803 Biscayne Blvd  Miami, FL 33180",
    "location": "Martin"
  },
  {
    "name": "Screen Media Group",
    "description": "Advertising Agencies",
    "phone": "(786) 207-2888",
    "address": " 1062 NW 1st Ct  Hallandale Beach, FL 33009",
    "location": "Martin"
  },
  {
    "name": "Touchfly Media, Inc",
    "description": "Advertising Agencies",
    "phone": "(954) 960-7960",
    "address": " 4109 Madison St  Hollywood, FL 33021",
    "location": "Martin"
  },
  {
    "name": "AD Excellence Inc",
    "description": "Advertising Agencies",
    "phone": "(954) 925-1619",
    "address": " 2450 Hollywood Blvd Ste 300  Hollywood, FL 33020",
    "location": "Martin"
  },
  {
    "name": "AdServices",
    "description": "Advertising Agencies",
    "phone": "(954) 922-9395",
    "address": " 2450 Hollywood Blvd Ste 202  Hollywood, FL 33020",
    "location": "Martin"
  },
  {
    "name": "Jakubisin Ronald & Associates Inc Advertising & Marketing",
    "description": "Advertising Agencies",
    "phone": "(954) 922-5052",
    "address": " 1841 Monroe St  Hollywood, FL 33020",
    "location": "Martin"
  },
  {
    "name": "Anc Communications",
    "description": "Advertising Agencies",
    "phone": "(305) 646-1770",
    "address": " 1000 Quayside Ter  Miami, FL 33138",
    "location": "Martin"
  },
  {
    "name": "Eterpro",
    "description": "Advertising Agencies",
    "phone": "(305) 529-3641",
    "address": " 4000 Towerside Ter  Miami, FL 33138",
    "location": "Martin"
  },
  {
    "name": "Latamer Trading Co Inc",
    "description": "Advertising Agencies",
    "phone": "(305) 891-5638",
    "address": " 4000 Towerside Ter  Miami, FL 33138",
    "location": "Martin"
  },
  {
    "name": "Aikiu",
    "description": "Advertising Agencies",
    "phone": "(305) 229-5093",
    "address": " 7636 NE 4th Ct  Miami, FL 33138",
    "location": "Martin"
  },
  {
    "name": "Pierson Distributors",
    "description": "Advertising Agencies",
    "phone": "(305) 757-7474",
    "address": " 1145 Belle Meade Island Dr  Miami, FL 33138",
    "location": "Martin"
  },
  {
    "name": "Creative State",
    "description": "Advertising Agencies",
    "phone": "(305) 504-8877",
    "address": " 156 NW 73rd St  Miami, FL 33150",
    "location": "Martin"
  },
  {
    "name": "Conway & Partners",
    "description": "Advertising Agencies",
    "phone": "(305) 420-5090",
    "address": " 7261 NE 4th Ave  Miami, FL 33138",
    "location": "Martin"
  },
  {
    "name": "Wikot",
    "description": "Advertising Agencies",
    "phone": "(786) 615-3232",
    "address": " 7300 Biscayne Blvd  Miami, FL 33138",
    "location": "Martin"
  },
  {
    "name": "The Community",
    "description": "Advertising Agencies",
    "phone": "(786) 452-9341",
    "address": " 7300 Biscayne Blvd  Miami, FL 33138",
    "location": "Martin"
  },
  {
    "name": "Cre8ive Juice Group",
    "description": "Advertising Agencies",
    "phone": "(786) 360-3221",
    "address": " 7251 NE 2nd Ave  Miami, FL 33138",
    "location": "Martin"
  },
  {
    "name": "Big Promotion Inc",
    "description": "Advertising Agencies",
    "phone": "(305) 624-0577",
    "address": " 16005 NW 52nd Ave  Hialeah, FL 33014",
    "location": "Martin"
  },
  {
    "name": "Z Media Inc",
    "description": "Advertising Agencies",
    "phone": "(305) 532-5566",
    "address": " 1666 79th Street Cswy  North Bay Village, FL 33141",
    "location": "Martin"
  },
  {
    "name": "Transformational Outsourcing",
    "description": "Advertising Agencies",
    "phone": "(305) 767-2945",
    "address": " 16850 Collins Ave Ste 112-503  Sunny Isles Beach, FL 33160",
    "location": "Martin"
  },
  {
    "name": "Mediatech",
    "description": "Advertising Agencies",
    "phone": "(305) 757-4900",
    "address": " 9999 NE 2nd Ave  Miami Shores, FL 33138",
    "location": "Martin"
  },
  {
    "name": "Colin Advertising",
    "description": "Advertising Agencies",
    "phone": "(305) 932-3128",
    "address": " 19111 Collins Ave  Sunny Isles Beach, FL 33160",
    "location": "Martin"
  },
  {
    "name": "Forex Corner",
    "description": "Advertising Agencies",
    "phone": "(786) 657-2682",
    "address": " 21055 NE 37th Ave  Aventura, FL 33180",
    "location": "Martin"
  },
  {
    "name": "Armand",
    "description": "Advertising Agencies",
    "phone": "(844) 996-6337",
    "address": " 9600 NE 2nd Ave  Miami Shores, FL 33138",
    "location": "Martin"
  },
  {
    "name": "Stanson Group",
    "description": "Advertising Agencies",
    "phone": "(305) 456-3854",
    "address": " 9526 NE 2nd Ave  Miami Shores, FL 33138",
    "location": "Martin"
  },
  {
    "name": "Executive Digital",
    "description": "Advertising Agencies",
    "phone": "(786) 391-2945",
    "address": " 9325 NE 6th Ave  Miami Shores, FL 33138",
    "location": "Martin"
  },
  {
    "name": "The Dautel Group",
    "description": "Advertising Agencies",
    "phone": "(561) 203-5509",
    "address": " 9190 Biscayne Blvd Ste 201  Miami Shores, FL 33138",
    "location": "Martin"
  },
  {
    "name": "Red Throne Productions LLC",
    "description": "Advertising Agencies",
    "phone": "(954) 670-7889",
    "address": " 12450 NW 38th Ave  Opa Locka, FL 33054",
    "location": "Martin"
  },
  {
    "name": "Generation E",
    "description": "Advertising Agencies",
    "phone": "(315) 871-7273",
    "address": " 555 NW 87th St  El Portal, FL 33150",
    "location": "Martin"
  },
  {
    "name": "Emerge International",
    "description": "Advertising Agencies",
    "phone": "(305) 624-3808",
    "address": " 5231 NW 180th Ter  Miami Gardens, FL 33055",
    "location": "Martin"
  },
  {
    "name": "Alexis Transportation",
    "description": "Advertising Agencies",
    "phone": "(754) 423-2839",
    "address": " 18927 NW 56th Ct  Miami Gardens, FL 33055",
    "location": "Martin"
  },
  {
    "name": "La Comunidad Corp",
    "description": "Advertising Agencies",
    "phone": "(305) 993-5700",
    "address": " 900 S Shore Dr  Miami Beach, FL 33141",
    "location": "Martin"
  },
  {
    "name": "MJL Select",
    "description": "Advertising Agencies",
    "phone": "(305) 981-0100",
    "address": " 1666 79th Street Cswy  North Bay Village, FL 33141",
    "location": "Martin"
  },
  {
    "name": "Golden K Media",
    "description": "Advertising Agencies",
    "phone": "(305) 397-8028",
    "address": " 1666 79th Street Cswy  North Bay Village, FL 33141",
    "location": "Martin"
  },
  {
    "name": "Hi-Gloss Design Inc",
    "description": "Advertising Agencies",
    "phone": "(305) 759-7288",
    "address": " 1666 79th Street Cswy  North Bay Village, FL 33141",
    "location": "Martin"
  },
  {
    "name": "Louis Salas Management Corp",
    "description": "Advertising Agencies",
    "phone": "(305) 861-8088",
    "address": " 80 S Shore Dr  Miami Beach, FL 33141",
    "location": "Martin"
  },
  {
    "name": "Anmar Party Magazine Inc",
    "description": "Advertising Agencies",
    "phone": "(305) 557-0428",
    "address": " 5901 NW 151st St  Miami Lakes, FL 33014",
    "location": "Martin"
  },
  {
    "name": "Pa Consulting Inc",
    "description": "Advertising Agencies",
    "phone": "(305) 621-8113",
    "address": " 5874 NW 198th Ter  Hialeah, FL 33015",
    "location": "Martin"
  },
  {
    "name": "Online Reviews",
    "description": "Advertising Agencies",
    "phone": "(754) 400-8423",
    "address": " 425 S 21st Ave  Hollywood, FL 33020",
    "location": "Martin"
  },
  {
    "name": "Dean Consulting Service",
    "description": "Advertising Agencies",
    "phone": "(954) 224-5479",
    "address": " 1021 S Park Rd Apt 212  Hollywood, FL 33021",
    "location": "Martin"
  },
  {
    "name": "Global Media",
    "description": "Advertising Agencies",
    "phone": "(954) 457-2492",
    "address": " 134 NE 1st Ave  Hallandale Beach, FL 33009",
    "location": "Martin"
  },
  {
    "name": "Mbs Inc",
    "description": "Advertising Agencies",
    "phone": "(954) 239-8458",
    "address": " 2827 Wiley St  Hollywood, FL 33020",
    "location": "Martin"
  },
  {
    "name": "M A S Dino",
    "description": "Advertising Agencies",
    "phone": "(954) 454-4003",
    "address": " 704 E Hallandale Beach Blvd  Hallandale Beach, FL 33009",
    "location": "Martin"
  },
  {
    "name": "B G Consultants",
    "description": "Advertising Agencies",
    "phone": "(954) 989-0691",
    "address": " 515 S Highland Dr  Hollywood, FL 33021",
    "location": "Martin"
  },
  {
    "name": "Media Relief",
    "description": "Advertising Agencies",
    "phone": "(954) 987-0706",
    "address": " 408 S 57th Ave  Hollywood, FL 33023",
    "location": "Martin"
  },
  {
    "name": "Ubiweb",
    "description": "Advertising Agencies",
    "phone": "(855) 216-8160",
    "address": " 1250 E Hallandale Beach Blvd  Hallandale Beach, FL 33009",
    "location": "Martin"
  },
  {
    "name": "LVO Inc",
    "description": "Advertising Agencies",
    "phone": "(954) 964-9816",
    "address": " 419 S Crescent Dr  Hollywood, FL 33021",
    "location": "Martin"
  },
  {
    "name": "Video Seo Media",
    "description": "Advertising Agencies",
    "phone": "(954) 248-6650",
    "address": " 7925 Ramona St  Miramar, FL 33023",
    "location": "Martin"
  },
  {
    "name": "Ciro Guerra",
    "description": "Advertising Agencies",
    "phone": "(954) 362-7380",
    "address": " 4932 Van Buren St  Hollywood, FL 33021",
    "location": "Martin"
  },
  {
    "name": "Linda Distributions Corp",
    "description": "Advertising Agencies",
    "phone": "(954) 965-7318",
    "address": " 7809 Venetian St  Miramar, FL 33023",
    "location": "Martin"
  },
  {
    "name": "SEO Maven",
    "description": "Advertising Agencies",
    "phone": "(754) 209-6137",
    "address": " 4000 Hollywood Blvd Ste 555S  Hollywood, FL 33021",
    "location": "Martin"
  },
  {
    "name": "Bld Productions",
    "description": "Advertising Agencies",
    "phone": "(954) 964-6005",
    "address": " 4000 Hollywood Blvd  Hollywood, FL 33021",
    "location": "Martin"
  },
  {
    "name": "Engelhardt Advertising",
    "description": "Advertising Agencies",
    "phone": "(954) 613-5139",
    "address": " 4000 Hollywood Blvd  Hollywood, FL 33021",
    "location": "Martin"
  },
  {
    "name": "Rossert Digital Marketing",
    "description": "Advertising Agencies",
    "phone": "(754) 208-8770",
    "address": " 4000 Hollywood Blvd  Hollywood, FL 33021",
    "location": "Martin"
  },
  {
    "name": "Dms Aircraft Service Inc",
    "description": "Advertising Agencies",
    "phone": "(954) 983-4207",
    "address": " 6350 SW 3rd St  Pembroke Pines, FL 33023",
    "location": "Martin"
  },
  {
    "name": "AKEMA Group",
    "description": "Advertising Agencies",
    "phone": "(954) 399-1230",
    "address": " 121 S 61st Ter  Hollywood, FL 33023",
    "location": "Martin"
  },
  {
    "name": "DIGITALAND",
    "description": "Advertising Agencies",
    "phone": "(754) 234-2618",
    "address": " 1755 E Hallandale Beach Blvd  Hallandale Beach, FL 33009",
    "location": "Martin"
  },
  {
    "name": "LPB Networks",
    "description": "Advertising Agencies",
    "phone": "(954) 458-5145",
    "address": " 1920 E Hallandale Beach Blvd  Hallandale Beach, FL 33009",
    "location": "Martin"
  },
  {
    "name": "Genuine Ad",
    "description": "Advertising Agencies",
    "phone": "(786) 399-6484",
    "address": " 1301 NE 7th St  Hallandale Beach, FL 33009",
    "location": "Martin"
  },
  {
    "name": "R & Maryland Consulting Ent Group",
    "description": "Advertising Agencies",
    "phone": "(954) 455-2145",
    "address": " 2500 E Hallandale Beach Blvd  Hallandale Beach, FL 33009",
    "location": "Martin"
  },
  {
    "name": "Americall Group Inc",
    "description": "Advertising Agencies",
    "phone": "(954) 923-7510",
    "address": " 108 N 28th Ave  Hollywood, FL 33020",
    "location": "Martin"
  },
  {
    "name": "Demand Influence Media",
    "description": "Advertising Agencies",
    "phone": "(954) 329-0290",
    "address": " 16000 Pines Blvd  Pembroke Pines, FL 33082",
    "location": "Martin"
  },
  {
    "name": "Robanni Digital Media",
    "description": "Advertising Agencies",
    "phone": "(704) 777-0220",
    "address": " 256 Three Islands Blvd  Hallandale Beach, FL 33009",
    "location": "Martin"
  },
  {
    "name": "ARB Martketing Group",
    "description": "Advertising Agencies",
    "phone": "(954) 367-6047",
    "address": " 2500 Hollywood Blvd Ste 304  Hollywood, FL 33020",
    "location": "Martin"
  },
  {
    "name": "Advico",
    "description": "Advertising Agencies",
    "phone": "(754) 210-7183",
    "address": " 509 S 21st Ave  Hollywood, FL 33020",
    "location": "Martin"
  },
  {
    "name": "Media Response Inc",
    "description": "Advertising Agencies",
    "phone": "(954) 967-9899",
    "address": " 2501 Hollywood Blvd  Hollywood, FL 33020",
    "location": "Martin"
  },
  {
    "name": "Englehardt Advertising",
    "description": "Advertising Agencies",
    "phone": "(954) 927-2886",
    "address": " 2450 Hollywood Blvd  Hollywood, FL 33020",
    "location": "Martin"
  },
  {
    "name": "Tobie & Friends, Inc",
    "description": "Advertising Agencies",
    "phone": "(954) 989-2223",
    "address": " 2455 Hollywood Blvd  Hollywood, FL 33020",
    "location": "Martin"
  },
  {
    "name": "National Business & Marketing",
    "description": "Advertising Agencies",
    "phone": "(954) 981-6811",
    "address": " 5200 Grant St  Hollywood, FL 33021",
    "location": "Martin"
  },
  {
    "name": "Miaventure Corp",
    "description": "Advertising Agencies",
    "phone": "(954) 404-6133",
    "address": " 2410 Hollywood Blvd  Hollywood, FL 33020",
    "location": "Martin"
  },
  {
    "name": "Coastal Advertising & Consulting Corp",
    "description": "Advertising Agencies",
    "phone": "(954) 920-0644",
    "address": " 2334 Hollywood Blvd  Hollywood, FL 33020",
    "location": "Martin"
  },
  {
    "name": "MVS Media Group",
    "description": "Advertising Agencies",
    "phone": "(305) 428-3888",
    "address": " 1800 S Ocean Dr  Hallandale Beach, FL 33009",
    "location": "Martin"
  },
  {
    "name": "Idael Diaz Media Group",
    "description": "Advertising Agencies",
    "phone": "(305) 912-3353",
    "address": " 2100 Van Buren St, Ste 103  Hollywood, FL 33020",
    "location": "Martin"
  },
  {
    "name": "The Lab Ideas",
    "description": "Advertising Agencies",
    "phone": "(754) 208-2341",
    "address": " 2100 Van Buren St  Hollywood, FL 33020",
    "location": "Martin"
  },
  {
    "name": "Medical Consultants",
    "description": "Advertising Agencies",
    "phone": "(954) 929-5120",
    "address": " 1415 Rodman St  Hollywood, FL 33020",
    "location": "Martin"
  },
  {
    "name": "M & E Concepts",
    "description": "Advertising Agencies",
    "phone": "(954) 342-9281",
    "address": " 1850 Monroe St  Hollywood, FL 33020",
    "location": "Martin"
  },
  {
    "name": "Tamzil Inc",
    "description": "Advertising Agencies",
    "phone": "(954) 920-1790",
    "address": " 2116 Tyler St  Hollywood, FL 33020",
    "location": "Martin"
  },
  {
    "name": "Tribeca Marketing Group",
    "description": "Advertising Agencies",
    "phone": "(866) 255-4955",
    "address": " 2001 Hollywood Blvd  Hollywood, FL 33020",
    "location": "Martin"
  },
  {
    "name": "Pedro R Torres Pa",
    "description": "Advertising Agencies",
    "phone": "(954) 962-6586",
    "address": " 3322 Arthur St  Hollywood, FL 33021",
    "location": "Martin"
  },
  {
    "name": "The Agency Seven",
    "description": "Advertising Agencies",
    "phone": "(201) 873-3318",
    "address": " 3505 S Ocean Dr  Hollywood, FL 33019",
    "location": "Martin"
  },
  {
    "name": "Southern Brand Collective",
    "description": "Advertising Agencies",
    "phone": "(954) 926-4223",
    "address": " 1932 Tyler St  Hollywood, FL 33020",
    "location": "Martin"
  },
  {
    "name": "Bebe Consulting Inc",
    "description": "Advertising Agencies",
    "phone": "(954) 894-2651",
    "address": " 4306 McKinley St  Hollywood, FL 33021",
    "location": "Martin"
  },
  {
    "name": "Import Consultants",
    "description": "Advertising Agencies",
    "phone": "(954) 457-2790",
    "address": " 1290 Harbor Ct  Hollywood, FL 33019",
    "location": "Martin"
  },
  {
    "name": "Advertising Excellence, Inc.",
    "description": "Advertising Agencies",
    "phone": "(954) 522-8772",
    "address": " PO Box 220555  Hollywood, FL 33022",
    "location": "Martin"
  },
  {
    "name": "Du Bois Marketing Inc",
    "description": "Advertising Agencies",
    "phone": "(954) 308-4880",
    "address": " 3300 Corporate Way  Miramar, FL 33025",
    "location": "Martin"
  },
  {
    "name": "Liberia Economic Social",
    "description": "Advertising Agencies",
    "phone": "(954) 842-4081",
    "address": " 2329 Hayes St  Hollywood, FL 33020",
    "location": "Martin"
  },
  {
    "name": "Zoom IQ Inc",
    "description": "Advertising Agencies",
    "phone": "(305) 604-0006",
    "address": " 6815 Biscayne Blvd  Miami, FL 33138",
    "location": "Martin"
  },
  {
    "name": "Brett Goldstein",
    "description": "Advertising Agencies",
    "phone": "(329) 204-0320",
    "address": " 6445 NE 7th Ave Apt 416N  Miami, FL 33138",
    "location": "Martin"
  },
  {
    "name": "C-Com Group, Inc",
    "description": "Advertising Agencies",
    "phone": "(305) 447-4015",
    "address": " 6380 NE 4th Ave  Miami, FL 33138",
    "location": "Martin"
  },
  {
    "name": "The Community Agency",
    "description": "Advertising Agencies",
    "phone": "(305) 865-9600",
    "address": " 6300 Biscayne Blvd  Miami, FL 33138",
    "location": "Martin"
  },
  {
    "name": "Green DOT Advertsing",
    "description": "Advertising Agencies",
    "phone": "(305) 674-8406",
    "address": " 5400 NE 4th Ct Ste 3  Miami, FL 33137",
    "location": "Martin"
  },
  {
    "name": "Sharp & Company",
    "description": "Advertising Agencies",
    "phone": "(305) 751-4451",
    "address": " 5617 NW 7th Ave  Miami, FL 33127",
    "location": "Martin"
  },
  {
    "name": "TSR Inc",
    "description": "Advertising Agencies",
    "phone": "(305) 696-6634",
    "address": " 7000 NW 32nd Ave  Miami, FL 33147",
    "location": "Martin"
  },
  {
    "name": "Opg Media Advertising Inc",
    "description": "Advertising Agencies",
    "phone": "(786) 704-1401",
    "address": " 5305 NW 2nd Ave  Miami, FL 33127",
    "location": "Martin"
  },
  {
    "name": "Michael Szucs Productions",
    "description": "Advertising Agencies",
    "phone": "(305) 666-6646",
    "address": " 4535 Sabal Palm Rd  Miami, FL 33137",
    "location": "Martin"
  },
  {
    "name": "R & O Media, Inc",
    "description": "Advertising Agencies",
    "phone": "(305) 993-5585",
    "address": " 4141 NE 2nd Ave Ste 202  Miami, FL 33137",
    "location": "Martin"
  },
  {
    "name": "Elastic People",
    "description": "Advertising Agencies",
    "phone": "(305) 573-3434",
    "address": " 4141 NE 2nd Ave Ste 108  Miami, FL 33137",
    "location": "Martin"
  },
  {
    "name": "Gold Coast Advertising Associates Inc",
    "description": "Advertising Agencies",
    "phone": "(305) 576-4141",
    "address": " 4141 NE 2nd Ave  Miami, FL 33137",
    "location": "Martin"
  },
  {
    "name": "Consulting Group",
    "description": "Advertising Agencies",
    "phone": "(305) 506-5162",
    "address": " 13900 Alamanda Ave  Miami Lakes, FL 33014",
    "location": "Martin"
  },
  {
    "name": "Future Endeavors",
    "description": "Advertising Agencies",
    "phone": "(954) 893-6068",
    "address": " 5927 Sheridan St  Hollywood, FL 33021",
    "location": "Martin"
  },
  {
    "name": "JMG Adverstising",
    "description": "Advertising Agencies",
    "phone": "(954) 965-9791",
    "address": " 2544 N State Road 7  Hollywood, FL 33021",
    "location": "Martin"
  },
  {
    "name": "myKonnect.com",
    "description": "Advertising Agencies",
    "phone": "(786) 474-7233",
    "address": " 1615 Arthur St  Hollywood, FL 33020",
    "location": "Martin"
  },
  {
    "name": "Mlx",
    "description": "Advertising Agencies",
    "phone": "(954) 394-2588",
    "address": " 2438 Thomas St  Hollywood, FL 33020",
    "location": "Martin"
  },
  {
    "name": "Marketing Matters",
    "description": "Advertising Agencies",
    "phone": "(954) 925-1511",
    "address": " 2700 N 29th Ave  Hollywood, FL 33020",
    "location": "Martin"
  },
  {
    "name": "Al Behrendt Enterprises Inc",
    "description": "Advertising Agencies",
    "phone": "(954) 920-7877",
    "address": " 1 Oakwood Blvd Ste 140  Hollywood, FL 33020",
    "location": "Martin"
  },
  {
    "name": "Moroch Partners",
    "description": "Advertising Agencies",
    "phone": "(954) 921-0625",
    "address": " 1 Oakwood Blvd Ste 150  Hollywood, FL 33020",
    "location": "Martin"
  },
  {
    "name": "Tobie & Friends",
    "description": "Advertising Agencies",
    "phone": "(954) 989-2223",
    "address": " 3500 N 33rd Ter  Hollywood, FL 33021",
    "location": "Martin"
  },
  {
    "name": "Awesome Advertising",
    "description": "Advertising Agencies",
    "phone": "(954) 445-7706",
    "address": " 6440 Pershing St  Hollywood, FL 33024",
    "location": "Martin"
  },
  {
    "name": "Click 2 See",
    "description": "Advertising Agencies",
    "phone": "(754) 210-3882",
    "address": " 11820 Miramar Pkwy  Miramar, FL 33025",
    "location": "Martin"
  },
  {
    "name": "Shopperting",
    "description": "Advertising Agencies",
    "phone": "(954) 470-3034",
    "address": " 11820 Miramar Pkwy  Miramar, FL 33025",
    "location": "Martin"
  },
  {
    "name": "Goldforest",
    "description": "Advertising Agencies",
    "phone": "(954) 929-7790",
    "address": " 2994 Lakewood Ln  Hollywood, FL 33021",
    "location": "Martin"
  },
  {
    "name": "Herzog & Assoc Inc",
    "description": "Advertising Agencies",
    "phone": "(954) 987-8290",
    "address": " 3022 Oaktree Ln  Hollywood, FL 33021",
    "location": "Martin"
  },
  {
    "name": "Cdmc Consulting Inc",
    "description": "Advertising Agencies",
    "phone": "(954) 926-3645",
    "address": " 920 Corkwood St  Hollywood, FL 33019",
    "location": "Martin"
  },
  {
    "name": "Social Agency",
    "description": "Advertising Agencies",
    "phone": "(954) 251-6276",
    "address": " 2901 Stirling Rd Ste 210  Fort Lauderdale, FL 33312",
    "location": "Martin"
  },
  {
    "name": "DashClicks",
    "description": "Advertising Agencies",
    "phone": "(866) 600-3369",
    "address": " 2901 Stirling Rd Ste 210  Fort Lauderdale, FL 33312",
    "location": "Martin"
  },
  {
    "name": "Canadian Meds",
    "description": "Advertising Agencies",
    "phone": "(754) 400-7362",
    "address": " 3777 NW 78th Ave  Hollywood, FL 33024",
    "location": "Martin"
  },
  {
    "name": "Bernard Hodes Group",
    "description": "Advertising Agencies",
    "phone": "(954) 966-3511",
    "address": " 2901 Stirling Rd  Hollywood, FL 33020",
    "location": "Martin"
  },
  {
    "name": "Beber Silverstein Group",
    "description": "Advertising Agencies",
    "phone": "(305) 856-9800",
    "address": " 89 NE 27th St  Miami, FL 33137",
    "location": "Martin"
  },
  {
    "name": "Brain Switch Advertising",
    "description": "Advertising Agencies",
    "phone": "(305) 576-1415",
    "address": " 250 NW 23rd St  Miami, FL 33127",
    "location": "Martin"
  }
]
