[
  {
    "name": "Nscope Multimedia",
    "description": "Advertising Agencies",
    "phone": "(407) 704-3640",
    "address": " 877 Grand Regency Pointe Unit 105  Altamonte Springs, FL 32714",
    "location": "Monroe"
  },
  {
    "name": "Comprehensive HR Solutions",
    "description": "Advertising Agencies",
    "phone": "(407) 578-8399",
    "address": " 696 Oak Hollow Way  Altamonte Springs, FL 32714",
    "location": "Monroe"
  },
  {
    "name": "MP advertising.com",
    "description": "Advertising Agencies",
    "phone": "(407) 324-3255",
    "address": " PO Box 3052 E. Jefferson Street  Orlando, FL 32802",
    "location": "Monroe"
  },
  {
    "name": "Reliable Experts Consulting",
    "description": "Advertising Agencies",
    "phone": "(321) 206-8881",
    "address": " 1800 Pembrook Dr  Orlando, FL 32810",
    "location": "Monroe"
  },
  {
    "name": "Stadler-Green Advertising",
    "description": "Advertising Agencies",
    "phone": "(407) 667-4800",
    "address": " 1800 Pembrook Dr  Orlando, FL 32810",
    "location": "Monroe"
  },
  {
    "name": "Global Marketing Ent",
    "description": "Advertising Agencies",
    "phone": "(407) 298-2480",
    "address": " 5554 Burlwood Dr  Orlando, FL 32810",
    "location": "Monroe"
  },
  {
    "name": "Switch Consulting Inc",
    "description": "Advertising Agencies",
    "phone": "(407) 252-4634",
    "address": " PO Box 677326  Orlando, FL 32867",
    "location": "Monroe"
  },
  {
    "name": "Citrus Sign Studio",
    "description": "Advertising Agencies",
    "phone": "(321) 285-0730",
    "address": " 6110 Edgewater Dr Suite H  Orlando, FL 32810",
    "location": "Monroe"
  },
  {
    "name": "Jerry Defalco Advertising",
    "description": "Advertising Agencies",
    "phone": "(407) 661-3131",
    "address": " 1060 Maitland Center Commons Blvd Ste 410  Maitland, FL 32751",
    "location": "Monroe"
  },
  {
    "name": "US Associates Bright Hse Network",
    "description": "Advertising Agencies",
    "phone": "(407) 951-7254",
    "address": " 2600 Maitland Center Pkwy Ste 295  Maitland, FL 32751",
    "location": "Monroe"
  },
  {
    "name": "TKO-Terry/Kane Orlando Inc",
    "description": "Advertising Agencies",
    "phone": "(407) 649-8730",
    "address": " 1051 Winderley Pl  Maitland, FL 32751",
    "location": "Monroe"
  },
  {
    "name": "iHeartMedia",
    "description": "Advertising Agencies",
    "phone": "(407) 916-7800",
    "address": " 2500 Maitland Center Pkwy  Maitland, FL 32751",
    "location": "Monroe"
  },
  {
    "name": "National Ad Mark Corporation",
    "description": "Advertising Agencies",
    "phone": "(407) 660-6684",
    "address": " 101 Southhall Ln  Maitland, FL 32751",
    "location": "Monroe"
  },
  {
    "name": "The Ad Team",
    "description": "Advertising Agencies",
    "phone": "(407) 667-4708",
    "address": " 101 Southhall Ln  Maitland, FL 32751",
    "location": "Monroe"
  },
  {
    "name": "Bernard Hodes Advertising Inc",
    "description": "Advertising Agencies",
    "phone": "(407) 740-5002",
    "address": " 1101 N Lake Destiny Rd Ste 300  Maitland, FL 32751",
    "location": "Monroe"
  },
  {
    "name": "Think Agency",
    "description": "Advertising Agencies",
    "phone": "(407) 875-1999",
    "address": " 1001 N Lake Destiny Rd Ste 300  Maitland, FL 32751",
    "location": "Monroe"
  },
  {
    "name": "Dominion Enterprises",
    "description": "Advertising Agencies",
    "phone": "(407) 673-3466",
    "address": " 901 N Lake Destiny Rd  Maitland, FL 32751",
    "location": "Monroe"
  },
  {
    "name": "Rw Mindrup & Assoc",
    "description": "Advertising Agencies",
    "phone": "(407) 774-0672",
    "address": " 725 Little Wekiva Cir  Altamonte Springs, FL 32714",
    "location": "Monroe"
  },
  {
    "name": "Corporate Relations Group Inc",
    "description": "Advertising Agencies",
    "phone": "(407) 628-5700",
    "address": " 2649 Pemberton Dr  Apopka, FL 32703",
    "location": "Monroe"
  },
  {
    "name": "Monster Media",
    "description": "Advertising Agencies",
    "phone": "(407) 478-8163",
    "address": " 555 S Lake Destiny Dr Suite 100  Orlando, FL 32810",
    "location": "Monroe"
  },
  {
    "name": "JKR Advertising & Marketing",
    "description": "Advertising Agencies",
    "phone": "(321) 397-0777",
    "address": " 298 S Lake Destiny Dr  Orlando, FL 32810",
    "location": "Monroe"
  },
  {
    "name": "Ads",
    "description": "Advertising Agencies",
    "phone": "(407) 293-0293",
    "address": " 5722 N Pine Hills Rd  Orlando, FL 32810",
    "location": "Monroe"
  },
  {
    "name": "Promo Only",
    "description": "Advertising Agencies",
    "phone": "(407) 838-2030",
    "address": " 257 S Lake Destiny Dr  Orlando, FL 32810",
    "location": "Monroe"
  },
  {
    "name": "Acropolis Inc",
    "description": "Advertising Agencies",
    "phone": "(407) 895-4444",
    "address": " 5125 Adanson St Ste 200  Orlando, FL 32804",
    "location": "Monroe"
  },
  {
    "name": "CSI Promotions",
    "description": "Advertising Agencies",
    "phone": "(407) 468-5099",
    "address": " 479 Montgomery Pl  Altamonte Springs, FL 32714",
    "location": "Monroe"
  },
  {
    "name": "Jungle Network",
    "description": "Advertising Agencies",
    "phone": "(407) 389-2002",
    "address": " 479 Montgomery Pl  Altamonte Springs, FL 32714",
    "location": "Monroe"
  },
  {
    "name": "G A & Co",
    "description": "Advertising Agencies",
    "phone": "(407) 339-1736",
    "address": " 333 Croton Dr  Maitland, FL 32751",
    "location": "Monroe"
  },
  {
    "name": "M77 Media",
    "description": "Advertising Agencies",
    "phone": "(833) 992-1313",
    "address": " 217 N Westmonte Dr  Altamonte Springs, FL 32714",
    "location": "Monroe"
  },
  {
    "name": "Fat Free Media",
    "description": "Advertising Agencies",
    "phone": "(407) 786-8669",
    "address": " 932 Centre Cir  Altamonte Springs, FL 32714",
    "location": "Monroe"
  },
  {
    "name": "Technical Communications Group",
    "description": "Advertising Agencies",
    "phone": "(407) 831-2235",
    "address": " 403 Barclay Ave  Altamonte Springs, FL 32701",
    "location": "Monroe"
  },
  {
    "name": "Premier Development Construction",
    "description": "Advertising Agencies",
    "phone": "(407) 401-2504",
    "address": " 385 Douglas Ave Ste 2250  Altamonte Springs, FL 32714",
    "location": "Monroe"
  },
  {
    "name": "Florida Apartment Assn",
    "description": "Advertising Agencies",
    "phone": "(407) 647-8839",
    "address": " 875 Concourse Pkwy S  Maitland, FL 32751",
    "location": "Monroe"
  },
  {
    "name": "Corporate Image Bureau",
    "description": "Advertising Agencies",
    "phone": "(407) 774-1529",
    "address": " 445 Douglas Ave  Altamonte Springs, FL 32714",
    "location": "Monroe"
  },
  {
    "name": "Chameleon Web/Multimedia Design",
    "description": "Advertising Agencies",
    "phone": "(407) 616-2645",
    "address": " 315 Lakepointe Dr  Altamonte Springs, FL 32701",
    "location": "Monroe"
  },
  {
    "name": "Yuppify",
    "description": "Advertising Agencies",
    "phone": "(407) 761-6952",
    "address": " 606 Lake Orienta Dr  Altamonte Springs, FL 32701",
    "location": "Monroe"
  },
  {
    "name": "Genius Advertising & Marketing",
    "description": "Advertising Agencies",
    "phone": "(407) 682-3037",
    "address": " 864 Little Bend Rd  Altamonte Springs, FL 32714",
    "location": "Monroe"
  },
  {
    "name": "Newton's Force",
    "description": "Advertising Agencies",
    "phone": "(407) 682-7896",
    "address": " 478 E Altamonte Dr  Altamonte Springs, FL 32701",
    "location": "Monroe"
  },
  {
    "name": "Grb Enterprises",
    "description": "Advertising Agencies",
    "phone": "(407) 644-1612",
    "address": " 1150 Grove St  Maitland, FL 32751",
    "location": "Monroe"
  },
  {
    "name": "Strange Cloudz Clearinghouse",
    "description": "Advertising Agencies",
    "phone": "(407) 458-4480",
    "address": " 4139 Player Cir  Orlando, FL 32808",
    "location": "Monroe"
  },
  {
    "name": "Brandcomet",
    "description": "Advertising Agencies",
    "phone": "(407) 622-1993",
    "address": " 465 S Orlando Ave  Maitland, FL 32751",
    "location": "Monroe"
  },
  {
    "name": "Conectar Agency Inc",
    "description": "Advertising Agencies",
    "phone": "(407) 801-0046",
    "address": " 1620 S Orlando Ave  Maitland, FL 32751",
    "location": "Monroe"
  },
  {
    "name": "Dat Media",
    "description": "Advertising Agencies",
    "phone": "(407) 759-5717",
    "address": " 2307 Lee Rd  Winter Park, FL 32789",
    "location": "Monroe"
  },
  {
    "name": "Ad Satisfaction",
    "description": "Advertising Agencies",
    "phone": "(407) 862-1228",
    "address": " 580 Ololu Dr  Winter Park, FL 32789",
    "location": "Monroe"
  },
  {
    "name": "Cmts",
    "description": "Advertising Agencies",
    "phone": "(904) 739-9804",
    "address": " 608 Maitland Ave  Altamonte Springs, FL 32701",
    "location": "Monroe"
  },
  {
    "name": "Gillman Advertising Specialties",
    "description": "Advertising Agencies",
    "phone": "(407) 331-5111",
    "address": " 657 Maitland Ave  Altamonte Springs, FL 32701",
    "location": "Monroe"
  },
  {
    "name": "Rennew Media",
    "description": "Advertising Agencies",
    "phone": "(407) 900-7734",
    "address": " 151 N Maitland Ave  Maitland, FL 32751",
    "location": "Monroe"
  },
  {
    "name": "Logogram",
    "description": "Advertising Agencies",
    "phone": "(407) 740-5511",
    "address": " 2250 Lee Rd  Winter Park, FL 32789",
    "location": "Monroe"
  },
  {
    "name": "Capital Advantage",
    "description": "Advertising Agencies",
    "phone": "(407) 261-9002",
    "address": " 498 Palm Springs Dr  Altamonte Springs, FL 32701",
    "location": "Monroe"
  },
  {
    "name": "Righter Communications",
    "description": "Advertising Agencies",
    "phone": "(407) 261-9001",
    "address": " 498 Palm Springs Dr  Altamonte Springs, FL 32701",
    "location": "Monroe"
  },
  {
    "name": "AG Ad Agency",
    "description": "Advertising Agencies",
    "phone": "(407) 645-1950",
    "address": " 166 Lookout Pl Ste 101  Maitland, FL 32751",
    "location": "Monroe"
  },
  {
    "name": "Patterson & Taylor Inc",
    "description": "Advertising Agencies",
    "phone": "(407) 339-0793",
    "address": " 145 S Orange Suite 8 Ave  Maitland, FL 32751",
    "location": "Monroe"
  },
  {
    "name": "Product Marketing Group",
    "description": "Advertising Agencies",
    "phone": "(407) 774-6363",
    "address": " 978 Douglas Ave  Altamonte Springs, FL 32714",
    "location": "Monroe"
  },
  {
    "name": "Delisle & Associates",
    "description": "Advertising Agencies",
    "phone": "(407) 331-7705",
    "address": " 711 Ballard St  Altamonte Springs, FL 32701",
    "location": "Monroe"
  },
  {
    "name": "Wilcox & Associates Inc",
    "description": "Advertising Agencies",
    "phone": "(407) 629-6746",
    "address": " 540 S Maitland Ave  Maitland, FL 32751",
    "location": "Monroe"
  },
  {
    "name": "Medtech Momentum",
    "description": "Advertising Agencies",
    "phone": "(407) 960-2994",
    "address": " 377 Maitland Ave  Altamonte Springs, FL 32701",
    "location": "Monroe"
  },
  {
    "name": "JKR Advertising & Marketings",
    "description": "Advertising Agencies",
    "phone": "(321) 397-0777",
    "address": " 195 Wekiva Springs Rd  Longwood, FL 32779",
    "location": "Monroe"
  },
  {
    "name": "BCV Deals",
    "description": "Advertising Agencies",
    "phone": "(407) 571-2980",
    "address": " 260 Maitland Ave  Altamonte Springs, FL 32701",
    "location": "Monroe"
  },
  {
    "name": "Mall Media Services, Inc.",
    "description": "Advertising Agencies",
    "phone": "(407) 443-2369",
    "address": " 412 E Citrus St  Altamonte Springs, FL 32701",
    "location": "Monroe"
  },
  {
    "name": "Charles Williams Business Group",
    "description": "Advertising Agencies",
    "phone": "(407) 764-8484",
    "address": " 407 Wekiva Springs Rd  Longwood, FL 32779",
    "location": "Monroe"
  },
  {
    "name": "Lawyers Group Advertising",
    "description": "Advertising Agencies",
    "phone": "(321) 972-5620",
    "address": " 2729 W Fairbanks Ave  Winter Park, FL 32789",
    "location": "Monroe"
  },
  {
    "name": "Evaluvest Banch Ops Inc",
    "description": "Advertising Agencies",
    "phone": "(407) 865-7408",
    "address": " 1150 Douglas Ave Ste 1070  Altamonte Springs, FL 32714",
    "location": "Monroe"
  },
  {
    "name": "Push Button Productions",
    "description": "Advertising Agencies",
    "phone": "(888) 494-7874",
    "address": " 815 Orienta Ave Ste 1060  Altamonte Springs, FL 32701",
    "location": "Monroe"
  },
  {
    "name": "MLB Creative",
    "description": "Advertising Agencies",
    "phone": "(407) 645-4652",
    "address": " 1778 N Park Ave Ste 100  Maitland, FL 32751",
    "location": "Monroe"
  },
  {
    "name": "Help 4 You America Inc",
    "description": "Advertising Agencies",
    "phone": "(407) 265-7248",
    "address": " 241 Obrien Rd  Fern Park, FL 32730",
    "location": "Monroe"
  },
  {
    "name": "Jane Newnum and Associates",
    "description": "Advertising Agencies",
    "phone": "(407) 647-0442",
    "address": " 2107 N Park Ave  Winter Park, FL 32789",
    "location": "Monroe"
  },
  {
    "name": "Cutting Edge Communications",
    "description": "Advertising Agencies",
    "phone": "(407) 629-6366",
    "address": " 1300 Lyndale Blvd  Winter Park, FL 32789",
    "location": "Monroe"
  },
  {
    "name": "Fresh Communications",
    "description": "Advertising Agencies",
    "phone": "(407) 998-5123",
    "address": " 1855 W State Road 434  Longwood, FL 32750",
    "location": "Monroe"
  },
  {
    "name": "Think Creative Inc",
    "description": "Advertising Agencies",
    "phone": "(407) 896-5757",
    "address": " 1001 Virginia Dr  Orlando, FL 32803",
    "location": "Monroe"
  },
  {
    "name": "Higgins Marketing Group, Inc.",
    "description": "Advertising Agencies",
    "phone": "(407) 680-3735",
    "address": " 219 Duncan Trl  Longwood, FL 32779",
    "location": "Monroe"
  },
  {
    "name": "Dymeanite Entertainment A",
    "description": "Advertising Agencies",
    "phone": "(407) 930-3794",
    "address": " 5103 Silver Star Rd  Orlando, FL 32808",
    "location": "Monroe"
  },
  {
    "name": "Bright Rain Advertising",
    "description": "Advertising Agencies",
    "phone": "(407) 440-3017",
    "address": " 733 W Smith St  Orlando, FL 32804",
    "location": "Monroe"
  },
  {
    "name": "Artworks",
    "description": "Advertising Agencies",
    "phone": "(407) 843-2953",
    "address": " 609 Vassar St  Orlando, FL 32804",
    "location": "Monroe"
  },
  {
    "name": "Ashland",
    "description": "Advertising Agencies",
    "phone": "(407) 298-8960",
    "address": " 7760 Senjill Ct  Orlando, FL 32818",
    "location": "Monroe"
  },
  {
    "name": "Authentic Momentum Social Media and SEO Firm",
    "description": "Advertising Agencies",
    "phone": "(407) 513-2817",
    "address": " 2 W Harvard St  Orlando, FL 32804",
    "location": "Monroe"
  },
  {
    "name": "Chris Distribution",
    "description": "Advertising Agencies",
    "phone": "(407) 420-1230",
    "address": " 921 Shady Lane Dr  Orlando, FL 32804",
    "location": "Monroe"
  },
  {
    "name": "Next Bridge Advisors Inc",
    "description": "Advertising Agencies",
    "phone": "(646) 755-3926",
    "address": " 1317 Edgewater Dr  Orlando, FL 32804",
    "location": "Monroe"
  },
  {
    "name": "Reed Brennan Media Associates",
    "description": "Advertising Agencies",
    "phone": "(407) 894-7300",
    "address": " 628 Virginia Dr  Orlando, FL 32803",
    "location": "Monroe"
  },
  {
    "name": "Reachlocal",
    "description": "Advertising Agencies",
    "phone": "(877) 525-6084",
    "address": " 1000 Legion Pl  Orlando, FL 32801",
    "location": "Monroe"
  },
  {
    "name": "LocaliQ",
    "description": "Advertising Agencies",
    "phone": "(877) 525-6084",
    "address": " 1000 Legion Pl  Orlando, FL 32801",
    "location": "Monroe"
  },
  {
    "name": "Fifty & Five - Marketing Agency",
    "description": "Advertising Agencies",
    "phone": "(310) 902-3246",
    "address": " 1001 N Orange Ave  Orlando, FL 32801",
    "location": "Monroe"
  },
  {
    "name": "Virtual Biz Expos",
    "description": "Advertising Agencies",
    "phone": "(407) 377-6500",
    "address": " 845 N Garland Ave  Orlando, FL 32801",
    "location": "Monroe"
  },
  {
    "name": "Latavia Matthews",
    "description": "Advertising Agencies",
    "phone": "(786) 309-4596",
    "address": " 425 W Colonial Dr Ste 303  Orlando, FL 32804",
    "location": "Monroe"
  },
  {
    "name": "Jackson Advertising Inc",
    "description": "Advertising Agencies",
    "phone": "(407) 849-9995",
    "address": " 912 Highland Ave  Orlando, FL 32803",
    "location": "Monroe"
  },
  {
    "name": "Elite Business Productions",
    "description": "Advertising Agencies",
    "phone": "(407) 292-9166",
    "address": " 600 Triumph Ct  Orlando, FL 32805",
    "location": "Monroe"
  },
  {
    "name": "DigitalUs",
    "description": "Advertising Agencies",
    "phone": "(407) 930-8965",
    "address": " 800 N Magnolia Ave  Orlando, FL 32803",
    "location": "Monroe"
  },
  {
    "name": "Cosmetic Promotions Inc",
    "description": "Advertising Agencies",
    "phone": "(407) 644-9916",
    "address": " 1216 W Amelia St  Orlando, FL 32805",
    "location": "Monroe"
  },
  {
    "name": "Say It Loud",
    "description": "Advertising Agencies",
    "phone": "(407) 898-7299",
    "address": " 1121 N Mills Ave  Orlando, FL 32803",
    "location": "Monroe"
  },
  {
    "name": "Aop Advertising",
    "description": "Advertising Agencies",
    "phone": "(352) 435-7307",
    "address": " 421 Lakeshore Dr  Leesburg, FL 34748",
    "location": "Monroe"
  },
  {
    "name": "Signal Outdoor Advertisin",
    "description": "Outdoor Advertising",
    "phone": "(407) 856-7079",
    "address": " 3740 All American Blvd  Orlando, FL 32810",
    "location": "Monroe"
  },
  {
    "name": "Outdoor Images Inc",
    "description": "Signs",
    "phone": "(321) 270-0560",
    "address": " 4061 Forrestal Ave Unit 2  Orlando, FL 32806",
    "location": "Monroe"
  },
  {
    "name": "Sunstate Awnings",
    "description": "Building Contractors-Commercial & Industrial",
    "phone": "(386) 868-4507",
    "address": " 50 Keyes Ave  Sanford, FL 32773",
    "location": "Monroe"
  },
  {
    "name": "Mobile Designs Inc",
    "description": "T-Shirts",
    "phone": "(386) 327-2159",
    "address": " 1607 S. State Road 15 A Suite 6  Deland, FL 32720",
    "location": "Monroe"
  },
  {
    "name": "Custom Graphic Designs",
    "description": "Copying & Duplicating Service",
    "phone": "(386) 229-3832",
    "address": " 4462 Highway 17  DeLand, FL 32720",
    "location": "Monroe"
  }
]
