[
  {
    "name": "Linder Consulting Group",
    "description": "Advertising Agencies",
    "phone": "(305) 956-9725",
    "address": " 1551 NE Miami Gardens Dr  Miami, FL 33179",
    "location": "Nassau"
  },
  {
    "name": "Walter Vision Productions Inc",
    "description": "Advertising Agencies",
    "phone": "(305) 572-9313",
    "address": " 801 NE 167th St  North Miami Beach, FL 33162",
    "location": "Nassau"
  },
  {
    "name": "Advertising Updated Inc",
    "description": "Advertising Agencies",
    "phone": "(305) 944-6718",
    "address": " 1248 NE 154th St  North Miami Beach, FL 33162",
    "location": "Nassau"
  },
  {
    "name": "Ad-Pros Group",
    "description": "Advertising Agencies",
    "phone": "(305) 956-9906",
    "address": " 1810 NE 153rd St  North Miami Beach, FL 33162",
    "location": "Nassau"
  },
  {
    "name": "Afrovisions Pr Advertising Inc",
    "description": "Advertising Agencies",
    "phone": "(305) 949-8239",
    "address": " 1348 NE 147th St  Miami, FL 33161",
    "location": "Nassau"
  },
  {
    "name": "The LED City",
    "description": "Advertising Agencies",
    "phone": "(786) 744-3050",
    "address": " 1943 NE 148th St  Miami, FL 33181",
    "location": "Nassau"
  },
  {
    "name": "Www.Exhibitdeal.Com",
    "description": "Advertising Agencies",
    "phone": "(310) 899-1257",
    "address": " 18502 NE 5th Ave  Miami, FL 33179",
    "location": "Nassau"
  },
  {
    "name": "Marlite Inc",
    "description": "Advertising Agencies",
    "phone": "(305) 655-3520",
    "address": " 300 NE 183rd St  Miami, FL 33179",
    "location": "Nassau"
  },
  {
    "name": "Mobile Billboard Miami",
    "description": "Advertising Agencies",
    "phone": "(305) 814-5880",
    "address": " 19820 NE 10th Ct  Miami, FL 33179",
    "location": "Nassau"
  },
  {
    "name": "Mike Davis Consultant PA",
    "description": "Advertising Agencies",
    "phone": "(305) 974-4549",
    "address": " 99 NW 183rd St  Miami, FL 33169",
    "location": "Nassau"
  },
  {
    "name": "Metellus Inc",
    "description": "Advertising Agencies",
    "phone": "(305) 974-4857",
    "address": " 99 NW 183rd St  Miami, FL 33169",
    "location": "Nassau"
  },
  {
    "name": "Family Matters",
    "description": "Advertising Agencies",
    "phone": "(786) 520-4255",
    "address": " 99 NW 183rd St  Miami, FL 33169",
    "location": "Nassau"
  },
  {
    "name": "Square One Branding",
    "description": "Advertising Agencies",
    "phone": "(786) 552-6343",
    "address": " 8201 Coral Way  Miami, FL 33155",
    "location": "Nassau"
  },
  {
    "name": "Mak Media",
    "description": "Advertising Agencies",
    "phone": "(305) 956-9563",
    "address": " 15050 NE 20th Ave Ste 101  North Miami, FL 33181",
    "location": "Nassau"
  },
  {
    "name": "Net Temps",
    "description": "Advertising Agencies",
    "phone": "(305) 956-2476",
    "address": " 17501 Biscayne Blvd  Aventura, FL 33160",
    "location": "Nassau"
  },
  {
    "name": "I Hostthm.Com",
    "description": "Advertising Agencies",
    "phone": "(305) 891-7322",
    "address": " 14260 NE 12th Ave  North Miami, FL 33161",
    "location": "Nassau"
  },
  {
    "name": "Spark Creative Design",
    "description": "Advertising Agencies",
    "phone": "(305) 933-3703",
    "address": " 18161 Biscayne Blvd  Aventura, FL 33160",
    "location": "Nassau"
  },
  {
    "name": "Learn About",
    "description": "Advertising Agencies",
    "phone": "(484) 661-7411",
    "address": " 2750 NE 183rd St  Aventura, FL 33160",
    "location": "Nassau"
  },
  {
    "name": "Keyes Martin & Gaby",
    "description": "Advertising Agencies",
    "phone": "(305) 702-6386",
    "address": " 13899 Biscayne Blvd  North Miami Beach, FL 33181",
    "location": "Nassau"
  },
  {
    "name": "Mr3 Marketing",
    "description": "Advertising Agencies",
    "phone": "(305) 931-0332",
    "address": " 2780 NE 183rd St  Aventura, FL 33160",
    "location": "Nassau"
  },
  {
    "name": "Berman Margo",
    "description": "Advertising Agencies",
    "phone": "(305) 949-7711",
    "address": " 3351 NE 164th St  North Miami Beach, FL 33160",
    "location": "Nassau"
  },
  {
    "name": "Rabinovici And Assoc",
    "description": "Advertising Agencies",
    "phone": "(305) 655-0021",
    "address": " 20815 NE 16th Ave  Miami, FL 33179",
    "location": "Nassau"
  },
  {
    "name": "The Badimon Group",
    "description": "Advertising Agencies",
    "phone": "(305) 785-8511",
    "address": " 2971 NE 185th St APT 1906  Miami, FL 33180",
    "location": "Nassau"
  },
  {
    "name": "Highleveladvertising",
    "description": "Advertising Agencies",
    "phone": "(954) 625-9123",
    "address": " 111 NW 183rd St Ste 302  Miami, FL 33169",
    "location": "Nassau"
  }
]
