[
  {
    "name": "Toledo Creative Group",
    "description": "Advertising Agencies",
    "phone": "(305) 631-6954",
    "address": " 215 Sw 17th Ave, Suite 216-B  Miami, FL 33135",
    "location": "Osceola"
  },
  {
    "name": "Z Advertising Group",
    "description": "Advertising Agencies",
    "phone": "(786) 871-7286",
    "address": " 1750 SW 7th St  Miami, FL 33135",
    "location": "Osceola"
  },
  {
    "name": "Parking Garage Advertising",
    "description": "Advertising Agencies",
    "phone": "(954) 558-4975",
    "address": " 1637 SW 8th St  Miami, FL 33135",
    "location": "Osceola"
  },
  {
    "name": "C & P Video Advertising System",
    "description": "Advertising Agencies",
    "phone": "(305) 649-4030",
    "address": " 1393 SW 1st St  Miami, FL 33135",
    "location": "Osceola"
  },
  {
    "name": "Triumph Advertising",
    "description": "Advertising Agencies",
    "phone": "(305) 545-0168",
    "address": " 1143 W Flagler St  Miami, FL 33130",
    "location": "Osceola"
  },
  {
    "name": "Dollar Store",
    "description": "Advertising Agencies",
    "phone": "(305) 545-9270",
    "address": " 1104 W Flagler St  Miami, FL 33130",
    "location": "Osceola"
  },
  {
    "name": "The Hitter Inc",
    "description": "Advertising Agencies",
    "phone": "(305) 456-6043",
    "address": " 1830 NW 7th St Ste 218  Miami, FL 33125",
    "location": "Osceola"
  },
  {
    "name": "Miami Business Advertising",
    "description": "Advertising Agencies",
    "phone": "(305) 807-2413",
    "address": " 2529 SW 8th St  Miami, FL 33135",
    "location": "Osceola"
  },
  {
    "name": "The Adsmith",
    "description": "Advertising Agencies",
    "phone": "(305) 491-5950",
    "address": " 814 NW 20th Ave  Miami, FL 33125",
    "location": "Osceola"
  },
  {
    "name": "Pow Inc",
    "description": "Advertising Agencies",
    "phone": "(305) 438-0063",
    "address": " 1221 SW 27th Ave  Miami, FL 33135",
    "location": "Osceola"
  },
  {
    "name": "Alonso & Company",
    "description": "Advertising Agencies",
    "phone": "(305) 854-5699",
    "address": " 1401 SW 22nd St  Miami, FL 33145",
    "location": "Osceola"
  },
  {
    "name": "Jay Lawrence Advertising Co",
    "description": "Advertising Agencies",
    "phone": "(305) 860-1200",
    "address": " 1840 Coral Way  Miami, FL 33145",
    "location": "Osceola"
  },
  {
    "name": "Excel Advertising",
    "description": "Advertising Agencies",
    "phone": "(305) 856-7083",
    "address": " 2600 SW 3rd Ave  Miami, FL 33129",
    "location": "Osceola"
  },
  {
    "name": "Group",
    "description": "Advertising Agencies",
    "phone": "(305) 477-6364",
    "address": " 2341 SW 10th St  Miami, FL 33135",
    "location": "Osceola"
  },
  {
    "name": "C-Com Group Inc",
    "description": "Advertising Agencies",
    "phone": "(305) 371-4030",
    "address": " 1790 Coral Way  Coral Gables, FL 33145",
    "location": "Osceola"
  },
  {
    "name": "Shine Entertainment Med",
    "description": "Advertising Agencies",
    "phone": "(305) 860-9911",
    "address": " 520 SW 22nd Rd  Miami, FL 33129",
    "location": "Osceola"
  },
  {
    "name": "Di Tu Services",
    "description": "Advertising Agencies",
    "phone": "(786) 452-1154",
    "address": " 1701 W Flagler St  Miami, FL 33135",
    "location": "Osceola"
  },
  {
    "name": "Miami Billboard Advertising & SEO",
    "description": "Advertising Agencies",
    "phone": "(305) 370-9973",
    "address": " 501 Marlins Way  Miami, FL 33125",
    "location": "Osceola"
  },
  {
    "name": "Young & Rubicam",
    "description": "Advertising Agencies",
    "phone": "(305) 347-1900",
    "address": " 601 Brickell Key Dr  Miami, FL 33131",
    "location": "Osceola"
  },
  {
    "name": "Martin Schleifer Advertising",
    "description": "Advertising Agencies",
    "phone": "(305) 442-7272",
    "address": " 2915 SW 27th Ave  Miami, FL 33133",
    "location": "Osceola"
  },
  {
    "name": "OneAccord Partners",
    "description": "Advertising Agencies",
    "phone": "(305) 432-5210",
    "address": " 1865 Brickell Ave Apt A-1207  Miami, FL 33129",
    "location": "Osceola"
  },
  {
    "name": "Tinsley Advertising",
    "description": "Advertising Agencies",
    "phone": "(305) 856-6060",
    "address": " 2000 S Dixie Hwy Ste 201  Miami, FL 33133",
    "location": "Osceola"
  },
  {
    "name": "Begante",
    "description": "Advertising Agencies",
    "phone": "(305) 925-0816",
    "address": " 1001 Brickell Bay  Miami, FL 33131",
    "location": "Osceola"
  },
  {
    "name": "Prediq Media",
    "description": "Advertising Agencies",
    "phone": "(800) 796-0201",
    "address": " 14 SW 2nd Ave  Miami, FL 33130",
    "location": "Osceola"
  },
  {
    "name": "Publitony USA LLC",
    "description": "Advertising Agencies",
    "phone": "(786) 607-1244",
    "address": " 1221 Brickell Ave  Miami, FL 33131",
    "location": "Osceola"
  },
  {
    "name": "Miami Daily Business Review",
    "description": "Advertising Agencies",
    "phone": "(305) 377-3721",
    "address": " 1 SE 3rd Ave  Miami, FL 33131",
    "location": "Osceola"
  },
  {
    "name": "Ab+A Advertising",
    "description": "Advertising Agencies",
    "phone": "(305) 859-8989",
    "address": " 1235 Coral Way  Miami, FL 33145",
    "location": "Osceola"
  },
  {
    "name": "Cexi Prints & Advertising Inc.",
    "description": "Print Advertising",
    "phone": "(786) 401-7935",
    "address": " 210 N Miami Ave  Miami, FL 33128",
    "location": "Osceola"
  },
  {
    "name": "Jofre Advertising",
    "description": "Advertising-Promotional Products",
    "phone": "(305) 740-8199",
    "address": " 4538 SW 71st Ave  Miami, FL 33155",
    "location": "Osceola"
  },
  {
    "name": "Starlight Advertising Specialty",
    "description": "Advertising Agencies",
    "phone": "(305) 438-0098",
    "address": " 3550 Biscayne Blvd  Miami, FL 33137",
    "location": "Osceola"
  },
  {
    "name": "Barnstormers Aerial Advertising",
    "description": "Advertising-Aerial",
    "phone": "(866) 458-1268",
    "address": " 3259 Biscayne Blvd  Miami, FL 33181",
    "location": "Osceola"
  },
  {
    "name": "Rapid Media Advertising",
    "description": "Marketing Consultants",
    "phone": "(786) 373-8082",
    "address": " 3000 Biscayne Blvd  Miami, FL 33137",
    "location": "Osceola"
  },
  {
    "name": "Play Advertising",
    "description": "Marketing Consultants",
    "phone": "(305) 571-3515",
    "address": " 7371 SW 8th St  Miami, FL 33144",
    "location": "Osceola"
  },
  {
    "name": "MSM Advertising & Logistics",
    "description": "Advertising-Promotional Products",
    "phone": "(786) 717-7558",
    "address": " 7311 NW 12th St #17  Miami, FL 33126",
    "location": "Osceola"
  },
  {
    "name": "ADVERTISING TECHNOLOGIES",
    "description": "Technology-Research & Development",
    "phone": "(786) 409-1653",
    "address": " 555 NE 15th St Ste 200  Miami, FL 33132",
    "location": "Osceola"
  },
  {
    "name": "Beber Slverstein Partners Advertising",
    "description": "Advertising Agencies",
    "phone": "(305) 856-9800",
    "address": " 89 NE 27th St  Miami, FL 33137",
    "location": "Osceola"
  },
  {
    "name": "Union Aquarius Advertising Inc",
    "description": "Advertising Specialties",
    "phone": "(305) 629-8232",
    "address": " 737 NW 36th St  Miami, FL 33127",
    "location": "Osceola"
  },
  {
    "name": "Executive Advertising Group",
    "description": "Advertising Agencies",
    "phone": "(305) 597-5454",
    "address": " 2930 Biscayne Blvd  Miami, FL 33137",
    "location": "Osceola"
  },
  {
    "name": "Hayday Advertising",
    "description": "Advertising Agencies",
    "phone": "(786) 410-2886",
    "address": " 3199 NW 36th St  Miami, FL 33142",
    "location": "Osceola"
  },
  {
    "name": "D V Advertising",
    "description": "Advertising Agencies",
    "phone": "(786) 542-6625",
    "address": " 3050 Biscayne Blvd  Miami, FL 33137",
    "location": "Osceola"
  },
  {
    "name": "Thinkpenny Advertising and Design",
    "description": "Advertising Specialties",
    "phone": "(305) 576-7500",
    "address": " 29 NE 40th St  Miami, FL 33137",
    "location": "Osceola"
  },
  {
    "name": "Concept Cafe Advertising",
    "description": "Coffee Shops",
    "phone": "(305) 856-4567",
    "address": " 3930 NE 2nd Ave Ste 200  Miami, FL 33137",
    "location": "Osceola"
  },
  {
    "name": "Gold Coast Advertising Associates Inc",
    "description": "Advertising Agencies",
    "phone": "(305) 576-4141",
    "address": " 4141 NE 2nd Ave  Miami, FL 33137",
    "location": "Osceola"
  },
  {
    "name": "Opg Media Advertising Inc",
    "description": "Advertising Agencies",
    "phone": "(786) 704-1401",
    "address": " 5305 NW 2nd Ave  Miami, FL 33127",
    "location": "Osceola"
  },
  {
    "name": "Creative Hands Advertising & Promotions Inc",
    "description": "T-Shirts",
    "phone": "(305) 264-1040",
    "address": " 240 NW 62nd Ave  Miami, FL 33126",
    "location": "Osceola"
  },
  {
    "name": "Innovo Advertising",
    "description": "Marketing Programs & Services",
    "phone": "(305) 741-2591",
    "address": " 6101 Waterford District Dr  Miami, FL 33126",
    "location": "Osceola"
  },
  {
    "name": "Bodner Advertising",
    "description": "Advertising Specialties",
    "phone": "(305) 874-7070",
    "address": " 5600 NW 36th St  Miami, FL 33166",
    "location": "Osceola"
  },
  {
    "name": "Superior Mobile Advertising",
    "description": "Advertising Specialties",
    "phone": "(305) 266-5676",
    "address": " 777 NW 72nd Ave  Miami, FL 33126",
    "location": "Osceola"
  },
  {
    "name": "Goal Advertising",
    "description": "Advertising Specialties",
    "phone": "(305) 463-9466",
    "address": " 2365 NW 70th Ave  Miami, FL 33122",
    "location": "Osceola"
  },
  {
    "name": "Majors Advertising",
    "description": "Advertising Specialties",
    "phone": "(305) 266-6734",
    "address": " 7360 Coral Way  Miami, FL 33155",
    "location": "Osceola"
  },
  {
    "name": "Las Advertising Specialties",
    "description": "Advertising Specialties",
    "phone": "(305) 463-9482",
    "address": " 3399 NW 72nd Ave Ste 117  Miami, FL 33122",
    "location": "Osceola"
  },
  {
    "name": "Florida Advertising and Marketing Corp",
    "description": "Advertising Agencies",
    "phone": "(786) 718-1578",
    "address": " 7500 NW 25th St Ste 292  Miami, FL 33122",
    "location": "Osceola"
  },
  {
    "name": "Playbill Magazine Advertising",
    "description": "Publishers-Periodical",
    "phone": "(305) 665-9001",
    "address": " 5470 SW 70th Pl N  Miami, FL 33155",
    "location": "Osceola"
  },
  {
    "name": "Mexico Advertising Inc",
    "description": "Advertising Agencies",
    "phone": "(786) 409-2811",
    "address": " 4180 SW 74th Ct Ste 207  Miami, FL 33155",
    "location": "Osceola"
  },
  {
    "name": "Brain Switch Advertising",
    "description": "Advertising Agencies",
    "phone": "(305) 576-1415",
    "address": " 250 NW 23rd St  Miami, FL 33127",
    "location": "Osceola"
  },
  {
    "name": "Orbit Interactive",
    "description": "Advertising Agencies",
    "phone": "(305) 723-9693",
    "address": " 168 SE 1st St Ph  Miami, FL 33131",
    "location": "Osceola"
  },
  {
    "name": "USA Man Super",
    "description": "Advertising Agencies",
    "phone": "(786) 360-2535",
    "address": " 168 SE 1st St  Miami, FL 33131",
    "location": "Osceola"
  },
  {
    "name": "Tag Advertising",
    "description": "Advertising Agencies",
    "phone": "(305) 577-9988",
    "address": " 75 SW 15th Rd  Miami, FL 33129",
    "location": "Osceola"
  },
  {
    "name": "The Revive Agency",
    "description": "Advertising Agencies",
    "phone": "(786) 755-3931",
    "address": " 200 SE 1st St Ste 505  Miami, FL 33131",
    "location": "Osceola"
  },
  {
    "name": "Eyeball Digital Inc",
    "description": "Advertising Agencies",
    "phone": "(786) 615-6720",
    "address": " 444 Brickell Ave Ste 721  Miami, FL 33131",
    "location": "Osceola"
  },
  {
    "name": "Social Client Corp",
    "description": "Advertising Agencies",
    "phone": "(305) 929-5145",
    "address": " 600 Brickell Ave  Miami, FL 33131",
    "location": "Osceola"
  },
  {
    "name": "Think Track Inc",
    "description": "Advertising Agencies",
    "phone": "(305) 860-0303",
    "address": " 2000 S Dixie Hwy  Miami, FL 33133",
    "location": "Osceola"
  },
  {
    "name": "BVK/Meka Marketing Communications",
    "description": "Advertising Agencies",
    "phone": "(305) 372-0028",
    "address": " 848 Brickell Ave  Miami, FL 33131",
    "location": "Osceola"
  },
  {
    "name": "Ooh USA Corp",
    "description": "Advertising Agencies",
    "phone": "(305) 603-7129",
    "address": " 1000 Brickell Ave  Miami, FL 33131",
    "location": "Osceola"
  },
  {
    "name": "Chisholm Advertising",
    "description": "Advertising Agencies",
    "phone": "(305) 648-4712",
    "address": " 1205 SW 37th Ave  Miami, FL 33135",
    "location": "Osceola"
  },
  {
    "name": "Img",
    "description": "Advertising Agencies",
    "phone": "(305) 381-6896",
    "address": " 1110 Brickell Ave  Miami, FL 33131",
    "location": "Osceola"
  },
  {
    "name": "Caps And Crowns",
    "description": "Advertising Agencies",
    "phone": "(646) 690-2350",
    "address": " 475 Brickell Ave Apt 4708  Miami, FL 33131",
    "location": "Osceola"
  },
  {
    "name": "Hispanic Media",
    "description": "Advertising Agencies",
    "phone": "(786) 631-4527",
    "address": " 777 Brickell Ave  Miami, FL 33131",
    "location": "Osceola"
  },
  {
    "name": "Sugoi",
    "description": "Advertising Agencies",
    "phone": "(305) 792-8795",
    "address": " 777 Brickell Ave  Miami, FL 33131",
    "location": "Osceola"
  },
  {
    "name": "Cheetah Agency",
    "description": "Advertising Agencies",
    "phone": "(305) 784-5555",
    "address": " 801 Brickell Ave  Miami, FL 33131",
    "location": "Osceola"
  },
  {
    "name": "Rocket Seo",
    "description": "Advertising Agencies",
    "phone": "(305) 363-3134",
    "address": " 1200 Brickell Ave  Miami, FL 33131",
    "location": "Osceola"
  },
  {
    "name": "Campaign180",
    "description": "Advertising Agencies",
    "phone": "(888) 487-8630",
    "address": " 1200 Brickell Ave Ste 800  Miami, FL 33131",
    "location": "Osceola"
  },
  {
    "name": "The Kluger Agency",
    "description": "Advertising Agencies",
    "phone": "(305) 639-8748",
    "address": " 1200 Brickell Ave Ste 1950  Miami, FL 33131",
    "location": "Osceola"
  },
  {
    "name": "Wild Pixel Media",
    "description": "Advertising Agencies",
    "phone": "(786) 678-5353",
    "address": " 1101 Brickell Ave  Miami, FL 33131",
    "location": "Osceola"
  },
  {
    "name": "Bruning, Kyra E",
    "description": "Advertising Agencies",
    "phone": "(305) 374-5600",
    "address": " 1 SE 3rd Ave  Miami, FL 33131",
    "location": "Osceola"
  },
  {
    "name": "Tibint",
    "description": "Advertising Agencies",
    "phone": "(786) 410-7566",
    "address": " 1111 Brickell Ave 10th Fl  Miami, FL 33131",
    "location": "Osceola"
  },
  {
    "name": "Drive Social Media - Miami",
    "description": "Advertising Agencies",
    "phone": "(786) 688-3833",
    "address": " 1111 Brickell Ave  Miami, FL 33131",
    "location": "Osceola"
  },
  {
    "name": "Worldwide Productions Inc",
    "description": "Advertising Agencies",
    "phone": "(305) 858-5060",
    "address": " 2140 S Dixie Hwy  Miami, FL 33133",
    "location": "Osceola"
  },
  {
    "name": "MRM Worldwide",
    "description": "Advertising Agencies",
    "phone": "(305) 371-8655",
    "address": " 1201 Brickell Ave Ste 600  Miami, FL 33131",
    "location": "Osceola"
  },
  {
    "name": "Solved Puzzle",
    "description": "Advertising Agencies",
    "phone": "(954) 892-5037",
    "address": " 990 Biscayne Blvd  Miami, FL 33132",
    "location": "Osceola"
  },
  {
    "name": "Eyesea Solutions",
    "description": "Advertising Agencies",
    "phone": "(786) 602-9114",
    "address": " 801 Brickell Bay Dr  Miami, FL 33131",
    "location": "Osceola"
  },
  {
    "name": "Stan Enterprise",
    "description": "Advertising Agencies",
    "phone": "(845) 381-6750",
    "address": " 999 Brickell Bay Dr  Miami, FL 33131",
    "location": "Osceola"
  },
  {
    "name": "Same Day Pros Inc",
    "description": "Advertising Agencies",
    "phone": "(305) 389-6362",
    "address": " 1001 Brickell Bay Dr  Miami, FL 33131",
    "location": "Osceola"
  },
  {
    "name": "Kotton Grammar Media",
    "description": "Advertising Agencies",
    "phone": "(305) 260-6905",
    "address": " 1040 Biscayne Blvd #1901  Miami, FL 33132",
    "location": "Osceola"
  },
  {
    "name": "Iffective",
    "description": "Advertising Agencies",
    "phone": "(305) 215-7229",
    "address": " 1951 NW 7th Ave  Miami, FL 33136",
    "location": "Osceola"
  },
  {
    "name": "IOTC Financial",
    "description": "Advertising Agencies",
    "phone": "(305) 373-1576",
    "address": " 50 NE 9th St  Miami, FL 33132",
    "location": "Osceola"
  },
  {
    "name": "FWC Advertising",
    "description": "Advertising Agencies",
    "phone": "(305) 913-1337",
    "address": " 201 S Biscayne Blvd  Miami, FL 33131",
    "location": "Osceola"
  },
  {
    "name": "Aeos",
    "description": "Advertising Agencies",
    "phone": "(800) 218-1247",
    "address": " 201 S Biscayne Blvd  Miami, FL 33131",
    "location": "Osceola"
  },
  {
    "name": "Max Borges Agency",
    "description": "Advertising Agencies",
    "phone": "(305) 374-4404",
    "address": " 201 S Biscayne Blvd  Miami, FL 33131",
    "location": "Osceola"
  },
  {
    "name": "DM Media",
    "description": "Advertising Agencies",
    "phone": "(475) 243-6188",
    "address": " 900 Brickell Key Blvd  Miami, FL 33131",
    "location": "Osceola"
  },
  {
    "name": "Boardroompr",
    "description": "Advertising Agencies",
    "phone": "(305) 548-8361",
    "address": " 601 Brickell Key Dr  Miami, FL 33131",
    "location": "Osceola"
  },
  {
    "name": "Jemsu Miami Seo & Digital Advertising",
    "description": "Advertising Agencies",
    "phone": "(305) 440-4946",
    "address": " 601 Brickell Key Dr  Miami, FL 33131",
    "location": "Osceola"
  },
  {
    "name": "Wunderman",
    "description": "Advertising Agencies",
    "phone": "(305) 358-6870",
    "address": " 601 Brickell Key Dr  Miami, FL 33131",
    "location": "Osceola"
  },
  {
    "name": "Tapad",
    "description": "Advertising Agencies",
    "phone": "(646) 561-6500",
    "address": " 601 Brickell Key Dr  Miami, FL 33131",
    "location": "Osceola"
  },
  {
    "name": "Wavemaker",
    "description": "Advertising Agencies",
    "phone": "(302) 341-8118",
    "address": " 601 Brickell Key Dr  Miami, FL 33131",
    "location": "Osceola"
  },
  {
    "name": "Vml",
    "description": "Advertising Agencies",
    "phone": "(786) 906-1487",
    "address": " 601 Brickell Key Dr Ste 1100  Miami, FL 33131",
    "location": "Osceola"
  },
  {
    "name": "Criterion Global",
    "description": "Advertising Agencies",
    "phone": "(646) 330-4673",
    "address": " 2937 SW 27th Ave  Miami, FL 33133",
    "location": "Osceola"
  },
  {
    "name": "C Com Group",
    "description": "Advertising Agencies",
    "phone": "(305) 371-4030",
    "address": " 520 Brickell Key Dr  Miami, FL 33131",
    "location": "Osceola"
  },
  {
    "name": "Segre collaborative",
    "description": "Advertising Agencies",
    "phone": "(305) 442-1504",
    "address": " 2950 SW 27th Ave  Miami, FL 33133",
    "location": "Osceola"
  },
  {
    "name": "Square One Branding",
    "description": "Advertising Agencies",
    "phone": "(786) 552-6343",
    "address": " 8201 Coral Way  Miami, FL 33155",
    "location": "Osceola"
  },
  {
    "name": "Web Design Miami",
    "description": "Advertising Agencies",
    "phone": "(786) 323-9868",
    "address": " 199 E Flagler St  miami, FL 33131",
    "location": "Osceola"
  },
  {
    "name": "Levesque Digital Media",
    "description": "Advertising Agencies",
    "phone": "(954) 348-7805",
    "address": " 223 E Flagler St Ste 242  Miami, FL 33131",
    "location": "Osceola"
  },
  {
    "name": "Mss Media Inc",
    "description": "Advertising Agencies",
    "phone": "(305) 358-8868",
    "address": " 1200 Brickell Ave  Miami, FL 33131",
    "location": "Osceola"
  },
  {
    "name": "O'Donnell Agency",
    "description": "Advertising Agencies",
    "phone": "(305) 403-2082",
    "address": " 1101 Brickell Ave Ste 701  Miami, FL 33131",
    "location": "Osceola"
  },
  {
    "name": "Ziemann USA Inc",
    "description": "Advertising Agencies",
    "phone": "(786) 360-2535",
    "address": " 1001 Brickell Bay Dr  Miami, FL 33131",
    "location": "Osceola"
  },
  {
    "name": "First 2 Market Media",
    "description": "Advertising Agencies",
    "phone": "(305) 640-5992",
    "address": " 100 SE 2nd St  Miami, FL 33131",
    "location": "Osceola"
  },
  {
    "name": "Bravo Group",
    "description": "Advertising Agencies",
    "phone": "(305) 347-4300",
    "address": " 601 Brickell Key Dr  Miami, FL 33131",
    "location": "Osceola"
  },
  {
    "name": "Ooh USA Corporation",
    "description": "Advertising Agencies",
    "phone": "(305) 603-7129",
    "address": " 520 Brickell Key Dr Ste O203  Miami, FL 33131",
    "location": "Osceola"
  },
  {
    "name": "Internet Marketing & Advertising",
    "description": "Advertising Agencies",
    "phone": "(786) 220-1080",
    "address": " 46 SE 1st St  Miami, FL 33131",
    "location": "Osceola"
  },
  {
    "name": "Marca",
    "description": "Advertising Agencies",
    "phone": "(305) 423-8300",
    "address": " 3390 Mary St  Miami, FL 33133",
    "location": "Osceola"
  },
  {
    "name": "Crispin Porter & Bogusky Design",
    "description": "Advertising Agencies",
    "phone": "(305) 859-2070",
    "address": " 2699 S Bayshore Dr  Miami, FL 33133",
    "location": "Osceola"
  },
  {
    "name": "Beber Silverstein Group",
    "description": "Advertising Agencies",
    "phone": "(305) 856-9800",
    "address": " 89 NE 27th St  Miami, FL 33137",
    "location": "Osceola"
  },
  {
    "name": "Elf",
    "description": "Advertising Agencies",
    "phone": "(802) 735-1298",
    "address": " 20 Miracle Mile  Miami, FL 33234",
    "location": "Osceola"
  },
  {
    "name": "Yachting Advertising",
    "description": "Advertising Agencies",
    "phone": "(786) 514-7472",
    "address": " 3517 SW 26th St  Miami, FL 33133",
    "location": "Osceola"
  },
  {
    "name": "Abbot, Troy",
    "description": "Advertising Agencies",
    "phone": "(305) 375-0324",
    "address": " 74 NE 17th St  Miami, FL 33132",
    "location": "Osceola"
  },
  {
    "name": "Nclusive",
    "description": "Advertising Agencies",
    "phone": "(786) 452-8460",
    "address": " 245 NE 14th St  Miami, FL 33132",
    "location": "Osceola"
  },
  {
    "name": "Adyouwish",
    "description": "Advertising Agencies",
    "phone": "(786) 777-9311",
    "address": " 2300 Jackson St  Miami, FL 33137",
    "location": "Osceola"
  },
  {
    "name": "Alphametic SEO Agency Miami",
    "description": "Advertising Agencies",
    "phone": "(786) 565-2810",
    "address": " 400 NW 26th St  Miami, FL 33127",
    "location": "Osceola"
  },
  {
    "name": "Minicards of Florida Inc",
    "description": "Advertising Agencies",
    "phone": "(305) 710-4372",
    "address": " 555 NE 15th St  Miami, FL 33132",
    "location": "Osceola"
  },
  {
    "name": "Bendixen & Amandi International Inc",
    "description": "Advertising Agencies",
    "phone": "(305) 529-9916",
    "address": " 3250 Mary St  Miami, FL 33133",
    "location": "Osceola"
  },
  {
    "name": "Markham Unlimited",
    "description": "Advertising Agencies",
    "phone": "(305) 445-6642",
    "address": " 3326 Mary St Ste 601  Miami, FL 33133",
    "location": "Osceola"
  },
  {
    "name": "Kaptivo",
    "description": "Advertising Agencies",
    "phone": "(786) 452-7100",
    "address": " 3122 Ohio St  Miami, FL 33133",
    "location": "Osceola"
  },
  {
    "name": "Urban Connection Group LLC",
    "description": "Advertising Agencies",
    "phone": "(646) 893-5233",
    "address": " 2655 S Le Jeune Rd  Miami, FL 33134",
    "location": "Osceola"
  },
  {
    "name": "Outform Inc",
    "description": "Advertising Agencies",
    "phone": "(800) 204-0524",
    "address": " 82 NE 26th St  Miami, FL 33137",
    "location": "Osceola"
  },
  {
    "name": "Season Miami",
    "description": "Advertising Agencies",
    "phone": "(305) 573-8888",
    "address": " 162 NE 25th St  Miami, FL 33137",
    "location": "Osceola"
  },
  {
    "name": "Sting House",
    "description": "Advertising Agencies",
    "phone": "(305) 456-3296",
    "address": " 89 NE 27th St Unit 102  Miami, FL 33137",
    "location": "Osceola"
  },
  {
    "name": "Sun & Sons",
    "description": "Advertising Agencies",
    "phone": "(303) 506-1371",
    "address": " 2980 Mcfarlane Rd  Miami, FL 33133",
    "location": "Osceola"
  },
  {
    "name": "Wikot",
    "description": "Advertising Agencies",
    "phone": "(786) 615-3232",
    "address": " 80 NE 29th St  Miami, FL 33137",
    "location": "Osceola"
  },
  {
    "name": "Amgw Agency",
    "description": "Advertising Agencies",
    "phone": "(305) 856-8650",
    "address": " 3150 SW 38th Ave  Miami, FL 33146",
    "location": "Osceola"
  },
  {
    "name": "Soma Creative",
    "description": "Advertising Agencies",
    "phone": "(786) 253-3357",
    "address": " 700 NE 25th St  Miami, FL 33137",
    "location": "Osceola"
  },
  {
    "name": "Kivvit",
    "description": "Advertising Agencies",
    "phone": "(305) 964-8035",
    "address": " 3250 NE 1st Ave  Miami, FL 33137",
    "location": "Osceola"
  },
  {
    "name": "WMX",
    "description": "Advertising Agencies",
    "phone": "(305) 572-0404",
    "address": " 3401 N. Miami Ave. Ste. 239  MIami, FL 33137",
    "location": "Osceola"
  },
  {
    "name": "Subway",
    "description": "Advertising Agencies",
    "phone": "(305) 572-0404",
    "address": " 3401 N Miami Ave Ste 124  Miami, FL 33127",
    "location": "Osceola"
  },
  {
    "name": "Wwworld Media, Inc.",
    "description": "Advertising Agencies",
    "phone": "(305) 572-0404",
    "address": " 3401 N Miami Ave Ste 239  Miami, FL 33127",
    "location": "Osceola"
  },
  {
    "name": "Alphametic",
    "description": "Advertising Agencies",
    "phone": "(786) 565-2810",
    "address": " 3401 N Miami Ave Ste 230  Miami, FL 33127",
    "location": "Osceola"
  },
  {
    "name": "Tom Kukic Advertising-Art Inc",
    "description": "Advertising Agencies",
    "phone": "(305) 665-9050",
    "address": " 4041 NW 26th St  Miami, FL 33142",
    "location": "Osceola"
  },
  {
    "name": "Produ",
    "description": "Advertising Agencies",
    "phone": "(305) 256-6774",
    "address": " 4256 NW 7th Ave  Miami, FL 33127",
    "location": "Osceola"
  },
  {
    "name": "Tekkell",
    "description": "Advertising Agencies",
    "phone": "(786) 391-7354",
    "address": " 141 Grand Ave  Miami, FL 33133",
    "location": "Osceola"
  },
  {
    "name": "Four",
    "description": "Advertising Agencies",
    "phone": "(305) 360-4160",
    "address": " 3509 NE 2nd Ave  Miami, FL 33137",
    "location": "Osceola"
  },
  {
    "name": "Catapult 13",
    "description": "Advertising Agencies",
    "phone": "(305) 788-6948",
    "address": " 5 NW 39th St  Miami, FL 33127",
    "location": "Osceola"
  },
  {
    "name": "Viva Partnership",
    "description": "Advertising Agencies",
    "phone": "(305) 576-6007",
    "address": " 3227 NE 2nd Ave  Miami, FL 33137",
    "location": "Osceola"
  },
  {
    "name": "Arx Solution Inc",
    "description": "Advertising Agencies",
    "phone": "(305) 443-7733",
    "address": " 1805 Ponce De Leon Blvd  Coral Gables, FL 33134",
    "location": "Osceola"
  },
  {
    "name": "GlueIQ",
    "description": "Advertising Agencies",
    "phone": "(305) 239-9440",
    "address": " 95 Merrick Way Ste 700  Coral Gables, FL 33134",
    "location": "Osceola"
  },
  {
    "name": "Inpulse Digital",
    "description": "Advertising Agencies",
    "phone": "(888) 880-8620",
    "address": " 95 Merrick Way  Coral Gables, FL 33134",
    "location": "Osceola"
  },
  {
    "name": "Shooger",
    "description": "Advertising Agencies",
    "phone": "(305) 704-7940",
    "address": " 1825 Ponce De Leon Blvd  Coral Gables, FL 33134",
    "location": "Osceola"
  },
  {
    "name": "Arcoart Plus",
    "description": "Advertising Agencies",
    "phone": "(305) 447-2262",
    "address": " 3971 SW 8th St  Coral Gables, FL 33134",
    "location": "Osceola"
  },
  {
    "name": "Blanquier, Real Marketing",
    "description": "Advertising Agencies",
    "phone": "(305) 728-7178",
    "address": " 2332 Galiano St  Coral Gables, FL 33134",
    "location": "Osceola"
  },
  {
    "name": "Vanguard Comm",
    "description": "Advertising Agencies",
    "phone": "(305) 728-7146",
    "address": " 2332 Galiano St  Coral Gables, FL 33134",
    "location": "Osceola"
  },
  {
    "name": "SKG Creative",
    "description": "Advertising Agencies",
    "phone": "(305) 758-9557",
    "address": " 2000 Ponce De Leon Blvd  Coral Gables, FL 33134",
    "location": "Osceola"
  },
  {
    "name": "Media Global Group",
    "description": "Advertising Agencies",
    "phone": "(786) 431-4555",
    "address": " 2000 Ponce De Leon Blvd  Coral Gables, FL 33134",
    "location": "Osceola"
  },
  {
    "name": "Grupo Uno International",
    "description": "Advertising Agencies",
    "phone": "(305) 448-6111",
    "address": " 2000 Ponce De Leon Blvd  Coral Gables, FL 33134",
    "location": "Osceola"
  },
  {
    "name": "2EZ2 Group Inc",
    "description": "Advertising Agencies",
    "phone": "(786) 261-0161",
    "address": " 2020 Ponce De Leon Blvd  Coral Gables, FL 33134",
    "location": "Osceola"
  },
  {
    "name": "Markham Yard",
    "description": "Advertising Agencies",
    "phone": "(305) 445-6642",
    "address": " 2121 Ponce De Leon Blvd  Coral Gables, FL 33134",
    "location": "Osceola"
  },
  {
    "name": "Eventus Online",
    "description": "Advertising Agencies",
    "phone": "(305) 774-7061",
    "address": " 147 Alhambra Cir  Coral Gables, FL 33134",
    "location": "Osceola"
  },
  {
    "name": "gFour Marketing Group",
    "description": "Advertising Agencies",
    "phone": "(305) 856-8788",
    "address": " 2100 Ponce De Leon Blvd  Coral Gables, FL 33134",
    "location": "Osceola"
  },
  {
    "name": "Grupouno International",
    "description": "Advertising Agencies",
    "phone": "(305) 448-6111",
    "address": " 2199 Ponce De Leon Blvd  Coral Gables, FL 33134",
    "location": "Osceola"
  },
  {
    "name": "Response Publishing",
    "description": "Advertising Agencies",
    "phone": "(305) 444-8278",
    "address": " 2519 Galiano St  Coral Gables, FL 33134",
    "location": "Osceola"
  },
  {
    "name": "Blue Daisy Media",
    "description": "Advertising Agencies",
    "phone": "(305) 442-4229",
    "address": " 2906 S Douglas Rd Ste 201  Coral Gables, FL 33134",
    "location": "Osceola"
  },
  {
    "name": "Stealth Media Marketing",
    "description": "Advertising Agencies",
    "phone": "(786) 575-0220",
    "address": " 2222 Ponce De Leon Blvd 3rd Fl  Coral Gables, FL 33134",
    "location": "Osceola"
  },
  {
    "name": "La Huella Management Solutions",
    "description": "Advertising Agencies",
    "phone": "(786) 488-1092",
    "address": " 300 Madeira Ave  Coral Gables, FL 33134",
    "location": "Osceola"
  },
  {
    "name": "America Economia",
    "description": "Advertising Agencies",
    "phone": "(305) 648-9071",
    "address": " 255 Alhambra Cir  Coral Gables, FL 33134",
    "location": "Osceola"
  },
  {
    "name": "Jls Creative Solutions",
    "description": "Advertising Agencies",
    "phone": "(786) 472-5933",
    "address": " 255 Alhambra Cir Ste 415  Coral Gables, FL 33134",
    "location": "Osceola"
  },
  {
    "name": "Vs Brooks Inc",
    "description": "Advertising Agencies",
    "phone": "(305) 443-3500",
    "address": " 255 Alhambra Cir Ste 850  Coral Gables, FL 33134",
    "location": "Osceola"
  },
  {
    "name": "Radancy",
    "description": "Advertising Agencies",
    "phone": "(305) 704-4788",
    "address": " 255 Alhambra Cir  Coral Gables, FL 33134",
    "location": "Osceola"
  },
  {
    "name": "Adstream America",
    "description": "Advertising Agencies",
    "phone": "(786) 472-2615",
    "address": " 255 Giralda Ave  Coral Gables, FL 33134",
    "location": "Osceola"
  },
  {
    "name": "Cps Advertising",
    "description": "Advertising Agencies",
    "phone": "(786) 362-5140",
    "address": " 280 Aragon Ave  Coral Gables, FL 33134",
    "location": "Osceola"
  },
  {
    "name": "Reiser & Reiser",
    "description": "Advertising Agencies",
    "phone": "(305) 448-7797",
    "address": " 343 Alcazar Ave  Coral Gables, FL 33134",
    "location": "Osceola"
  },
  {
    "name": "Zubi Advertising",
    "description": "Advertising Agencies",
    "phone": "(305) 428-6175",
    "address": " 355 Alhambra Cir  Coral Gables, FL 33134",
    "location": "Osceola"
  },
  {
    "name": "Adn Communications",
    "description": "Advertising Agencies",
    "phone": "(305) 456-9163",
    "address": " 355 Alhambra Cir Ste 1500  Coral Gables, FL 33134",
    "location": "Osceola"
  },
  {
    "name": "Biegen Schunack Inc",
    "description": "Advertising Agencies",
    "phone": "(305) 569-9154",
    "address": " 396 Alhambra Cir  Coral Gables, FL 33134",
    "location": "Osceola"
  },
  {
    "name": "Mobile Edge Media Group",
    "description": "Advertising Agencies",
    "phone": "(305) 609-8713",
    "address": " 6815 Edgewater Dr Delio Nunez  Coral Gables, FL 33133",
    "location": "Osceola"
  },
  {
    "name": "Platino International Group",
    "description": "Advertising Agencies",
    "phone": "(305) 392-3181",
    "address": " 333 Palermo Ave  Coral Gables, FL 33134",
    "location": "Osceola"
  },
  {
    "name": "Nobox",
    "description": "Advertising Agencies",
    "phone": "(305) 571-2008",
    "address": " 3390 Mary St  Coconut Grove, FL 33133",
    "location": "Osceola"
  },
  {
    "name": "KSR Inc",
    "description": "Advertising Agencies",
    "phone": "(786) 999-1133",
    "address": " 3399 Ponce De Leon Blvd  Coral Gables, FL 33134",
    "location": "Osceola"
  },
  {
    "name": "L Martinez Associates",
    "description": "Advertising Agencies",
    "phone": "(305) 476-9700",
    "address": " 327 Santander Ave  Coral Gables, FL 33134",
    "location": "Osceola"
  },
  {
    "name": "Ronin Advertising Group",
    "description": "Advertising Agencies",
    "phone": "(305) 444-6868",
    "address": " 400 University Dr  Coral Gables, FL 33134",
    "location": "Osceola"
  },
  {
    "name": "Blanco-Lorenz",
    "description": "Advertising Agencies",
    "phone": "(305) 668-9637",
    "address": " 4000 Ponce De Leon Blvd Ste 470  Coral Gables, FL 33146",
    "location": "Osceola"
  },
  {
    "name": "Guava Moon Marketing & Comm",
    "description": "Advertising Agencies",
    "phone": "(305) 444-5575",
    "address": " 4000 Ponce De Leon Blvd Ste 460  Coral Gables, FL 33146",
    "location": "Osceola"
  },
  {
    "name": "Brandcom",
    "description": "Advertising Agencies",
    "phone": "(305) 728-5271",
    "address": " 4000 Ponce De Leon Blvd Ste 470  Coral Gables, FL 33146",
    "location": "Osceola"
  },
  {
    "name": "Shepard Lobe Costa - Advertising",
    "description": "Advertising Agencies",
    "phone": "(305) 372-1430",
    "address": " 250 Bird Rd Ste 206  Coral Gables, FL 33146",
    "location": "Osceola"
  },
  {
    "name": "Nineteen Ninety Six",
    "description": "Advertising Agencies",
    "phone": "(305) 603-7811",
    "address": " 2665 S Bayshore Dr  Miami, FL 33133",
    "location": "Osceola"
  },
  {
    "name": "Add Ventures",
    "description": "Advertising Agencies",
    "phone": "(305) 569-7718",
    "address": " 3121 Commodore Plz  Miami, FL 33133",
    "location": "Osceola"
  },
  {
    "name": "Fi Imgtr Adv Ctr",
    "description": "Advertising Agencies",
    "phone": "(305) 576-6273",
    "address": " 3000 Biscayne Blvd  Miami, FL 33137",
    "location": "Osceola"
  },
  {
    "name": "Americas Business Dev Corp",
    "description": "Advertising Agencies",
    "phone": "(305) 420-6894",
    "address": " 615 NE 22nd St  Miami, FL 33137",
    "location": "Osceola"
  },
  {
    "name": "internal media.design",
    "description": "Advertising Agencies",
    "phone": "(305) 482-3090",
    "address": " 1563 Columbus Blvd  Coral Gables, FL 33134",
    "location": "Osceola"
  },
  {
    "name": "Elite Productions",
    "description": "Advertising Agencies",
    "phone": "(305) 439-8254",
    "address": " 5455 SW 8th St  Coral Gables, FL 33134",
    "location": "Osceola"
  },
  {
    "name": "Max Borges Marketing Solutions",
    "description": "Advertising Agencies",
    "phone": "(305) 576-1171",
    "address": " 3550 Biscayne Blvd  Miami, FL 33137",
    "location": "Osceola"
  },
  {
    "name": "Elastic People",
    "description": "Advertising Agencies",
    "phone": "(305) 573-3434",
    "address": " 4141 NE 2nd Ave Ste 108  Miami, FL 33137",
    "location": "Osceola"
  },
  {
    "name": "R & O Media, Inc",
    "description": "Advertising Agencies",
    "phone": "(305) 993-5585",
    "address": " 4141 NE 2nd Ave Ste 202  Miami, FL 33137",
    "location": "Osceola"
  },
  {
    "name": "Charney Palacios & Co Ltd",
    "description": "Advertising Agencies",
    "phone": "(786) 388-6340",
    "address": " 5201 Waterford District Dr  Miami, FL 33126",
    "location": "Osceola"
  },
  {
    "name": "The Creative Image",
    "description": "Advertising Agencies",
    "phone": "(305) 204-2593",
    "address": " 5201 Waterford District Dr Ste 900  Miami, FL 33126",
    "location": "Osceola"
  },
  {
    "name": "Intercom Media",
    "description": "Advertising Agencies",
    "phone": "(212) 302-9199",
    "address": " 5201 Blue Lagoon Dr  Miami, FL 33126",
    "location": "Osceola"
  },
  {
    "name": "Sharp & Company",
    "description": "Advertising Agencies",
    "phone": "(305) 751-4451",
    "address": " 5617 NW 7th Ave  Miami, FL 33127",
    "location": "Osceola"
  },
  {
    "name": "Michael Szucs Productions",
    "description": "Advertising Agencies",
    "phone": "(305) 666-6646",
    "address": " 4535 Sabal Palm Rd  Miami, FL 33137",
    "location": "Osceola"
  },
  {
    "name": "McCann Worldgroup",
    "description": "Advertising Agencies",
    "phone": "(305) 269-3600",
    "address": " 5820 Waterford District Dr  Miami, FL 33126",
    "location": "Osceola"
  },
  {
    "name": "Green DOT Advertsing",
    "description": "Advertising Agencies",
    "phone": "(305) 674-8406",
    "address": " 5400 NE 4th Ct Ste 3  Miami, FL 33137",
    "location": "Osceola"
  },
  {
    "name": "Extra Advertising Inc",
    "description": "Advertising Agencies",
    "phone": "(305) 387-0074",
    "address": " 5455 SW 8th St  Coral Gables, FL 33134",
    "location": "Osceola"
  },
  {
    "name": "Alma D D B",
    "description": "Advertising Agencies",
    "phone": "(305) 666-2101",
    "address": " 770 S Dixie Hwy Ste 109  Coral Gables, FL 33146",
    "location": "Osceola"
  },
  {
    "name": "Atkins Lopez Marti",
    "description": "Advertising Agencies",
    "phone": "(305) 669-8777",
    "address": " 1537 Saragossa Ave  Coral Gables, FL 33134",
    "location": "Osceola"
  },
  {
    "name": "Global Distribution & Logistics",
    "description": "Advertising Agencies",
    "phone": "(305) 871-1807",
    "address": " 5275 NW 36th St  Miami Springs, FL 33166",
    "location": "Osceola"
  },
  {
    "name": "Madison South",
    "description": "Advertising Agencies",
    "phone": "(305) 573-4688",
    "address": " 4141 NE 2nd Ave  Miami, FL 33137",
    "location": "Osceola"
  },
  {
    "name": "Creative Minds Advertising",
    "description": "Advertising Agencies",
    "phone": "(305) 392-6313",
    "address": " 2801 NW 74th Ave  Miami, FL 33122",
    "location": "Osceola"
  },
  {
    "name": "National Claims Consultants",
    "description": "Advertising Agencies",
    "phone": "(786) 438-0305",
    "address": " 4909 SW 74th Ct  Miami, FL 33155",
    "location": "Osceola"
  },
  {
    "name": "Malex & Asscoiate Group",
    "description": "Advertising Agencies",
    "phone": "(305) 468-7910",
    "address": " 2500 NW 79th Ave Ste 186  Miami, FL 33122",
    "location": "Osceola"
  },
  {
    "name": "Premier Group",
    "description": "Advertising Agencies",
    "phone": "(305) 567-3188",
    "address": " 703 NW 62nd Ave Ste 500  Miami, FL 33126",
    "location": "Osceola"
  },
  {
    "name": "Doubledome Digital Marketing",
    "description": "Advertising Agencies",
    "phone": "(786) 363-9868",
    "address": " 6303 Waterford District Dr  Miami, FL 33126",
    "location": "Osceola"
  },
  {
    "name": "Media Response Group",
    "description": "Advertising Agencies",
    "phone": "(305) 423-1473",
    "address": " 6303 Waterford District Dr  Miami, FL 33126",
    "location": "Osceola"
  },
  {
    "name": "Flobot",
    "description": "Advertising Agencies",
    "phone": "(754) 200-1322",
    "address": " 6303 Waterford District Dr  Miami, FL 33126",
    "location": "Osceola"
  },
  {
    "name": "C-Com Group, Inc",
    "description": "Advertising Agencies",
    "phone": "(305) 447-4015",
    "address": " 6380 NE 4th Ave  Miami, FL 33138",
    "location": "Osceola"
  },
  {
    "name": "TSR Inc",
    "description": "Advertising Agencies",
    "phone": "(305) 696-6634",
    "address": " 7000 NW 32nd Ave  Miami, FL 33147",
    "location": "Osceola"
  },
  {
    "name": "The Community Agency",
    "description": "Advertising Agencies",
    "phone": "(305) 865-9600",
    "address": " 6300 Biscayne Blvd  Miami, FL 33138",
    "location": "Osceola"
  },
  {
    "name": "The Community",
    "description": "Advertising Agencies",
    "phone": "(786) 636-8966",
    "address": " 6322 Biscayne Blvd  Miami, FL 33138",
    "location": "Osceola"
  },
  {
    "name": "La Comunidad Corp",
    "description": "Advertising Agencies",
    "phone": "(305) 865-9600",
    "address": " 6400 Biscayne Blvd  Miami, FL 33138",
    "location": "Osceola"
  },
  {
    "name": "Brett Goldstein",
    "description": "Advertising Agencies",
    "phone": "(329) 204-0320",
    "address": " 6445 NE 7th Ave Apt 416N  Miami, FL 33138",
    "location": "Osceola"
  },
  {
    "name": "Creative State",
    "description": "Advertising Agencies",
    "phone": "(305) 504-8877",
    "address": " 156 NW 73rd St  Miami, FL 33150",
    "location": "Osceola"
  },
  {
    "name": "Zoom IQ Inc",
    "description": "Advertising Agencies",
    "phone": "(305) 604-0006",
    "address": " 6815 Biscayne Blvd  Miami, FL 33138",
    "location": "Osceola"
  },
  {
    "name": "Cre8ive Juice Group",
    "description": "Advertising Agencies",
    "phone": "(786) 360-3221",
    "address": " 7251 NE 2nd Ave  Miami, FL 33138",
    "location": "Osceola"
  },
  {
    "name": "Conway & Partners",
    "description": "Advertising Agencies",
    "phone": "(305) 420-5090",
    "address": " 7261 NE 4th Ave  Miami, FL 33138",
    "location": "Osceola"
  },
  {
    "name": "Maas Studio",
    "description": "Advertising Agencies",
    "phone": "(305) 928-8046",
    "address": " 735 Calatrava Ave  Miami, FL 33143",
    "location": "Osceola"
  },
  {
    "name": "Brite Impressions Inc",
    "description": "Advertising Agencies",
    "phone": "(305) 269-0333",
    "address": " 7200 NW 7th St  Miami, FL 33126",
    "location": "Osceola"
  },
  {
    "name": "Eminent Wealth Solutions",
    "description": "Advertising Agencies",
    "phone": "(888) 807-4482",
    "address": " 1150 NW 72nd Ave  Miami, FL 33126",
    "location": "Osceola"
  },
  {
    "name": "Aikiu",
    "description": "Advertising Agencies",
    "phone": "(305) 229-5093",
    "address": " 7636 NE 4th Ct  Miami, FL 33138",
    "location": "Osceola"
  },
  {
    "name": "Marly Media",
    "description": "Advertising Agencies",
    "phone": "(409) 996-2759",
    "address": " 7437 Coral Way  Miami, FL 33155",
    "location": "Osceola"
  },
  {
    "name": "G M Promotions Group Inc",
    "description": "Advertising Agencies",
    "phone": "(305) 970-1480",
    "address": " 5355 SW 68th Ave  Miami, FL 33155",
    "location": "Osceola"
  },
  {
    "name": "Pierson Distributors",
    "description": "Advertising Agencies",
    "phone": "(305) 757-7474",
    "address": " 1145 Belle Meade Island Dr  Miami, FL 33138",
    "location": "Osceola"
  },
  {
    "name": "Svag Enterprises Inc",
    "description": "Advertising Agencies",
    "phone": "(305) 364-5336",
    "address": " 2706 NW 72nd Ave  Miami, FL 33122",
    "location": "Osceola"
  },
  {
    "name": "Inc Frada",
    "description": "Advertising Agencies",
    "phone": "(786) 242-6888",
    "address": " 7248 SW 42nd Ter  Miami, FL 33155",
    "location": "Osceola"
  },
  {
    "name": "Broadcast Barter Bureau Corp",
    "description": "Advertising Agencies",
    "phone": "(305) 662-8611",
    "address": " 4796 SW 72nd Ave  Miami, FL 33155",
    "location": "Osceola"
  },
  {
    "name": "Nator Media",
    "description": "Advertising Agencies",
    "phone": "(786) 292-1800",
    "address": " 3399 NW 72nd Ave  Miami, FL 33122",
    "location": "Osceola"
  },
  {
    "name": "YOGO Marketing",
    "description": "Advertising Agencies",
    "phone": "(786) 808-2704",
    "address": " 3296 NW 72nd Ave  Miami, FL 33122",
    "location": "Osceola"
  },
  {
    "name": "Superdigitizing",
    "description": "Advertising Agencies",
    "phone": "(305) 471-4455",
    "address": " 7262 NW 33rd St  Miami, FL 33122",
    "location": "Osceola"
  },
  {
    "name": "Media Representations Inc",
    "description": "Advertising Agencies",
    "phone": "(305) 265-2006",
    "address": " 7805 SW 22nd St  Miami, FL 33155",
    "location": "Osceola"
  },
  {
    "name": "La Campana",
    "description": "Advertising Agencies",
    "phone": "(615) 764-0240",
    "address": " 7331 NW 35th St  Miami, FL 33122",
    "location": "Osceola"
  },
  {
    "name": "Plf",
    "description": "Advertising Agencies",
    "phone": "(305) 668-3551",
    "address": " 7448 SW 48th St  Miami, FL 33155",
    "location": "Osceola"
  },
  {
    "name": "Savings Gallery",
    "description": "Advertising Agencies",
    "phone": "(786) 400-2590",
    "address": " 4469 SW 75th Ave  Miami, FL 33155",
    "location": "Osceola"
  },
  {
    "name": "Union Aquarius Advertising",
    "description": "Advertising Agencies",
    "phone": "(305) 594-0626",
    "address": " 7374 NW 35th Ter  Miami, FL 33122",
    "location": "Osceola"
  },
  {
    "name": "Advertising Adone",
    "description": "Advertising Agencies",
    "phone": "(786) 637-2976",
    "address": " 4711 SW 75th Ave  Miami, FL 33155",
    "location": "Osceola"
  },
  {
    "name": "A One Mediation",
    "description": "Advertising Agencies",
    "phone": "(786) 409-5737",
    "address": " 8150 SW 8th St  Miami, FL 33144",
    "location": "Osceola"
  },
  {
    "name": "One Million Friends of Madison",
    "description": "Advertising Agencies",
    "phone": "(954) 708-4073",
    "address": " 3001 SW 79th Ct  Miami, FL 33155",
    "location": "Osceola"
  },
  {
    "name": "Inc Virgen",
    "description": "Advertising Agencies",
    "phone": "(305) 666-2137",
    "address": " 6636 SW 69th Ave  Miami, FL 33143",
    "location": "Osceola"
  },
  {
    "name": "Target Promotions & Marketing Inc",
    "description": "Advertising Agencies",
    "phone": "(305) 406-1005",
    "address": " 7001 NW 51st St  Miami, FL 33166",
    "location": "Osceola"
  },
  {
    "name": "Benmex",
    "description": "Advertising Agencies",
    "phone": "(305) 594-3391",
    "address": " 7215 NW 46th St  Miami, FL 33166",
    "location": "Osceola"
  },
  {
    "name": "Your Quinces Inc",
    "description": "Advertising Agencies",
    "phone": "(305) 323-3399",
    "address": " 8160 Coral Way  Miami, FL 33155",
    "location": "Osceola"
  },
  {
    "name": "Kairus Distributor Corp",
    "description": "Advertising Agencies",
    "phone": "(305) 883-8336",
    "address": " 5439 NW 72nd Ave  Miami, FL 33166",
    "location": "Osceola"
  },
  {
    "name": "Cute Digital Media",
    "description": "Advertising Agencies",
    "phone": "(305) 250-2883",
    "address": " 5760 NW 72nd Ave  Miami, FL 33166",
    "location": "Osceola"
  },
  {
    "name": "TNA Service Corp",
    "description": "Advertising Agencies",
    "phone": "(305) 418-9445",
    "address": " 7665 NW 50th St  Miami, FL 33166",
    "location": "Osceola"
  },
  {
    "name": "B & L Advertising",
    "description": "Advertising Agencies",
    "phone": "(305) 321-7120",
    "address": " 1320 S Dixie Hwy  Coral Gables, FL 33146",
    "location": "Osceola"
  },
  {
    "name": "Ozores-Hampton & Associates Inc",
    "description": "Advertising Agencies",
    "phone": "(305) 534-1533",
    "address": " 12 Century Ln  Miami Beach, FL 33139",
    "location": "Osceola"
  },
  {
    "name": "AVANZA | Hispanic Advertising + Branding Agency",
    "description": "Advertising Agencies",
    "phone": "(786) 565-7601",
    "address": " 5465 NW 36th St Ste 100  Miami Springs, FL 33166",
    "location": "Osceola"
  },
  {
    "name": "AVANZA | Integrated Branding & Advertising Agency",
    "description": "Advertising Agencies",
    "phone": "(786) 565-7601",
    "address": " 5465 NW 36th St Ste 100  Miami Springs, FL 33166",
    "location": "Osceola"
  },
  {
    "name": "Magnolia Ad Co",
    "description": "Advertising Agencies",
    "phone": "(734) 657-4217",
    "address": " 1470 Lincoln Ter  Miami Beach, FL 33139",
    "location": "Osceola"
  },
  {
    "name": "Marca Hispanic",
    "description": "Advertising Agencies",
    "phone": "(305) 665-5410",
    "address": " 1320 S Dixie Hwy  Coral Gables, FL 33146",
    "location": "Osceola"
  },
  {
    "name": "Ads Etc Inc",
    "description": "Advertising Agencies",
    "phone": "(305) 531-7887",
    "address": " 400 Alton Rd  Miami Beach, FL 33139",
    "location": "Osceola"
  },
  {
    "name": "Blink PR",
    "description": "Advertising Agencies",
    "phone": "(305) 490-5911",
    "address": " 1900 Purdy Ave  Miami Beach, FL 33139",
    "location": "Osceola"
  },
  {
    "name": "International Maritime Resources",
    "description": "Advertising Agencies",
    "phone": "(305) 534-5426",
    "address": " 1759 Bay Rd  Miami Beach, FL 33139",
    "location": "Osceola"
  },
  {
    "name": "Advanced Media Advertising",
    "description": "Advertising-Broadcast & Film",
    "phone": "(805) 637-5200",
    "address": " Serving Southeast Florida  Fort Lauderdale, FL 33307",
    "location": "Osceola"
  },
  {
    "name": "Zimmerman Advertising",
    "description": "Outdoor Advertising",
    "phone": "(954) 644-4000",
    "address": " 2200 W Commercial Blvd  Fort Lauderdale, FL 33309",
    "location": "Osceola"
  },
  {
    "name": "Experience Advertising",
    "description": "Transit Advertising",
    "phone": "(954) 742-0345",
    "address": " 10871 NW 52nd St Ste 9  Sunrise, FL 33351",
    "location": "Osceola"
  },
  {
    "name": "Polaris Advertising LLC",
    "description": "Internet Marketing & Advertising",
    "phone": "(818) 208-5818",
    "address": " 1326 E Commercial Blvd PMB 3036  Fort Lauderdale, FL 33334",
    "location": "Osceola"
  },
  {
    "name": "M P Advertising",
    "description": "Printing Services-Commercial",
    "phone": "(954) 971-6220",
    "address": " 6033 NW 31st Ave  Fort Lauderdale, FL 33309",
    "location": "Osceola"
  },
  {
    "name": "John Forsyth Advertising",
    "description": "Advertising Agencies",
    "phone": "(954) 938-2050",
    "address": " 5200 N Federal Hwy  Fort Lauderdale, FL 33308",
    "location": "Osceola"
  },
  {
    "name": "C R Advertising Associates",
    "description": "Advertising Specialties",
    "phone": "(954) 771-7858",
    "address": " 5554 N Federal Hwy  Fort Lauderdale, FL 33308",
    "location": "Osceola"
  },
  {
    "name": "JB Advertising",
    "description": "Advertising Specialties",
    "phone": "(954) 298-9530",
    "address": " 1300 SW 82nd Ave  North Lauderdale, FL 33068",
    "location": "Osceola"
  },
  {
    "name": "James Ross Advertising",
    "description": "Advertising Agencies",
    "phone": "(954) 974-6640",
    "address": " 1180 SW 36th Ave  Pompano Beach, FL 33069",
    "location": "Osceola"
  },
  {
    "name": "Seitz Inc Advertising & Promotion",
    "description": "Advertising Agencies",
    "phone": "(954) 970-3394",
    "address": " 1350 NW 9th Ave  Fort Lauderdale, FL 33311",
    "location": "Osceola"
  },
  {
    "name": "Aaron Advertising",
    "description": "Advertising Agencies",
    "phone": "(954) 381-8000",
    "address": " 4825 N Dixie Hwy  Oakland Park, FL 33334",
    "location": "Osceola"
  },
  {
    "name": "Allied Advertising",
    "description": "Advertising Agencies",
    "phone": "(954) 229-9030",
    "address": " 6400 N Andrews Ave  Fort Lauderdale, FL 33309",
    "location": "Osceola"
  },
  {
    "name": "Big Card Advertising",
    "description": "Advertising-Shoppers Publications",
    "phone": "(954) 773-6241",
    "address": " 2637 East Atlantic Blvd.  Pompano Beach, FL 33062",
    "location": "Osceola"
  },
  {
    "name": "Phoenix Publications & Advertising, Inc.",
    "description": "Directory & Guide Advertising",
    "phone": "(954) 786-0227",
    "address": " 2637 E Atlantic Blvd # 171  Pompano Beach, FL 33062",
    "location": "Osceola"
  },
  {
    "name": "Treatment Advertising Solutions",
    "description": "Advertising Specialties",
    "phone": "(954) 960-5153",
    "address": " 2641 E Atlantic Blvd Ste 309  Pompano Beach, FL 33062",
    "location": "Osceola"
  },
  {
    "name": "Specialty Advertising",
    "description": "Advertising Agencies",
    "phone": "(786) 566-3753",
    "address": " 8701 SW 12th St  Miami, FL 33174",
    "location": "Osceola"
  },
  {
    "name": "Christopher Advertising Group",
    "description": "Advertising Agencies",
    "phone": "(305) 777-0319",
    "address": " 5900 SW 96th St  Miami, FL 33156",
    "location": "Osceola"
  },
  {
    "name": "FUSIONn",
    "description": "Advertising Agencies",
    "phone": "(305) 735-3121",
    "address": " 6718 NW 72nd Ave  Miami, FL 33195",
    "location": "Osceola"
  },
  {
    "name": "Jose Cantisano",
    "description": "Advertising Agencies",
    "phone": "(305) 225-6882",
    "address": " 8901 SW 10th Ter  Miami, FL 33174",
    "location": "Osceola"
  },
  {
    "name": "Race Aviation Corp",
    "description": "Advertising Agencies",
    "phone": "(305) 716-1116",
    "address": " 7610 NW 63rd St  Miami, FL 33166",
    "location": "Osceola"
  },
  {
    "name": "Live Colors",
    "description": "Advertising Agencies",
    "phone": "(305) 228-6445",
    "address": " 8932 SW 40th St  Miami, FL 33165",
    "location": "Osceola"
  },
  {
    "name": "Live Media Digital",
    "description": "Advertising Agencies",
    "phone": "(305) 918-2306",
    "address": " 8932 SW 40th St  Miami, FL 33165",
    "location": "Osceola"
  },
  {
    "name": "Go Inkcredible",
    "description": "Advertising Agencies",
    "phone": "(786) 888-2440",
    "address": " 7888 NW 64th St  Miami, FL 33166",
    "location": "Osceola"
  },
  {
    "name": "Designext Inc",
    "description": "Advertising Agencies",
    "phone": "(305) 772-4912",
    "address": " 9040 SW 40th St  Miami, FL 33165",
    "location": "Osceola"
  },
  {
    "name": "Ginn Scroggins & Assoc",
    "description": "Advertising Agencies",
    "phone": "(305) 752-6300",
    "address": " 7300 N Kendall Dr Ste 521  Miami, FL 33156",
    "location": "Osceola"
  },
  {
    "name": "Aymara & Associates",
    "description": "Advertising Agencies",
    "phone": "(305) 668-6168",
    "address": " 7520 S Red Rd Ste D  South Miami, FL 33143",
    "location": "Osceola"
  },
  {
    "name": "DDM Advertising Inc",
    "description": "Advertising Agencies",
    "phone": "(786) 534-7344",
    "address": " 245 18th St  Miami Beach, FL 33139",
    "location": "Osceola"
  },
  {
    "name": "Branyc Advertising",
    "description": "Advertising Agencies",
    "phone": "(305) 361-3729",
    "address": " 151 Crandon Blvd  Key Biscayne, FL 33149",
    "location": "Osceola"
  },
  {
    "name": "Generation E",
    "description": "Advertising Agencies",
    "phone": "(315) 871-7273",
    "address": " 555 NW 87th St  El Portal, FL 33150",
    "location": "Osceola"
  },
  {
    "name": "Collectia Holding",
    "description": "Advertising Agencies",
    "phone": "(305) 392-1702",
    "address": " 240 Crandon Blvd  Key Biscayne, FL 33149",
    "location": "Osceola"
  },
  {
    "name": "Bright Marketing Idea",
    "description": "Advertising Agencies",
    "phone": "(786) 507-3616",
    "address": " 7211 SW 62nd Ave  South Miami, FL 33143",
    "location": "Osceola"
  },
  {
    "name": "CARTE BLANCHE DesignAgency",
    "description": "Advertising Agencies",
    "phone": "(305) 834-6209",
    "address": " 2383 Flamingo Dr  miami beach, FL 33140",
    "location": "Osceola"
  },
  {
    "name": "3sa-edge",
    "description": "Advertising Agencies",
    "phone": "(305) 322-9672",
    "address": " 1151 falcon ave  Miami Springs, FL 33166",
    "location": "Osceola"
  },
  {
    "name": "Strategic Marketing",
    "description": "Advertising Agencies",
    "phone": "(305) 884-8855",
    "address": " 931 Dove Ave  Miami Springs, FL 33166",
    "location": "Osceola"
  },
  {
    "name": "A M General Carpenter Inc",
    "description": "Advertising Agencies",
    "phone": "(305) 887-2528",
    "address": " 145 W 22nd St  Hialeah, FL 33010",
    "location": "Osceola"
  },
  {
    "name": "J Perez & Associates",
    "description": "Advertising Agencies",
    "phone": "(305) 471-4999",
    "address": " 1661 NW 79th Ave  Doral, FL 33126",
    "location": "Osceola"
  },
  {
    "name": "Garber & Goodman Advertising",
    "description": "Advertising Agencies",
    "phone": "(305) 673-5177",
    "address": " 300 W 41st St  Miami Beach, FL 33140",
    "location": "Osceola"
  },
  {
    "name": "Saremoc La Seguribad",
    "description": "Advertising Agencies",
    "phone": "(786) 452-8333",
    "address": " 8202 NW 14th St  Doral, FL 33126",
    "location": "Osceola"
  },
  {
    "name": "Stanson Group",
    "description": "Advertising Agencies",
    "phone": "(305) 456-3854",
    "address": " 9526 NE 2nd Ave  Miami Shores, FL 33138",
    "location": "Osceola"
  },
  {
    "name": "Seo Latino",
    "description": "Advertising Agencies",
    "phone": "(786) 837-6035",
    "address": " 2850 NW 79th Ave  Doral, FL 33122",
    "location": "Osceola"
  },
  {
    "name": "The Dautel Group",
    "description": "Advertising Agencies",
    "phone": "(561) 203-5509",
    "address": " 9190 Biscayne Blvd Ste 201  Miami Shores, FL 33138",
    "location": "Osceola"
  },
  {
    "name": "Armand",
    "description": "Advertising Agencies",
    "phone": "(844) 996-6337",
    "address": " 9600 NE 2nd Ave  Miami Shores, FL 33138",
    "location": "Osceola"
  }
]
