[
  {
    "name": "Baker Creative Advertising",
    "description": "Advertising Agencies",
    "phone": "(850) 995-9557",
    "address": " 4233 Hazelhurst Dr  Milton, FL 32571",
    "location": "Pasco"
  },
  {
    "name": "A+ Sign Station",
    "description": "Signs-Erectors & Hangers",
    "phone": "(850) 994-6600",
    "address": " 3655 Highway 90  Milton, FL 32571",
    "location": "Pasco"
  },
  {
    "name": "Sunshine Promo Usa Inc",
    "description": "Advertising-Promotional Products",
    "phone": "(850) 995-4053",
    "address": " 4000 Highway 90  Milton, FL 32571",
    "location": "Pasco"
  },
  {
    "name": "Enfinger Flags and Poles",
    "description": "Flags, Flagpoles & Accessories",
    "phone": "(850) 994-9560",
    "address": " 4449 Nora Ave  Pace, FL 32571",
    "location": "Pasco"
  },
  {
    "name": "3SIXTY Marketing",
    "description": "Advertising Agencies",
    "phone": "(850) 393-4605",
    "address": " 350 W Cedar St Ste 300C  Pensacola, FL 32502",
    "location": "Pasco"
  },
  {
    "name": "Bill Salter Advertising Inc",
    "description": "Outdoor Advertising",
    "phone": "(850) 994-4611",
    "address": " 5547 Highway 90  Milton, FL 32571",
    "location": "Pasco"
  },
  {
    "name": "Personal Appraiser Guide",
    "description": "Advertising Specialties",
    "phone": "(850) 308-5904",
    "address": " 5345 Willow Oak Dr  Milton, FL 32571",
    "location": "Pasco"
  },
  {
    "name": "C & S Signs",
    "description": "Signs",
    "phone": "(850) 983-9540",
    "address": " 5859 Commerce Rd  Milton, FL 32583",
    "location": "Pasco"
  },
  {
    "name": "Sign Crafters",
    "description": "Signs",
    "phone": "(850) 995-0010",
    "address": " 5273 Highway 90  Milton, FL 32571",
    "location": "Pasco"
  },
  {
    "name": "Conquest Graphics",
    "description": "Graphic Designers",
    "phone": "(850) 607-0997",
    "address": " 5675 Highway 90  Milton, FL 32583",
    "location": "Pasco"
  },
  {
    "name": "DigiMark, INC",
    "description": "Signs",
    "phone": "(850) 221-9728",
    "address": " 5155 Oakleaf Dr  Milton, FL 32571",
    "location": "Pasco"
  },
  {
    "name": "Emerald Coast Striping",
    "description": "Asphalt Paving & Sealcoating",
    "phone": "(850) 477-4484",
    "address": " 8840 Fowler Ave  Pensacola, FL 32534",
    "location": "Pasco"
  },
  {
    "name": "Appleyard Agency",
    "description": "Advertising Agencies",
    "phone": "(850) 494-2194",
    "address": " 4400 Bayou Blvd  Pensacola, FL 32503",
    "location": "Pasco"
  },
  {
    "name": "The Original Clark's Flea Market U.S.A",
    "description": "Advertising Agencies",
    "phone": "(850) 968-9595",
    "address": " 2345 Pompano Rd  Cantonment, FL 32533",
    "location": "Pasco"
  },
  {
    "name": "Hip Creative Agency",
    "description": "Advertising Agencies",
    "phone": "(850) 359-3081",
    "address": " 2690 S Highway 95a  Cantonment, FL 32533",
    "location": "Pasco"
  },
  {
    "name": "Saritus",
    "description": "Advertising Agencies",
    "phone": "(850) 291-6837",
    "address": " 1765 E Nine Mile Rd  Pensacola, FL 32514",
    "location": "Pasco"
  },
  {
    "name": "US Digital Media Inc",
    "description": "Advertising Agencies",
    "phone": "(850) 473-8886",
    "address": " 9100 Hamman Ave  Pensacola, FL 32514",
    "location": "Pasco"
  },
  {
    "name": "AC Advertising",
    "description": "Advertising Agencies",
    "phone": "(850) 437-3301",
    "address": " 1401 E Olive Rd Apt 3  Pensacola, FL 32514",
    "location": "Pasco"
  },
  {
    "name": "Goodson Racing",
    "description": "Advertising Agencies",
    "phone": "(850) 477-0994",
    "address": " 89 W Hood Dr  Pensacola, FL 32534",
    "location": "Pasco"
  },
  {
    "name": "McCall Duncan",
    "description": "Advertising Agencies",
    "phone": "(850) 476-5035",
    "address": " 4400 Bayou Blvd  Pensacola, FL 32503",
    "location": "Pasco"
  },
  {
    "name": "JBT Service",
    "description": "Advertising Agencies",
    "phone": "(850) 994-1643",
    "address": " 5765 Highland Lake Dr  Milton, FL 32583",
    "location": "Pasco"
  },
  {
    "name": "Southern Media Inc",
    "description": "Advertising Agencies",
    "phone": "(850) 477-3995",
    "address": " 9165 Roe St  Pensacola, FL 32514",
    "location": "Pasco"
  },
  {
    "name": "Bill Salter Advertise",
    "description": "Advertising Agencies",
    "phone": "(850) 994-4611",
    "address": " 5692 Trevino Dr  Milton, FL 32570",
    "location": "Pasco"
  },
  {
    "name": "Lea Personnel Management",
    "description": "Advertising Agencies",
    "phone": "(850) 494-9168",
    "address": " 6210 Maybelle Dr  Pensacola, FL 32504",
    "location": "Pasco"
  }
]
