[
  {
    "name": "McClay Inglesby Advertising",
    "description": "Advertising Agencies",
    "phone": "(727) 906-4320",
    "address": " 2167 Vivian Way S  Saint Petersburg, FL 33712",
    "location": "Pinellas"
  },
  {
    "name": "Sirius Advertising Inc",
    "description": "Advertising Agencies",
    "phone": "(727) 865-0033",
    "address": " 500 Jasmine Way S  Saint Petersburg, FL 33705",
    "location": "Pinellas"
  },
  {
    "name": "Suncoast Legal Nurse Consulting",
    "description": "Advertising Agencies",
    "phone": "(727) 867-3363",
    "address": " 512 51st Ave S  Saint Petersburg, FL 33705",
    "location": "Pinellas"
  },
  {
    "name": "Palm Bay Advertising, Inc",
    "description": "Advertising Agencies",
    "phone": "(813) 586-1685",
    "address": " 3695 40th St S  Saint Petersburg, FL 33711",
    "location": "Pinellas"
  },
  {
    "name": "First Priority Land Services",
    "description": "Advertising Agencies",
    "phone": "(727) 822-0088",
    "address": " 2433 19th St S  Saint Petersburg, FL 33712",
    "location": "Pinellas"
  },
  {
    "name": "Big Sea Inc",
    "description": "Advertising Agencies",
    "phone": "(727) 386-8031",
    "address": " 2622 Fairfield Ave S  Saint Petersburg, FL 33712",
    "location": "Pinellas"
  },
  {
    "name": "Designer Club Entertaininment",
    "description": "Advertising Agencies",
    "phone": "(727) 327-4441",
    "address": " 675 37th St S  Saint Petersburg, FL 33711",
    "location": "Pinellas"
  },
  {
    "name": "Cr Impact",
    "description": "Advertising Agencies",
    "phone": "(727) 345-7300",
    "address": " 2825 Beach Blvd S  Gulfport, FL 33707",
    "location": "Pinellas"
  },
  {
    "name": "Wilson Media & Advertising",
    "description": "Advertising Agencies",
    "phone": "(727) 894-6100",
    "address": " 300 3rd Ave N  Saint Petersburg, FL 33701",
    "location": "Pinellas"
  },
  {
    "name": "Corplogowear",
    "description": "Advertising Agencies",
    "phone": "(727) 322-9151",
    "address": " 2429 Central Ave  Saint Petersburg, FL 33713",
    "location": "Pinellas"
  },
  {
    "name": "Media Garage Group Inc",
    "description": "Advertising Agencies",
    "phone": "(727) 258-0318",
    "address": " 3001 1st Ave S  Saint Petersburg, FL 33712",
    "location": "Pinellas"
  },
  {
    "name": "Mosaic Development",
    "description": "Advertising Agencies",
    "phone": "(239) 603-8596",
    "address": " 1763 1st Ave N  Saint Petersburg, FL 33713",
    "location": "Pinellas"
  },
  {
    "name": "Rob Graham Enterprises",
    "description": "Advertising Agencies",
    "phone": "(727) 803-6058",
    "address": " 100 7th St S  Saint Petersburg, FL 33701",
    "location": "Pinellas"
  },
  {
    "name": "Roma Direct Marketing",
    "description": "Advertising Agencies",
    "phone": "(727) 498-8999",
    "address": " 33 6th St S  Saint Petersburg, FL 33701",
    "location": "Pinellas"
  },
  {
    "name": "Intent Local",
    "description": "Advertising Agencies",
    "phone": "(727) 278-3926",
    "address": " 33 6th St S Ste 501  Saint Petersburg, FL 33701",
    "location": "Pinellas"
  },
  {
    "name": "Cliktree",
    "description": "Advertising Agencies",
    "phone": "(727) 220-5923",
    "address": " 200 2nd Ave S  Saint Petersburg, FL 33701",
    "location": "Pinellas"
  },
  {
    "name": "Vitale Bros",
    "description": "Advertising Agencies",
    "phone": "(727) 520-0969",
    "address": " 651 Central Ave  Saint Petersburg, FL 33701",
    "location": "Pinellas"
  },
  {
    "name": "Vibe Digital Media",
    "description": "Advertising Agencies",
    "phone": "(727) 565-0115",
    "address": " 475 Central Ave  Saint Petersburg, FL 33701",
    "location": "Pinellas"
  },
  {
    "name": "Media Shark",
    "description": "Advertising Agencies",
    "phone": "(916) 342-9441",
    "address": " 433 Central Ave  Saint Petersburg, FL 33701",
    "location": "Pinellas"
  },
  {
    "name": "Hype Group",
    "description": "Advertising Agencies",
    "phone": "(727) 623-9085",
    "address": " 360 Central Ave  Saint Petersburg, FL 33701",
    "location": "Pinellas"
  },
  {
    "name": "Driven Results",
    "description": "Advertising Agencies",
    "phone": "(727) 222-0391",
    "address": " 360 Central Ave Ste 800  Saint Petersburg, FL 33701",
    "location": "Pinellas"
  },
  {
    "name": "Pyper Young, Inc",
    "description": "Advertising Agencies",
    "phone": "(727) 873-1210",
    "address": " 235 Central Ave  Saint Petersburg, FL 33701",
    "location": "Pinellas"
  },
  {
    "name": "Vibrant Wealth",
    "description": "Advertising Agencies",
    "phone": "(727) 864-0904",
    "address": " 1645 Pinellas Bayway S  Saint Petersburg, FL 33715",
    "location": "Pinellas"
  },
  {
    "name": "BNO Creative Labs",
    "description": "Advertising Agencies",
    "phone": "(727) 550-0309",
    "address": " 111 2nd Ave NE  Saint Petersburg, FL 33701",
    "location": "Pinellas"
  },
  {
    "name": "Reardon Killion Communications",
    "description": "Advertising Agencies",
    "phone": "(727) 896-3435",
    "address": " 226 5th Ave N  Saint Petersburg, FL 33701",
    "location": "Pinellas"
  },
  {
    "name": "Clear PH Design",
    "description": "Advertising Agencies",
    "phone": "(727) 823-5333",
    "address": " 327 11th Ave N  Saint Petersburg, FL 33701",
    "location": "Pinellas"
  },
  {
    "name": "Paradise Advertising & Marketing",
    "description": "Advertising Agencies",
    "phone": "(727) 821-5155",
    "address": " 5999 Central Ave  Saint Petersburg, FL 33710",
    "location": "Pinellas"
  },
  {
    "name": "Advantage Indoor Advertising",
    "description": "Advertising Agencies",
    "phone": "(727) 800-2600",
    "address": " 6100 Central Ave  Saint Petersburg, FL 33707",
    "location": "Pinellas"
  },
  {
    "name": "Midvale",
    "description": "Advertising Agencies",
    "phone": "(727) 498-6489",
    "address": " 3158 24th Ave N  Saint Petersburg, FL 33713",
    "location": "Pinellas"
  },
  {
    "name": "Dailey Communications",
    "description": "Advertising Agencies",
    "phone": "(727) 896-4477",
    "address": " 323 2nd St N  Saint Petersburg, FL 33701",
    "location": "Pinellas"
  },
  {
    "name": "Castnet Media",
    "description": "Advertising Agencies",
    "phone": "(727) 892-2391",
    "address": " 490 1st Ave S  St Petersburg, FL 33701",
    "location": "Pinellas"
  },
  {
    "name": "Craft Brands",
    "description": "Advertising Agencies",
    "phone": "(239) 691-0561",
    "address": " P.O. Box 12825  St. Petersburg, FL 33733",
    "location": "Pinellas"
  },
  {
    "name": "Empathy First Media",
    "description": "Advertising Agencies",
    "phone": "(727) 291-7384",
    "address": " 260 1st Ave S Ste 166  St Petersburg, FL 33701",
    "location": "Pinellas"
  },
  {
    "name": "Carroway Rose",
    "description": "Advertising Agencies",
    "phone": "(843) 501-9128",
    "address": " 260 1st Ave S  St. Petersburg, FL 33701",
    "location": "Pinellas"
  },
  {
    "name": "Latitude Park",
    "description": "Advertising Agencies",
    "phone": "(727) 580-7521",
    "address": " 260 1st Ave S Ste 200-25  St Petersburg, FL 33701",
    "location": "Pinellas"
  },
  {
    "name": "Allegrow",
    "description": "Advertising Agencies",
    "phone": "(727) 513-0020",
    "address": " 360 Central Ave Ste 800  St Petersburg, FL 33701",
    "location": "Pinellas"
  },
  {
    "name": "Beach Lion Studios",
    "description": "Advertising Agencies",
    "phone": "(727) 207-1108",
    "address": " 433 Central Ave Suite 212  St Petersburg, FL 33701",
    "location": "Pinellas"
  },
  {
    "name": "Automationlinks",
    "description": "Advertising Agencies",
    "phone": "(727) 888-5855",
    "address": " 4638 Gulf Blvd  St Pete Beach, FL 33706",
    "location": "Pinellas"
  },
  {
    "name": "Creative Warehouse 2 Inc",
    "description": "Advertising Agencies",
    "phone": "(727) 367-1400",
    "address": " 249 Corey Ave  St Pete Beach, FL 33706",
    "location": "Pinellas"
  },
  {
    "name": "Cw2 Inc",
    "description": "Advertising Agencies",
    "phone": "(727) 367-1400",
    "address": " 249 Corey Ave  St Pete Beach, FL 33706",
    "location": "Pinellas"
  },
  {
    "name": "Lino & Associates Inc",
    "description": "Advertising Agencies",
    "phone": "(727) 384-3700",
    "address": " 6515 1st Ave S  Saint Petersburg, FL 33707",
    "location": "Pinellas"
  },
  {
    "name": "Guckenberger'n Partners",
    "description": "Advertising Agencies",
    "phone": "(813) 963-1309",
    "address": " 235 Central Ave  Saint Petersburg, FL 33701",
    "location": "Pinellas"
  },
  {
    "name": "Roma Television Group",
    "description": "Advertising Agencies",
    "phone": "(727) 823-5500",
    "address": " 469 2nd Ave N  Saint Petersburg, FL 33701",
    "location": "Pinellas"
  },
  {
    "name": "Bumpads Services Inc",
    "description": "Advertising Agencies",
    "phone": "(727) 803-1490",
    "address": " 111 2nd Ave N  Saint Petersburg, FL 33701",
    "location": "Pinellas"
  },
  {
    "name": "Image Production",
    "description": "Advertising Agencies",
    "phone": "(727) 823-8909",
    "address": " 150 22nd St S  Saint Petersburg, FL 33712",
    "location": "Pinellas"
  },
  {
    "name": "Truefire Inc",
    "description": "Advertising Agencies",
    "phone": "(727) 898-8866",
    "address": " 100 7th St S  Saint Petersburg, FL 33701",
    "location": "Pinellas"
  },
  {
    "name": "Sunshine Design Studio",
    "description": "Advertising Agencies",
    "phone": "(727) 424-8388",
    "address": " 25th 26th Street Ct N  Saint Petersburg, FL 33714",
    "location": "Pinellas"
  },
  {
    "name": "T F Ward Market Solutions",
    "description": "Advertising Agencies",
    "phone": "(727) 895-7424",
    "address": " 3031 2nd St N  Saint Petersburg, FL 33704",
    "location": "Pinellas"
  },
  {
    "name": "Alpha Bay Media",
    "description": "Advertising Agencies",
    "phone": "(727) 353-8427",
    "address": " 8017 13th Ave S  Saint Petersburg, FL 33707",
    "location": "Pinellas"
  },
  {
    "name": "Advertising & Marketing Spec",
    "description": "Advertising Agencies",
    "phone": "(727) 527-6419",
    "address": " 4906 33rd Ave N  Saint Petersburg, FL 33710",
    "location": "Pinellas"
  },
  {
    "name": "Sales Up Solutions",
    "description": "Advertising Agencies",
    "phone": "(727) 755-3614",
    "address": " 204 37th Ave N  Saint Petersburg, FL 33704",
    "location": "Pinellas"
  },
  {
    "name": "FHB Advertising",
    "description": "Advertising Agencies",
    "phone": "(813) 281-4670",
    "address": " 3001 N Rocky Point Dr  Tampa, FL 33607",
    "location": "Pinellas"
  },
  {
    "name": "Metropolitan Advertising Co",
    "description": "Advertising Agencies",
    "phone": "(813) 876-4107",
    "address": " 624 S Macdill Ave  Tampa, FL 33609",
    "location": "Pinellas"
  },
  {
    "name": "Shaker Advertising Agen",
    "description": "Advertising Agencies",
    "phone": "(813) 288-6970",
    "address": " 1408 N West Shore Blvd  Tampa, FL 33607",
    "location": "Pinellas"
  },
  {
    "name": "Jay Advertising",
    "description": "Advertising Agencies",
    "phone": "(813) 639-4252",
    "address": " 2202 N West Shore Blvd  Tampa, FL 33607",
    "location": "Pinellas"
  },
  {
    "name": "Resseguie Advertising",
    "description": "Advertising Agencies",
    "phone": "(813) 642-0606",
    "address": " 2203 N Creek Ct  Sun City Center, FL 33573",
    "location": "Pinellas"
  },
  {
    "name": "Ralph Chancey Advertising",
    "description": "Advertising Agencies",
    "phone": "(813) 870-6396",
    "address": " 3302 W Cypress St  Tampa, FL 33607",
    "location": "Pinellas"
  },
  {
    "name": "Advluence Advertising Influence",
    "description": "Advertising Agencies",
    "phone": "(813) 254-1500",
    "address": " 1910 W Platt St  Tampa, FL 33606",
    "location": "Pinellas"
  },
  {
    "name": "Metropolitan Advertising",
    "description": "Advertising Specialties",
    "phone": "(813) 877-3200",
    "address": " 3420 W La Salle St  Tampa, FL 33607",
    "location": "Pinellas"
  },
  {
    "name": "A Better Reality Advertising",
    "description": "Management Consultants",
    "phone": "(941) 932-8006",
    "address": " 1100 Dartmouth Dr  Bradenton, FL 34207",
    "location": "Pinellas"
  },
  {
    "name": "Carter & Company Advertising",
    "description": "Advertising Agencies",
    "phone": "(813) 254-1633",
    "address": " 606 S Boulevard  Tampa, FL 33606",
    "location": "Pinellas"
  },
  {
    "name": "Reel Deal Advertising",
    "description": "Advertising Agencies",
    "phone": "(877) 899-7865",
    "address": " 6728 26th St W  Bradenton, FL 34207",
    "location": "Pinellas"
  },
  {
    "name": "Logan Outdoor Advertising, Inc",
    "description": "Outdoor Advertising",
    "phone": "(813) 253-3367",
    "address": " 1716 W Lemon St  Tampa, FL 33606",
    "location": "Pinellas"
  },
  {
    "name": "Logan Outdoor Advertising Inc",
    "description": "Transit Advertising",
    "phone": "(813) 253-3367",
    "address": " 1200 W Cass St  Tampa, FL 33606",
    "location": "Pinellas"
  },
  {
    "name": "DeAngelis Advertising - Multiple Markets USA",
    "description": "Advertising Agencies",
    "phone": "(800) 318-5047",
    "address": " 100 S Ashley Dr Ste 600  Tampa, FL 33602",
    "location": "Pinellas"
  },
  {
    "name": "JFD Advertising & Public",
    "description": "Advertising Agencies",
    "phone": "(813) 223-4545",
    "address": " 412 E Madison St  Tampa, FL 33602",
    "location": "Pinellas"
  },
  {
    "name": "Rooks Advertising",
    "description": "Advertising Agencies",
    "phone": "(941) 747-2021",
    "address": " 6170 State Road 70 E  Bradenton, FL 34203",
    "location": "Pinellas"
  },
  {
    "name": "Ad Exact Advertising",
    "description": "Advertising Agencies",
    "phone": "(941) 777-7701",
    "address": " 11015 Gatewood Dr  Bradenton, FL 34211",
    "location": "Pinellas"
  },
  {
    "name": "Integrity Advertising Works",
    "description": "Screen Printing-Equipment & Supplies",
    "phone": "(813) 237-6473",
    "address": " 4719 N Thatcher Ave  Tampa, FL 33614",
    "location": "Pinellas"
  },
  {
    "name": "Signal Outdoor Advertising Tampa Bay",
    "description": "Outdoor Advertising",
    "phone": "(813) 249-6309",
    "address": " 6011 Benjamin Rd  Tampa, FL 33634",
    "location": "Pinellas"
  },
  {
    "name": "Phoenix Advertising",
    "description": "Advertising Agencies",
    "phone": "(813) 642-0002",
    "address": " 11542 Sumner Rd  Wimauma, FL 33598",
    "location": "Pinellas"
  },
  {
    "name": "Doner Advertising",
    "description": "Advertising Specialties",
    "phone": "(813) 741-9967",
    "address": " 8303 Moccasin Trail Dr  Riverview, FL 33578",
    "location": "Pinellas"
  },
  {
    "name": "McKay Advertising + Activation",
    "description": "Advertising Agencies",
    "phone": "(813) 498-0376",
    "address": " 1517 E 7th Ave Ste F  Tampa, FL 33605",
    "location": "Pinellas"
  },
  {
    "name": "Glass Advertising Inc",
    "description": "Advertising Agencies",
    "phone": "(941) 351-4516",
    "address": " 8051 N Tamiami Trl  Sarasota, FL 34243",
    "location": "Pinellas"
  },
  {
    "name": "J & M Advertising",
    "description": "Direct Mail Advertising",
    "phone": "(727) 451-6510",
    "address": " 13618 W Hillsborough Ave  Tampa, FL 33635",
    "location": "Pinellas"
  },
  {
    "name": "Shaw Advertising Design",
    "description": "Advertising Agencies",
    "phone": "(813) 254-6202",
    "address": " 709 W Bay St  Tampa, FL 33606",
    "location": "Pinellas"
  },
  {
    "name": "Big Nerd Marketing",
    "description": "Advertising Agencies",
    "phone": "(844) 637-3439",
    "address": " 11300 Dr Martin Luther King Jr St N  Saint Petersburg, FL 33716",
    "location": "Pinellas"
  },
  {
    "name": "Tampa Bay Interconnect",
    "description": "Advertising Agencies",
    "phone": "(727) 578-2662",
    "address": " 11500 Dr Martin Luther King Jr St N  Saint Petersburg, FL 33716",
    "location": "Pinellas"
  },
  {
    "name": "Fleming Advertising",
    "description": "Advertising Agencies",
    "phone": "(727) 374-6845",
    "address": " 167 114th Ave NE  Saint Petersburg, FL 33716",
    "location": "Pinellas"
  },
  {
    "name": "First Advantage",
    "description": "Advertising Agencies",
    "phone": "(727) 290-1000",
    "address": " 140 Fountain Pkwy N Ste 140  Saint Petersburg, FL 33716",
    "location": "Pinellas"
  },
  {
    "name": "Wescat, Inc",
    "description": "Advertising Agencies",
    "phone": "(813) 559-0921",
    "address": " 8915 Laurel Dr N  Pinellas Park, FL 33782",
    "location": "Pinellas"
  },
  {
    "name": "The E Factory",
    "description": "Advertising Agencies",
    "phone": "(727) 319-4459",
    "address": " 10575 68th Ave  Seminole, FL 33772",
    "location": "Pinellas"
  },
  {
    "name": "America Ii Group",
    "description": "Advertising Agencies",
    "phone": "(727) 541-4739",
    "address": " 5899 117th Ave N  Pinellas Park, FL 33782",
    "location": "Pinellas"
  },
  {
    "name": "Exceltech Of Pinellas Inc",
    "description": "Advertising Agencies",
    "phone": "(727) 397-1769",
    "address": " 9405 94th St  Seminole, FL 33777",
    "location": "Pinellas"
  },
  {
    "name": "Slwm",
    "description": "Advertising Agencies",
    "phone": "(727) 531-1112",
    "address": " 12161 62nd St  Largo, FL 33773",
    "location": "Pinellas"
  },
  {
    "name": "Ts Concepts Group",
    "description": "Advertising Agencies",
    "phone": "(727) 369-8060",
    "address": " 8666 Seminole Blvd  Seminole, FL 33772",
    "location": "Pinellas"
  },
  {
    "name": "A -Direct Advertising Specialty Company",
    "description": "Advertising Agencies",
    "phone": "(727) 398-1000",
    "address": " 8950 Seminole Blvd  Seminole, FL 33772",
    "location": "Pinellas"
  },
  {
    "name": "GO Agency Digital Marketing",
    "description": "Advertising Agencies",
    "phone": "(813) 790-5909",
    "address": " 2655 Ulmerton Rd Ste 219  Clearwater, FL 33762",
    "location": "Pinellas"
  },
  {
    "name": "The Mallard Group Inc",
    "description": "Advertising Agencies",
    "phone": "(727) 572-4665",
    "address": " 2861 Executive Dr  Clearwater, FL 33762",
    "location": "Pinellas"
  },
  {
    "name": "Publications Nep",
    "description": "Advertising Agencies",
    "phone": "(727) 289-5563",
    "address": " 4908 Creekside Dr  Clearwater, FL 33760",
    "location": "Pinellas"
  },
  {
    "name": "Rick Crosby & Associates",
    "description": "Advertising Agencies",
    "phone": "(727) 535-1338",
    "address": " 12360 66th St  Largo, FL 33773",
    "location": "Pinellas"
  },
  {
    "name": "iHeartMedia",
    "description": "Advertising Agencies",
    "phone": "(813) 832-1000",
    "address": " 13577 Feather Sound Dr  Clearwater, FL 33762",
    "location": "Pinellas"
  },
  {
    "name": "Ads and Funnels",
    "description": "Advertising Agencies",
    "phone": "(727) 280-5912",
    "address": " 12700 66th St Apt 2325  Largo, FL 33773",
    "location": "Pinellas"
  },
  {
    "name": "Mail Marketing",
    "description": "Advertising Agencies",
    "phone": "(727) 556-2500",
    "address": " 12405 73rd Ct  Largo, FL 33773",
    "location": "Pinellas"
  },
  {
    "name": "Octane Marketing",
    "description": "Advertising Agencies",
    "phone": "(727) 538-8606",
    "address": " 4500 140th Ave N  Clearwater, FL 33762",
    "location": "Pinellas"
  },
  {
    "name": "Tri Ed Distribution",
    "description": "Advertising Agencies",
    "phone": "(727) 530-3902",
    "address": " 4600 140th Ave N Ste 220  Clearwater, FL 33762",
    "location": "Pinellas"
  },
  {
    "name": "Media Impact Advertising",
    "description": "Advertising Agencies",
    "phone": "(727) 536-3342",
    "address": " 13825 Icot Blvd  Clearwater, FL 33760",
    "location": "Pinellas"
  },
  {
    "name": "My Marketing Department, Inc",
    "description": "Advertising Agencies",
    "phone": "(727) 888-1200",
    "address": " 7777 131st St Ste 9  Seminole, FL 33776",
    "location": "Pinellas"
  },
  {
    "name": "Southeast Advertising Inc",
    "description": "Advertising Agencies",
    "phone": "(727) 530-1603",
    "address": " 14001 63rd Way N  Clearwater, FL 33760",
    "location": "Pinellas"
  },
  {
    "name": "Amico Treasure Island Holdings",
    "description": "Advertising Agencies",
    "phone": "(727) 538-2069",
    "address": " 14001 63rd Way N  Clearwater, FL 33760",
    "location": "Pinellas"
  },
  {
    "name": "Direct Advertising",
    "description": "Advertising Agencies",
    "phone": "(727) 524-7600",
    "address": " 12530 Enterprise Blvd  Largo, FL 33773",
    "location": "Pinellas"
  },
  {
    "name": "Miraclemedia",
    "description": "Advertising Agencies",
    "phone": "(727) 397-3817",
    "address": " 13800 Park Blvd  Seminole, FL 33776",
    "location": "Pinellas"
  },
  {
    "name": "JMK Solutions Inc",
    "description": "Advertising Agencies",
    "phone": "(727) 595-7613",
    "address": " 13790 87th Pl  Seminole, FL 33776",
    "location": "Pinellas"
  },
  {
    "name": "Blue Atlas Marketing",
    "description": "Advertising Agencies",
    "phone": "(855) 755-6225",
    "address": " 13721 88th Ave  Seminole, FL 33776",
    "location": "Pinellas"
  },
  {
    "name": "Business Growth Solutions Of Florida",
    "description": "Advertising Agencies",
    "phone": "(727) 581-6314",
    "address": " 12945 Seminole Blvd  Largo, FL 33778",
    "location": "Pinellas"
  },
  {
    "name": "Fly High Business Builders",
    "description": "Advertising Agencies",
    "phone": "(866) 359-3422",
    "address": " 10225 Ulmerton Rd  Largo, FL 33771",
    "location": "Pinellas"
  }
]
