[
  {
    "name": "3 Blondes Graphics",
    "description": "Clothing Stores",
    "phone": "(352) 857-1424",
    "address": " 16176 Commonwealth Ave N  polk city, FL 33868",
    "location": "Polk"
  },
  {
    "name": "Cap Solutions",
    "description": "Advertising Agencies",
    "phone": "(863) 984-4521",
    "address": " 225 Chadwick Ct  Auburndale, FL 33823",
    "location": "Polk"
  },
  {
    "name": "Torch Designs",
    "description": "Advertising Agencies",
    "phone": "(863) 614-0029",
    "address": " 4415 Ne Sandy Blvd  Lakeland, FL 33805",
    "location": "Polk"
  },
  {
    "name": "Click Thru Marketing",
    "description": "Advertising Agencies",
    "phone": "(863) 592-8086",
    "address": " 4959 Tennessee Lake Dr  Auburndale, FL 33823",
    "location": "Polk"
  },
  {
    "name": "Evolving",
    "description": "Advertising Agencies",
    "phone": "(863) 513-0057",
    "address": " 4003 Carey Ct  Auburndale, FL 33823",
    "location": "Polk"
  },
  {
    "name": "CGLO Media",
    "description": "Internet Marketing & Advertising",
    "phone": "(561) 212-3429",
    "address": " 807 Interlachen Pkwy  Lakeland, FL 33801",
    "location": "Polk"
  },
  {
    "name": "Say It in Sign",
    "description": "Signs",
    "phone": "(863) 967-0657",
    "address": " 132 White Cliff Blvd  Auburndale, FL 33823",
    "location": "Polk"
  },
  {
    "name": "William Whittle Consultant",
    "description": "Advertising Agencies",
    "phone": "(863) 815-2473",
    "address": " 1637 Yorkshire Trl  Lakeland, FL 33809",
    "location": "Polk"
  },
  {
    "name": "Kingston Partners Inc",
    "description": "Advertising Agencies",
    "phone": "(863) 967-5487",
    "address": " 118 E Lake Ave  Auburndale, FL 33823",
    "location": "Polk"
  },
  {
    "name": "Imperial Imprinting",
    "description": "Advertising Agencies",
    "phone": "(863) 551-9400",
    "address": " 2495 Joey Dr  Auburndale, FL 33823",
    "location": "Polk"
  },
  {
    "name": "Today & Tonight Inc",
    "description": "Advertising Agencies",
    "phone": "(863) 401-8001",
    "address": " 810 Lake Jessie Dr  Winter Haven, FL 33881",
    "location": "Polk"
  },
  {
    "name": "Woyster Media, Inc.",
    "description": "Internet Marketing & Advertising",
    "phone": "(863) 412-2076",
    "address": " PO Box 1534  Auburndale, FL 33823",
    "location": "Polk"
  },
  {
    "name": "Just-In-Time Signs",
    "description": "Signs",
    "phone": "(863) 944-1766",
    "address": " 706 Magnolia Ave  Auburndale, FL 33823",
    "location": "Polk"
  },
  {
    "name": "Discount Signs",
    "description": "Signs-Maintenance & Repair",
    "phone": "(863) 852-5600",
    "address": " 345 E Columbia St  Lake Alfred, FL 33850",
    "location": "Polk"
  },
  {
    "name": "Lighthouse Sign Services",
    "description": "Signs",
    "phone": "(863) 400-3660",
    "address": " 5403 Polk City Rd  Haines City, FL 33844",
    "location": "Polk"
  },
  {
    "name": "Gator Sign Corp",
    "description": "Signs",
    "phone": "(863) 965-2046",
    "address": " 2099 42nd St NW  Winter Haven, FL 33881",
    "location": "Polk"
  },
  {
    "name": "iDirect Media, LLC",
    "description": "Internet Marketing & Advertising",
    "phone": "(863) 875-3975",
    "address": " Po Box 938  Auburndale, FL 33823",
    "location": "Polk"
  },
  {
    "name": "Atlasdoorrepair.com",
    "description": "Internet Marketing & Advertising",
    "phone": "(863) 559-1533",
    "address": " 25111 Ramm Dr  Lakeland, FL 33809",
    "location": "Polk"
  },
  {
    "name": "Signex",
    "description": "Signs",
    "phone": "(863) 956-9371",
    "address": " 3910 Lake Alfred Rd  Lake Alfred, FL 33850",
    "location": "Polk"
  },
  {
    "name": "Chilton Signs & Designs",
    "description": "Signs",
    "phone": "(863) 438-0880",
    "address": " 407 E Bridgers Ave  Auburndale, FL 33823",
    "location": "Polk"
  },
  {
    "name": "Sign Postman",
    "description": "Advertising Specialties",
    "phone": "(863) 808-0005",
    "address": " 5337 N Socrum Loop Rd  Lakeland, FL 33809",
    "location": "Polk"
  },
  {
    "name": "Cottrell Signs",
    "description": "Signs",
    "phone": "(863) 602-7320",
    "address": " 8421 US Highway 98 N  Lakeland, FL 33809",
    "location": "Polk"
  },
  {
    "name": "Checkered Flag Graphics",
    "description": "Signs",
    "phone": "(863) 559-4315",
    "address": " 8030 Us Highway 98 N  Lakeland, FL 33809",
    "location": "Polk"
  },
  {
    "name": "Gulf State Signs",
    "description": "Audio-Visual Creative Services",
    "phone": "(863) 967-0659",
    "address": " 1305 42nd St NW  Winter Haven, FL 33881",
    "location": "Polk"
  },
  {
    "name": "HUSH Media Networks",
    "description": "Advertising Agencies",
    "phone": "(800) 214-8036",
    "address": " PO Box 1804  Davenport, FL 33836",
    "location": "Polk"
  },
  {
    "name": "Dippidi",
    "description": "Advertising Agencies",
    "phone": "(863) 591-5384",
    "address": " 502 E Main St  Lakeland, FL 33801",
    "location": "Polk"
  },
  {
    "name": "SoccerLeads",
    "description": "Advertising Agencies",
    "phone": "(863) 400-0407",
    "address": " 502 E Main St  Lakeland, FL 33801",
    "location": "Polk"
  },
  {
    "name": "Properganda Inc",
    "description": "Advertising Agencies",
    "phone": "(239) 430-9400",
    "address": " 231 N Kentucky Ave Ste 214  Lakeland, FL 33801",
    "location": "Polk"
  },
  {
    "name": "Hurimark SEO Agency",
    "description": "Advertising Agencies",
    "phone": "(650) 586-0072",
    "address": " 122 E Main St Unit 130  Lakeland, FL 33801",
    "location": "Polk"
  },
  {
    "name": "LED Truck Advertising",
    "description": "Advertising Agencies",
    "phone": "(407) 577-4175",
    "address": " 400 Callawalk Ct  Davenport, FL 33896",
    "location": "Polk"
  },
  {
    "name": "Gallagher Advertising",
    "description": "Advertising Agencies",
    "phone": "(863) 686-9923",
    "address": " 1628 E Gary Rd  Lakeland, FL 33801",
    "location": "Polk"
  },
  {
    "name": "Lakeland Outdoor Advertising",
    "description": "Advertising Agencies",
    "phone": "(863) 603-0373",
    "address": " 215 E Bay St  Lakeland, FL 33801",
    "location": "Polk"
  },
  {
    "name": "Moonstocks",
    "description": "Advertising Agencies",
    "phone": "(800) 601-0639",
    "address": " 304 E Pine St Unit 1132  Lakeland, FL 33801",
    "location": "Polk"
  },
  {
    "name": "Elite Advertising & Design",
    "description": "Advertising Agencies",
    "phone": "(863) 937-9676",
    "address": " 2058 E Edgewood Dr Ste A  Lakeland, FL 33803",
    "location": "Polk"
  },
  {
    "name": "Nissen Advertising Inc",
    "description": "Advertising Agencies",
    "phone": "(863) 688-7078",
    "address": " 1037 S Florida Ave  Lakeland, FL 33803",
    "location": "Polk"
  },
  {
    "name": "Brenmar Advertising Inc",
    "description": "Advertising Agencies",
    "phone": "(863) 644-6687",
    "address": " 1666 Williamsburg Sq  Lakeland, FL 33803",
    "location": "Polk"
  },
  {
    "name": "Sitemap",
    "description": "Advertising Agencies",
    "phone": "(863) 825-7006",
    "address": " 1649 Williamsburg Sq  Lakeland, FL 33803",
    "location": "Polk"
  },
  {
    "name": "Craig Advertising",
    "description": "Advertising Agencies",
    "phone": "(863) 853-4116",
    "address": " 528 Worchester Ct  Lakeland, FL 33809",
    "location": "Polk"
  },
  {
    "name": "Advertising Solutions & Printing",
    "description": "Advertising Agencies",
    "phone": "(863) 291-6808",
    "address": " 3191 Recker Hwy  Winter Haven, FL 33880",
    "location": "Polk"
  },
  {
    "name": "Focus Magazine",
    "description": "Advertising Agencies",
    "phone": "(863) 293-9484",
    "address": " 501 W Central Ave  Winter Haven, FL 33880",
    "location": "Polk"
  },
  {
    "name": "Pro -Ad Media Inc",
    "description": "Advertising Agencies",
    "phone": "(863) 802-5043",
    "address": " 224 N Kentucky Ave  Lakeland, FL 33801",
    "location": "Polk"
  },
  {
    "name": "Cyberlink1",
    "description": "Advertising Agencies",
    "phone": "(863) 299-3177",
    "address": " 340 W Central Ave  Winter Haven, FL 33880",
    "location": "Polk"
  },
  {
    "name": "Sun State Neon",
    "description": "Signs",
    "phone": "(863) 665-2754",
    "address": " 2511 E Main St  Lakeland, FL 33801",
    "location": "Polk"
  },
  {
    "name": "Inca Concept",
    "description": "Advertising Specialties",
    "phone": "(407) 300-2642",
    "address": " 520 Ronshelle Ave  Haines City, FL 33844",
    "location": "Polk"
  },
  {
    "name": "Advertising Signs Tha Work",
    "description": "Signs",
    "phone": "(863) 669-0535",
    "address": " 1709 E Memorial Blvd  Lakeland, FL 33801",
    "location": "Polk"
  },
  {
    "name": "Capstone Advertising, Inc.",
    "description": "Advertising Specialties",
    "phone": "(863) 225-3670",
    "address": " 752 Lady Diana Dr  Davenport, FL 33837",
    "location": "Polk"
  },
  {
    "name": "Chandler Signs",
    "description": "Signs",
    "phone": "(863) 420-1100",
    "address": " 2584 Sand Hill Point Cir  Davenport, FL 33837",
    "location": "Polk"
  },
  {
    "name": "Image Creations By Billie",
    "description": "Advertising Specialties",
    "phone": "(863) 937-8833",
    "address": " 2184 Malachite Dr  Lakeland, FL 33810",
    "location": "Polk"
  },
  {
    "name": "Jamtam",
    "description": "Advertising Agencies",
    "phone": "(407) 787-3719",
    "address": " 1596 Heritage Crossing Ct  Reunion, FL 34747",
    "location": "Polk"
  },
  {
    "name": "The Florida Senior",
    "description": "Advertising Agencies",
    "phone": "(863) 802-5043",
    "address": " 225 N Florida Ave  Lakeland, FL 33801",
    "location": "Polk"
  },
  {
    "name": "Quinlan Co Inc",
    "description": "Advertising Agencies",
    "phone": "(863) 422-1393",
    "address": " 6654 State Road 544  Winter Haven, FL 33881",
    "location": "Polk"
  },
  {
    "name": "Tinsley Creative",
    "description": "Advertising Agencies",
    "phone": "(863) 583-0081",
    "address": " 2310 Commerce Point Dr  Lakeland, FL 33801",
    "location": "Polk"
  },
  {
    "name": "Tmr Agency",
    "description": "Advertising Agencies",
    "phone": "(863) 583-0081",
    "address": " 1046 S Florida Ave  Lakeland, FL 33803",
    "location": "Polk"
  },
  {
    "name": "Kelton Signs & Banners",
    "description": "Editorial & Publication Services",
    "phone": "(863) 940-9725",
    "address": " 2020 S Combee Rd Ste 33801  Lakeland, FL 33801",
    "location": "Polk"
  },
  {
    "name": "laser Engraving & Design, LLC",
    "description": "Engraving",
    "phone": "(863) 666-3124",
    "address": " 2126 E Edgewood Dr Ste 11  Lakeland, FL 33803",
    "location": "Polk"
  },
  {
    "name": "Mail Processing Associates",
    "description": "Mail & Shipping Services",
    "phone": "(863) 687-6945",
    "address": " 430 N Wabash Ave  Lakeland, FL 33815",
    "location": "Polk"
  },
  {
    "name": "Website Islands",
    "description": "Internet Marketing & Advertising",
    "phone": "(407) 243-8028",
    "address": " 205 Rona Ln  Davenport, FL 33897",
    "location": "Polk"
  },
  {
    "name": "Signs of many kinds",
    "description": "Print Advertising",
    "phone": "(863) 287-4638",
    "address": " 217 6th St SW  Winter Haven, FL 33880",
    "location": "Polk"
  },
  {
    "name": "All About Signs & Service Inc",
    "description": "Signs",
    "phone": "(863) 666-3990",
    "address": " 2727 Industrial Park Dr  Lakeland, FL 33801",
    "location": "Polk"
  },
  {
    "name": "Signs & Specialties",
    "description": "Truck Painting & Lettering",
    "phone": "(863) 686-5900",
    "address": " 1829 E Edgewood Dr  Lakeland, FL 33803",
    "location": "Polk"
  },
  {
    "name": "Xocai Healthy Chocolate",
    "description": "Internet Marketing & Advertising",
    "phone": "(863) 233-7160",
    "address": " 1822 16th st nw  Winter HAven, FL 33881",
    "location": "Polk"
  },
  {
    "name": "Agent360Â°CRM | \"Agent360CRM\"",
    "description": "Computer Software Publishers & Developers",
    "phone": "(863) 591-5611",
    "address": " 502 E Main St  Lakeland, FL 33801",
    "location": "Polk"
  },
  {
    "name": "MosierData - Lakeland Web Design & Internet Marketing",
    "description": "Web Site Design & Services",
    "phone": "(863) 687-0000",
    "address": " 314 N Kentucky Ave  Lakeland, FL 33801",
    "location": "Polk"
  },
  {
    "name": "Rapid Action Marketing | Digital Marketing Agency",
    "description": "Internet Marketing & Advertising",
    "phone": "(863) 226-6263",
    "address": " 122 E. Main St. #270  Lakeland, FL 33801",
    "location": "Polk"
  },
  {
    "name": "Dark Matter Creative, LLC.",
    "description": "Internet Marketing & Advertising",
    "phone": "(407) 913-0357",
    "address": " 2232 Heritage Dr  Lakeland, FL 33801",
    "location": "Polk"
  },
  {
    "name": "St. Louis Software, Lakeland, FL",
    "description": "Internet Marketing & Advertising",
    "phone": "(863) 686-3741",
    "address": " 817 South Blvd  Lakeland, FL 33801",
    "location": "Polk"
  },
  {
    "name": "Web Design of Lakeland by Brandtastic",
    "description": "Internet Marketing & Advertising",
    "phone": "(863) 271-7975",
    "address": " 1643 Williamsburg Sq  Lakeland, FL 33803",
    "location": "Polk"
  },
  {
    "name": "Philip Polo & Co. Signs",
    "description": "Signs",
    "phone": "(813) 951-8401",
    "address": " 10931 Ponderosa Lane  Lakeland, FL 33809",
    "location": "Polk"
  },
  {
    "name": "Sign Effex",
    "description": "Signs",
    "phone": "(863) 294-4498",
    "address": " 512 6th St NW  Winter Haven, FL 33881",
    "location": "Polk"
  },
  {
    "name": "Curious Jane",
    "description": "Advertising Specialties",
    "phone": "(863) 646-2488",
    "address": " 439 Florida Ave S #301  Lakeland, FL 33801",
    "location": "Polk"
  },
  {
    "name": "Monroe Marketing Design. LLC",
    "description": "Marketing Programs & Services",
    "phone": "(863) 288-8118",
    "address": " 128 Terrace Dr Apt 3  Haines City, FL 33844",
    "location": "Polk"
  },
  {
    "name": "Graphic Geeks Signs",
    "description": "Signs",
    "phone": "(863) 595-3381",
    "address": " 512 Alpine Ridge Loop  Davenport, FL 33897",
    "location": "Polk"
  },
  {
    "name": "Dee Custom Fabricators",
    "description": "Signs",
    "phone": "(863) 667-1850",
    "address": " 3545 Waterfield Pkwy  Lakeland, FL 33803",
    "location": "Polk"
  },
  {
    "name": "Douglas Screen Printers Inc",
    "description": "Screen Printing",
    "phone": "(863) 687-8545",
    "address": " 2710 New Tampa Hwy  Lakeland, FL 33815",
    "location": "Polk"
  },
  {
    "name": "Cottrell Creations",
    "description": "Signs",
    "phone": "(863) 602-7320",
    "address": " 5421 Us Highway 98 N  Lakeland, FL 33809",
    "location": "Polk"
  },
  {
    "name": "All American Signs Inc",
    "description": "Signs",
    "phone": "(863) 665-7161",
    "address": " 206 N Eastside Dr  Lakeland, FL 33801",
    "location": "Polk"
  },
  {
    "name": "Mpact",
    "description": "Signs",
    "phone": "(863) 669-0535",
    "address": " 1709 E Memorial Blvd  Lakeland, FL 33801",
    "location": "Polk"
  },
  {
    "name": "Chilton Signs LP",
    "description": "Signs",
    "phone": "(863) 438-0880",
    "address": " 2584 Sand Hill Point Cir  Davenport, FL 33837",
    "location": "Polk"
  },
  {
    "name": "Crt International",
    "description": "Signs",
    "phone": "(863) 683-5322",
    "address": " 1512 E Gary Rd  Lakeland, FL 33801",
    "location": "Polk"
  },
  {
    "name": "Signcorp Inc",
    "description": "Signs",
    "phone": "(863) 875-3019",
    "address": " 512 6th St NW  Winter Haven, FL 33881",
    "location": "Polk"
  },
  {
    "name": "Century Signs Inc",
    "description": "Signs",
    "phone": "(863) 816-6947",
    "address": " 2020 S Combee Rd Ste 4  Lakeland, FL 33801",
    "location": "Polk"
  },
  {
    "name": "FASTSIGNS",
    "description": "Signs",
    "phone": "(863) 485-6865",
    "address": " 228 N Florida Ave  Lakeland, FL 33801",
    "location": "Polk"
  }
]
