[
  {
    "name": "Klien-Yaney Med Ia",
    "description": "Advertising Agencies",
    "phone": "(386) 402-7068",
    "address": " 1851 Guava Dr  Edgewater, FL 32141",
    "location": "Putnam"
  },
  {
    "name": "Richard Overman Consulting Inc",
    "description": "Advertising Agencies",
    "phone": "(386) 478-1584",
    "address": " 1204 S Riverside Dr  Edgewater, FL 32132",
    "location": "Putnam"
  },
  {
    "name": "Shok Idea Group",
    "description": "Advertising Agencies",
    "phone": "(386) 957-3939",
    "address": " 201 Flagler Ave  Edgewater, FL 32132",
    "location": "Putnam"
  },
  {
    "name": "Image Today Graphics",
    "description": "Advertising Agencies",
    "phone": "(386) 428-5556",
    "address": " 516 Magnolia St  New Smyrna Beach, FL 32168",
    "location": "Putnam"
  },
  {
    "name": "Dawn Kolet Volusia Savings",
    "description": "Advertising Agencies",
    "phone": "(386) 405-6706",
    "address": " 362 N Airport Rd  New Smyrna Beach, FL 32168",
    "location": "Putnam"
  },
  {
    "name": "Fins Up Digital Media",
    "description": "Advertising Agencies",
    "phone": "(386) 848-6921",
    "address": " 2022 Umbrella Tree Dr  Edgewater, FL 32141",
    "location": "Putnam"
  },
  {
    "name": "Revenue Cycle Resources- RCR|HUB",
    "description": "Advertising Agencies",
    "phone": "(407) 421-4940",
    "address": " 538 Canal St  New Smyrna Beach, FL 32168",
    "location": "Putnam"
  },
  {
    "name": "Jack the SEO Guy",
    "description": "Advertising Agencies",
    "phone": "(321) 355-2250",
    "address": " 4416 Sherwood Forest Dr  Titusville, FL 32796",
    "location": "Putnam"
  },
  {
    "name": "U Sto It Mini Storage",
    "description": "Mail & Shipping Services",
    "phone": "(386) 426-8786",
    "address": " 3725 Us Highway 1  Edgewater, FL 32141",
    "location": "Putnam"
  },
  {
    "name": "Florida Sign Rush",
    "description": "Signs-Erectors & Hangers",
    "phone": "(386) 410-4159",
    "address": " 2102 S Ridgewood Ave  Edgewater, FL 32141",
    "location": "Putnam"
  },
  {
    "name": "Backwards Production",
    "description": "Internet Marketing & Advertising",
    "phone": "(386) 427-3467",
    "address": " 3212 Royal Palm Dr  Edgewater, FL 32141",
    "location": "Putnam"
  },
  {
    "name": "Bulldog Signs",
    "description": "Signs",
    "phone": "(386) 424-6643",
    "address": " 3130 Unity Tree Dr  Edgewater, FL 32141",
    "location": "Putnam"
  },
  {
    "name": "Ford Robert & Janice",
    "description": "Advertising Specialties",
    "phone": "(386) 427-9934",
    "address": " 511 27th St  Edgewater, FL 32141",
    "location": "Putnam"
  },
  {
    "name": "American Architectural Graphics Inc",
    "description": "Signs",
    "phone": "(386) 427-6810",
    "address": " 2312 Hibiscus Dr  Edgewater, FL 32141",
    "location": "Putnam"
  },
  {
    "name": "B & C Signs",
    "description": "Signs-Erectors & Hangers",
    "phone": "(386) 426-2373",
    "address": " 2225 Guava Dr  Edgewater, FL 32141",
    "location": "Putnam"
  },
  {
    "name": "Insight Lead Gen",
    "description": "Internet Marketing & Advertising",
    "phone": "(386) 603-6070",
    "address": " 5300 S Atlantic Ave Apt 3207  New Smyrna Beach, FL 32169",
    "location": "Putnam"
  },
  {
    "name": "Vintagevolvorestoration.com",
    "description": "Internet Marketing & Advertising",
    "phone": "(386) 220-4033",
    "address": " 1952 Guava Dr  Edgewater, FL 32141",
    "location": "Putnam"
  },
  {
    "name": "Aces Up Signs",
    "description": "Signs",
    "phone": "(386) 690-0737",
    "address": " 1856 Hibiscus Dr  Edgewater, FL 32141",
    "location": "Putnam"
  },
  {
    "name": "Cusom Signs Ink, LLC",
    "description": "Decals",
    "phone": "(386) 847-8067",
    "address": " 1907 S Pinedale Rd  Edgewater, FL 32141",
    "location": "Putnam"
  },
  {
    "name": "Adword Consulting",
    "description": "Internet Products & Services",
    "phone": "(386) 689-9912",
    "address": " 526 Coral Trace Blvd  Edgewater, FL 32132",
    "location": "Putnam"
  },
  {
    "name": "Fantastic Design Group",
    "description": "Signs",
    "phone": "(386) 424-0556",
    "address": " 111 N Ridgewood Ave  Edgewater, FL 32132",
    "location": "Putnam"
  },
  {
    "name": "Barlow Advertising Specialties",
    "description": "Advertising Specialties",
    "phone": "(386) 423-1320",
    "address": " 1792 Persimmon Cir  Edgewater, FL 32132",
    "location": "Putnam"
  },
  {
    "name": "Smyrna Sign",
    "description": "Signs",
    "phone": "(386) 426-2920",
    "address": " 1980 E Gateway Dr  New Smyrna Beach, FL 32168",
    "location": "Putnam"
  },
  {
    "name": "Central Signs",
    "description": "Signs-Maintenance & Repair",
    "phone": "(386) 427-7446",
    "address": " 517 Mason Av  New Smyrna Beach, FL 32169",
    "location": "Putnam"
  },
  {
    "name": "Greatoceancondos.com",
    "description": "Internet Marketing & Advertising",
    "phone": "(386) 478-7863",
    "address": " 2801 Hill St  New Smyrna Beach, FL 32169",
    "location": "Putnam"
  },
  {
    "name": "Chris' Sign Shop",
    "description": "Signs",
    "phone": "(386) 402-2216",
    "address": " 1102 N Dixie Fwy Ste 3  New Smyrna Beach, FL 32168",
    "location": "Putnam"
  },
  {
    "name": "The Small Biz Shop",
    "description": "Internet Marketing & Advertising",
    "phone": "(888) 448-4461",
    "address": " 538 Canal St Ste 325  New Smyrna Beach, FL 32168",
    "location": "Putnam"
  },
  {
    "name": "Sign of the Times",
    "description": "Signs",
    "phone": "(386) 423-5512",
    "address": " 511 Canal St  New Smyrna Beach, FL 32168",
    "location": "Putnam"
  },
  {
    "name": "Shark Bite Marketing",
    "description": "Internet Marketing & Advertising",
    "phone": "(386) 424-6931",
    "address": " 439 Bouchelle Dr Apt 202  New Smyrna Beach, FL 32169",
    "location": "Putnam"
  },
  {
    "name": "Tropics Digital",
    "description": "Internet Marketing & Advertising",
    "phone": "(321) 222-7612",
    "address": " 313 Desoto Dr  New Smyrna Beach, FL 32169",
    "location": "Putnam"
  },
  {
    "name": "Fantastic Signs",
    "description": "Signs",
    "phone": "(386) 424-0556",
    "address": " 1005 N Dixie Fwy  New Smyrna Beach, FL 32168",
    "location": "Putnam"
  },
  {
    "name": "Omni Business Services",
    "description": "Fax Service",
    "phone": "(386) 423-5512",
    "address": " 1005 N Dixie Fwy  New Smyrna Beach, FL 32168",
    "location": "Putnam"
  },
  {
    "name": "Brandi's Sign Design",
    "description": "Signs",
    "phone": "(386) 402-2216",
    "address": " 1102 N Dixie Fwy Ste 3  New Smyrna Beach, FL 32168",
    "location": "Putnam"
  },
  {
    "name": "Gerson Art And Sign",
    "description": "Signs",
    "phone": "(386) 426-6302",
    "address": " 1102 N Dixie Fwy  New Smyrna Beach, FL 32168",
    "location": "Putnam"
  },
  {
    "name": "Signwurks",
    "description": "Print Advertising",
    "phone": "(386) 473-1321",
    "address": " 509 Mount Olympus Blvd  New Smyrna Beach, FL 32168",
    "location": "Putnam"
  },
  {
    "name": "Headline Surfer",
    "description": "Interactive Media",
    "phone": "(386) 689-2830",
    "address": " 168 Turnberry Cir  New Smyrna Beach, FL 32168",
    "location": "Putnam"
  },
  {
    "name": "Diversified Signs",
    "description": "Signs",
    "phone": "(407) 760-0484",
    "address": " 381 N Jungle Rd  Geneva, FL 32732",
    "location": "Putnam"
  }
]
