[
  {
    "name": "Mark Smith Advertising",
    "description": "Advertising Agencies",
    "phone": "(850) 374-2009",
    "address": " 98 Miracle Strip Pkwy SE  Fort Walton Beach, FL 32548",
    "location": "Santa_Rosa"
  },
  {
    "name": "Fresh Creative Communications + Design",
    "description": "Advertising Agencies",
    "phone": "(850) 244-5549",
    "address": " 16 First St SE  Fort Walton Beach, FL 32548",
    "location": "Santa_Rosa"
  },
  {
    "name": "Destinations & Beyond",
    "description": "Advertising Agencies",
    "phone": "(850) 243-8889",
    "address": " 122 Eglin Pkwy NE  Fort Walton Beach, FL 32548",
    "location": "Santa_Rosa"
  },
  {
    "name": "April Showers Advertising",
    "description": "Advertising Agencies",
    "phone": "(850) 226-7640",
    "address": " 226 Andalusia St NE  Fort Walton Beach, FL 32548",
    "location": "Santa_Rosa"
  },
  {
    "name": "Trophy Center Inc",
    "description": "Advertising Agencies",
    "phone": "(850) 862-8413",
    "address": " 529 Eglin Pkwy NE  Fort Walton Beach, FL 32547",
    "location": "Santa_Rosa"
  },
  {
    "name": "Boomer Aviation Inc",
    "description": "Advertising Agencies",
    "phone": "(850) 244-1313",
    "address": " 40 Lincoln Dr NW  Fort Walton Beach, FL 32547",
    "location": "Santa_Rosa"
  },
  {
    "name": "Junger Stanley",
    "description": "Advertising Agencies",
    "phone": "(850) 862-1234",
    "address": " 108 Akron St  Fort Walton Beach, FL 32547",
    "location": "Santa_Rosa"
  },
  {
    "name": "Cox Media",
    "description": "Advertising Agencies",
    "phone": "(866) 604-7110",
    "address": " 320 Racetrack Rd NW  Fort Walton Beach, FL 32547",
    "location": "Santa_Rosa"
  },
  {
    "name": "Petermann A-V Group",
    "description": "Advertising Agencies",
    "phone": "(850) 243-5315",
    "address": " 924 Mar Walt Dr  Fort Walton Beach, FL 32547",
    "location": "Santa_Rosa"
  },
  {
    "name": "Oxyfresh",
    "description": "Advertising Agencies",
    "phone": "(850) 651-5049",
    "address": " 155 Country Club Rd  Shalimar, FL 32579",
    "location": "Santa_Rosa"
  },
  {
    "name": "Lamar Outdoor Advertising",
    "description": "Advertising Agencies",
    "phone": "(850) 862-4343",
    "address": " 223 Green Acres Rd  Fort Walton Beach, FL 32547",
    "location": "Santa_Rosa"
  },
  {
    "name": "Petermann Agency",
    "description": "Advertising Agencies",
    "phone": "(850) 613-6313",
    "address": " 22 Sherwood Dr  Shalimar, FL 32579",
    "location": "Santa_Rosa"
  },
  {
    "name": "Cc Distributors",
    "description": "Advertising Agencies",
    "phone": "(850) 581-5977",
    "address": " 415 Independence Rd  Hurlburt Field, FL 32544",
    "location": "Santa_Rosa"
  },
  {
    "name": "D C I Marketing",
    "description": "Advertising Agencies",
    "phone": "(850) 650-6602",
    "address": " 10 Commerce Dr  Destin, FL 32541",
    "location": "Santa_Rosa"
  },
  {
    "name": "Think Advertising",
    "description": "Advertising Agencies",
    "phone": "(850) 837-3352",
    "address": " 401 Mountain Dr  Destin, FL 32541",
    "location": "Santa_Rosa"
  },
  {
    "name": "Life Essentials Plus",
    "description": "Advertising Agencies",
    "phone": "(850) 837-2307",
    "address": " 412 Spanish Moss Trl  Destin, FL 32541",
    "location": "Santa_Rosa"
  },
  {
    "name": "Twinning Pros",
    "description": "Advertising Agencies",
    "phone": "(850) 696-0906",
    "address": " 775 Gulf Shore Dr  Destin, FL 32541",
    "location": "Santa_Rosa"
  },
  {
    "name": "Papillon Publications",
    "description": "Advertising Agencies",
    "phone": "(850) 650-1710",
    "address": " 4224 Jade Loop  Destin, FL 32541",
    "location": "Santa_Rosa"
  },
  {
    "name": "Copy Systems Business Center",
    "description": "Advertising Agencies",
    "phone": "(850) 650-0886",
    "address": " 15017 Emerald Coast Pkwy  Destin, FL 32541",
    "location": "Santa_Rosa"
  },
  {
    "name": "ThriftyNickelAds.com",
    "description": "Advertising Agencies",
    "phone": "(850) 469-9712",
    "address": " 20011 Emerald Coast Pkwy  Destin, FL 32541",
    "location": "Santa_Rosa"
  },
  {
    "name": "Spigelmire, Michael",
    "description": "Advertising Agencies",
    "phone": "(850) 650-3373",
    "address": " 263 Champion Ct  Destin, FL 32541",
    "location": "Santa_Rosa"
  },
  {
    "name": "Finfrock Marketing",
    "description": "Advertising Agencies",
    "phone": "(850) 253-7466",
    "address": " 34990 Emerald Coast Pkwy Ste 321  Destin, FL 32541",
    "location": "Santa_Rosa"
  },
  {
    "name": "Ultimate Production Company",
    "description": "Advertising Agencies",
    "phone": "(850) 710-8002",
    "address": " 34990 Emerald Coast Parkway Suite 332  Destin, FL 32541",
    "location": "Santa_Rosa"
  },
  {
    "name": "Financial Marketing Inc",
    "description": "Advertising Agencies",
    "phone": "(850) 654-1200",
    "address": " 4481 Legendary Dr  Destin, FL 32541",
    "location": "Santa_Rosa"
  }
]
