[
  {
    "name": "KDM Design & Marketing Inc",
    "description": "Advertising Agencies",
    "phone": "(727) 344-2026",
    "address": " 9855 59th Ave N  Saint Petersburg, FL 33708",
    "location": "Seminole"
  },
  {
    "name": "My Marketing Department, Inc",
    "description": "Advertising Agencies",
    "phone": "(727) 888-1200",
    "address": " 7777 131st St Ste 9  Seminole, FL 33776",
    "location": "Seminole"
  },
  {
    "name": "Blue Atlas Marketing",
    "description": "Advertising Agencies",
    "phone": "(855) 755-6225",
    "address": " 13721 88th Ave  Seminole, FL 33776",
    "location": "Seminole"
  },
  {
    "name": "Ts Concepts Group",
    "description": "Advertising Agencies",
    "phone": "(727) 369-8060",
    "address": " 8666 Seminole Blvd  Seminole, FL 33772",
    "location": "Seminole"
  },
  {
    "name": "A -Direct Advertising Specialty Company",
    "description": "Advertising Agencies",
    "phone": "(727) 398-1000",
    "address": " 8950 Seminole Blvd  Seminole, FL 33772",
    "location": "Seminole"
  },
  {
    "name": "The E Factory",
    "description": "Advertising Agencies",
    "phone": "(727) 319-4459",
    "address": " 10575 68th Ave  Seminole, FL 33772",
    "location": "Seminole"
  },
  {
    "name": "Exceltech Of Pinellas Inc",
    "description": "Advertising Agencies",
    "phone": "(727) 397-1769",
    "address": " 9405 94th St  Seminole, FL 33777",
    "location": "Seminole"
  },
  {
    "name": "Miraclemedia",
    "description": "Advertising Agencies",
    "phone": "(727) 397-3817",
    "address": " 13800 Park Blvd  Seminole, FL 33776",
    "location": "Seminole"
  },
  {
    "name": "JMK Solutions Inc",
    "description": "Advertising Agencies",
    "phone": "(727) 595-7613",
    "address": " 13790 87th Pl  Seminole, FL 33776",
    "location": "Seminole"
  },
  {
    "name": "Nancy Walker",
    "description": "Advertising Agencies",
    "phone": "(727) 596-8780",
    "address": " 9925 136th St  Seminole, FL 33776",
    "location": "Seminole"
  },
  {
    "name": "The Jingle Writer",
    "description": "Advertising Agencies",
    "phone": "(727) 224-1791",
    "address": " 11125 Park Blvd  Seminole, FL 33772",
    "location": "Seminole"
  },
  {
    "name": "BizBlueprint",
    "description": "Advertising Agencies",
    "phone": "(877) 632-1888",
    "address": " 8998 Seminole Blvd  Seminole, FL 33772",
    "location": "Seminole"
  },
  {
    "name": "Extreme Signage",
    "description": "Graphic Designers",
    "phone": "(727) 279-7446",
    "address": " 10525 Park Blvd  Seminole, FL 33772",
    "location": "Seminole"
  },
  {
    "name": "Sapphire Signs",
    "description": "Signs",
    "phone": "(727) 393-4543",
    "address": " 6875 Seminole Blvd  Seminole, FL 33772",
    "location": "Seminole"
  },
  {
    "name": "A Sign X-Press Inc",
    "description": "Signs",
    "phone": "(727) 541-5573",
    "address": " 10831 Canal St  Seminole, FL 33777",
    "location": "Seminole"
  },
  {
    "name": "KDM Design & Marketing",
    "description": "Internet Marketing & Advertising",
    "phone": "(727) 344-2026",
    "address": " 9855 59th AVE N  Saint Petersburg, FL 33708",
    "location": "Seminole"
  },
  {
    "name": "Primenet Direct Marketing Solutions",
    "description": "Direct Mail Advertising",
    "phone": "(727) 447-6245",
    "address": " 7320 Bryan Dairy Rd  Seminole, FL 33777",
    "location": "Seminole"
  },
  {
    "name": "Xanjero",
    "description": "Internet Marketing & Advertising",
    "phone": "(727) 421-8770",
    "address": " 11125 Park Blvd Ste 104-327  Seminole, FL 33772",
    "location": "Seminole"
  },
  {
    "name": "Wilde Ideas Web Design & Development",
    "description": "Internet Consultants",
    "phone": "(727) 888-3801",
    "address": " 8990 Seminole Blvd  Seminole, FL 33772",
    "location": "Seminole"
  },
  {
    "name": "OrangeTheory",
    "description": "Internet Marketing & Advertising",
    "phone": "(727) 378-9020",
    "address": " 7600 Bryan Dairy Rd Suite B.  Seminole, FL 33777",
    "location": "Seminole"
  },
  {
    "name": "Hit Promotional Products, Inc.",
    "description": "Advertising Specialties",
    "phone": "(727) 541-5561",
    "address": " 7150 Bryan Dairy Rd  Seminole, FL 33777",
    "location": "Seminole"
  },
  {
    "name": "Preferred Custom Printing",
    "description": "T-Shirts-Wholesale & Manufacturers",
    "phone": "(727) 443-1900",
    "address": " 7000 Bryan Dairy Rd  Seminole, FL 33777",
    "location": "Seminole"
  },
  {
    "name": "International Linear Matrix",
    "description": "Signs",
    "phone": "(727) 549-1808",
    "address": " 10821 Canal St  Seminole, FL 33777",
    "location": "Seminole"
  },
  {
    "name": "Fantastic Coupons Inc",
    "description": "Direct Mail Advertising",
    "phone": "(727) 392-4919",
    "address": " 10090 Seminole Blvd  Seminole, FL 33772",
    "location": "Seminole"
  },
  {
    "name": "Xanjero Media",
    "description": "Copy Writers",
    "phone": "(727) 421-8770",
    "address": " 9209 Seminole Blvd  Seminole, FL 33772",
    "location": "Seminole"
  },
  {
    "name": "Trade Languages",
    "description": "International Trade Consultants",
    "phone": "(727) 244-5409",
    "address": " 14539 Red Bird Ct  Seminole, FL 33776",
    "location": "Seminole"
  },
  {
    "name": "Avalon Sign Solutions",
    "description": "Signs",
    "phone": "(727) 398-6126",
    "address": " 11125 Park Blvd  Seminole, FL 33772",
    "location": "Seminole"
  },
  {
    "name": "Sound Branding Ideas",
    "description": "Advertising Specialties",
    "phone": "(727) 224-1791",
    "address": " 11125 Park Blvd  Seminole, FL 33772",
    "location": "Seminole"
  },
  {
    "name": "ADALENSES.COM",
    "description": "Signs",
    "phone": "(727) 265-1232",
    "address": " 6203 Columns Cir  Seminole, FL 33772",
    "location": "Seminole"
  },
  {
    "name": "Southern Image",
    "description": "Screen Printing",
    "phone": "(727) 391-7089",
    "address": " 10590 66th Ave  Seminole, FL 33772",
    "location": "Seminole"
  }
]
