[
  {
    "name": "Fable Heart Media",
    "description": "Advertising Agencies",
    "phone": "(904) 479-1472",
    "address": " 255 Rivertown Shops Dr Ste 102 PMB 126  Saint Johns, FL 32259",
    "location": "St._Johns"
  },
  {
    "name": "Creative Ad Design Inc",
    "description": "Advertising Agencies",
    "phone": "(904) 696-2391",
    "address": " 627 Rothmoor Ln  Saint Johns, FL 32259",
    "location": "St._Johns"
  },
  {
    "name": "Chalmers Advertising & Design",
    "description": "Advertising Agencies",
    "phone": "(772) 334-7744",
    "address": " 188 Leese Dr  Saint Johns, FL 32259",
    "location": "St._Johns"
  },
  {
    "name": "Xsite Digital, Inc.",
    "description": "Advertising Agencies",
    "phone": "(904) 477-3667",
    "address": " 549 Dandelion Dr  Saint Johns, FL 32259",
    "location": "St._Johns"
  },
  {
    "name": "Media Pros",
    "description": "Advertising Agencies",
    "phone": "(904) 217-7916",
    "address": " 297 Bell Branch Ln  Saint Johns, FL 32259",
    "location": "St._Johns"
  },
  {
    "name": "Centerstage Productions Video",
    "description": "Advertising Agencies",
    "phone": "(904) 996-0066",
    "address": " 505 Tupelo Trce  Saint Johns, FL 32259",
    "location": "St._Johns"
  },
  {
    "name": "Signal Staff",
    "description": "Advertising Agencies",
    "phone": "(904) 770-2185",
    "address": " 609 Grand Parke Dr  Saint Johns, FL 32259",
    "location": "St._Johns"
  },
  {
    "name": "Creative Marketing Concpets",
    "description": "Advertising Agencies",
    "phone": "(904) 347-3088",
    "address": " 2220 County Road 210 W  Saint Johns, FL 32259",
    "location": "St._Johns"
  },
  {
    "name": "Smart Card Co",
    "description": "Advertising Agencies",
    "phone": "(904) 374-5188",
    "address": " 865 S Black Cherry Dr  Saint Johns, FL 32259",
    "location": "St._Johns"
  },
  {
    "name": "DRIVEN2WIN",
    "description": "Advertising Agencies",
    "phone": "(904) 638-7200",
    "address": " 450 State Road 13 Ste 106  Saint Johns, FL 32259",
    "location": "St._Johns"
  },
  {
    "name": "Merkley Marketing Group",
    "description": "Advertising Agencies",
    "phone": "(904) 217-3430",
    "address": " 357 Maplewood Dr  Saint Johns, FL 32259",
    "location": "St._Johns"
  },
  {
    "name": "Print-A-Shirt custom t-shirts of Jacksonville",
    "description": "T-Shirts",
    "phone": "(904) 297-8337",
    "address": " 726 State Road 13  Saint Johns, FL 32259",
    "location": "St._Johns"
  },
  {
    "name": "BEST VIEW SIGNS INC",
    "description": "Signs",
    "phone": "(779) 435-9161",
    "address": " 1194 Eagle Bluff Ln  Saint Johns, FL 32259",
    "location": "St._Johns"
  },
  {
    "name": "Sundancer Sign Graphics Inc",
    "description": "Signs",
    "phone": "(904) 287-4949",
    "address": " 1216 Creek Bend Rd  Saint Johns, FL 32259",
    "location": "St._Johns"
  },
  {
    "name": "Howell Signs",
    "description": "Signs",
    "phone": "(904) 287-7549",
    "address": " 430 Fruit Cove Rd  Saint Johns, FL 32259",
    "location": "St._Johns"
  },
  {
    "name": "Lists",
    "description": "Mailing Lists",
    "phone": "(904) 660-0596",
    "address": " 1820 State Road 13 N  Saint Johns, FL 32259",
    "location": "St._Johns"
  },
  {
    "name": "Designasaur",
    "description": "Advertising Agencies",
    "phone": "(817) 442-5353",
    "address": " 320 Glenneyre Cir  Saint Augustine, FL 32092",
    "location": "St._Johns"
  },
  {
    "name": "Embroidery Authority",
    "description": "Embroidery",
    "phone": "(904) 343-3311",
    "address": " 391 S Hampton Club Way  Saint Augustine, FL 32092",
    "location": "St._Johns"
  },
  {
    "name": "Victory Graphics Sign Co",
    "description": "Signs",
    "phone": "(904) 210-6579",
    "address": " 7146 Tarpon Ct  Fleming Island, FL 32003",
    "location": "St._Johns"
  },
  {
    "name": "enCode",
    "description": "Incentive Programs",
    "phone": "(904) 501-3042",
    "address": " Po Box 600534  Jacksonville, FL 32260",
    "location": "St._Johns"
  },
  {
    "name": "Paypercallus",
    "description": "Advertising Specialties",
    "phone": "(630) 936-7112",
    "address": " 185 Celtic Wedding Dr  Jacksonville, FL 32259",
    "location": "St._Johns"
  }
]
