[
  {
    "name": "Sign Design",
    "description": "Signs",
    "phone": "(772) 466-4691",
    "address": " 2303 N Us Highway 1 Ste 12  Fort Pierce, FL 34946",
    "location": "St._Lucie"
  },
  {
    "name": "Glomaster Sign Co. Inc.",
    "description": "Signs-Erectors & Hangers",
    "phone": "(772) 464-0718",
    "address": " 3311 Industrial 25th St  Fort Pierce, FL 34946",
    "location": "St._Lucie"
  },
  {
    "name": "Ccibuildings.com",
    "description": "Internet Marketing & Advertising",
    "phone": "(772) 318-6700",
    "address": " 6099 N Us  Fort Pierce, FL 34946",
    "location": "St._Lucie"
  },
  {
    "name": "Sunrise City Signs",
    "description": "Advertising Specialties",
    "phone": "(772) 466-1889",
    "address": " 9 Fishermans Wharf  Fort Pierce, FL 34950",
    "location": "St._Lucie"
  },
  {
    "name": "Glomaster Sign Co",
    "description": "Signs-Erectors & Hangers",
    "phone": "(772) 242-5238",
    "address": " 2527 Okeechobee Rd  Fort Pierce, FL 34947",
    "location": "St._Lucie"
  },
  {
    "name": "Thomas Stift",
    "description": "Advertising Agencies",
    "phone": "(772) 672-4314",
    "address": " 1002 Seaway Dr  Fort Pierce, FL 34949",
    "location": "St._Lucie"
  },
  {
    "name": "Leverage Marketing Enterprises",
    "description": "Advertising Agencies",
    "phone": "(772) 577-6467",
    "address": " 200 S Indian River Dr Ste 309  Fort Pierce, FL 34950",
    "location": "St._Lucie"
  },
  {
    "name": "Ditch Diggers Inc",
    "description": "Advertising Agencies",
    "phone": "(772) 461-5656",
    "address": " 1501 S 31st St  Fort Pierce, FL 34947",
    "location": "St._Lucie"
  },
  {
    "name": "RPW Sales Inc",
    "description": "Advertising Agencies",
    "phone": "(772) 287-9454",
    "address": " 7370 Commercial Cir  Fort Pierce, FL 34951",
    "location": "St._Lucie"
  },
  {
    "name": "Pirate Advertising",
    "description": "Advertising Agencies",
    "phone": "(321) 300-6775",
    "address": " 131 N 2nd St Ste 208  Fort Pierce, FL 34950",
    "location": "St._Lucie"
  },
  {
    "name": "Media Giant Design",
    "description": "Advertising Agencies",
    "phone": "(772) 205-3584",
    "address": " 108 N Depot Dr  Fort Pierce, FL 34950",
    "location": "St._Lucie"
  },
  {
    "name": "Website Management Plus",
    "description": "Advertising Agencies",
    "phone": "(772) 405-7230",
    "address": " 131 N 2nd St  Fort Pierce, FL 34950",
    "location": "St._Lucie"
  },
  {
    "name": "Blue Creek Digital",
    "description": "Web Site Design & Services",
    "phone": "(561) 203-3847",
    "address": " 130 S Indian River Dr Ste 202  Fort Pierce, FL 34950",
    "location": "St._Lucie"
  },
  {
    "name": "McCain Sales Co",
    "description": "Signs",
    "phone": "(772) 461-0665",
    "address": " 3001 Orange Ave  Fort Pierce, FL 34947",
    "location": "St._Lucie"
  },
  {
    "name": "Ballylhou",
    "description": "Marketing Programs & Services",
    "phone": "(772) 242-8484",
    "address": " 4995 Conley Pl  Fort Pierce, FL 34951",
    "location": "St._Lucie"
  },
  {
    "name": "Indian River Direct",
    "description": "Direct Mail Advertising",
    "phone": "(772) 466-9227",
    "address": " 244 Bimini Dr  Hutchinson Island, FL 34949",
    "location": "St._Lucie"
  },
  {
    "name": "1 Stop Mail",
    "description": "Direct Mail Advertising",
    "phone": "(772) 882-4061",
    "address": " 3215 S US Highway 1  Fort Pierce, FL 34982",
    "location": "St._Lucie"
  },
  {
    "name": "Limitless Social Media Management & Marketing",
    "description": "Internet Marketing & Advertising",
    "phone": "(772) 418-4691",
    "address": " PO Box 13662  Fort Pierce, FL 34979",
    "location": "St._Lucie"
  },
  {
    "name": "Giganticprints",
    "description": "Advertising Specialties",
    "phone": "(772) 224-1646",
    "address": " 2101 Orange Ave  Fort Pierce, FL 34950",
    "location": "St._Lucie"
  },
  {
    "name": "Sign Edge",
    "description": "Signs",
    "phone": "(772) 429-8818",
    "address": " 2101 Orange Ave  Fort Pierce, FL 34950",
    "location": "St._Lucie"
  },
  {
    "name": "Signature Signs N Lettering",
    "description": "Signs",
    "phone": "(772) 489-8824",
    "address": " 118 S Us Highway 1  Fort Pierce, FL 34950",
    "location": "St._Lucie"
  },
  {
    "name": "James Hart Dba",
    "description": "Signs",
    "phone": "(772) 464-0718",
    "address": " 2527 Okeechobee Rd  Fort Pierce, FL 34947",
    "location": "St._Lucie"
  },
  {
    "name": "Cirillo Signs",
    "description": "Signs",
    "phone": "(772) 467-9777",
    "address": " 6099 N Us Highway 1  Fort Pierce, FL 34946",
    "location": "St._Lucie"
  },
  {
    "name": "Big Lake Signs",
    "description": "Signs",
    "phone": "(863) 467-0406",
    "address": " 238 US Highway 441 SE  Okeechobee, FL 34974",
    "location": "St._Lucie"
  },
  {
    "name": "Chalmers Advertising And Design",
    "description": "Advertising Agencies",
    "phone": "(772) 334-7744",
    "address": " 67 NE Alice St  Jensen Beach, FL 34957",
    "location": "St._Lucie"
  },
  {
    "name": "Dr.one Aerial Photography",
    "description": "Wedding Photography & Videography",
    "phone": "(772) 353-4931",
    "address": " 1498 SW Hunnicut Ave  Port Saint Lucie, FL 34953",
    "location": "St._Lucie"
  },
  {
    "name": "D-signs",
    "description": "Sign Lettering",
    "phone": "(772) 247-2389",
    "address": " 911 SE Hillcrest Ave  Stuart, FL 34994",
    "location": "St._Lucie"
  },
  {
    "name": "Adam's Artworks",
    "description": "Truck Painting & Lettering",
    "phone": "(772) 291-9190",
    "address": " 5756 SW Savage St  Palm City, FL 34990",
    "location": "St._Lucie"
  }
]
