[
  {
    "name": "Bee Idea Advertising",
    "description": "Advertising Agencies",
    "phone": "(407) 351-3976",
    "address": " 7250 S Kirkman Rd  Orlando, FL 32819",
    "location": "Sumter"
  },
  {
    "name": "Chance Advertising Agency",
    "description": "Advertising Agencies",
    "phone": "(321) 946-0666",
    "address": " 803 Trailwood Dr Suite 100  Apopka, FL 32712",
    "location": "Sumter"
  },
  {
    "name": "Quantum Leap Advertising",
    "description": "Advertising Agencies",
    "phone": "(407) 396-6300",
    "address": " 7901 Kingspointe Pkwy Ste 17  Orlando, FL 32819",
    "location": "Sumter"
  },
  {
    "name": "Maxmeda Outdoor Advertising",
    "description": "Advertising Agencies",
    "phone": "(407) 716-6547",
    "address": " 847 Golfview Ter  Winter Park, FL 32789",
    "location": "Sumter"
  },
  {
    "name": "Signal Outdoor Advertising",
    "description": "Transit Advertising",
    "phone": "(407) 856-7079",
    "address": " 7616 Southland Blvd Ste 114  Orlando, FL 32809",
    "location": "Sumter"
  },
  {
    "name": "Florida Newspaper Advertising Network",
    "description": "Newspapers",
    "phone": "(407) 420-6100",
    "address": " 633 N Orange Ave  Orlando, FL 32801",
    "location": "Sumter"
  },
  {
    "name": "Kempf; Affordable Advertising",
    "description": "Marketing Consultants",
    "phone": "(407) 390-0690",
    "address": " 3217 Running Bear Way  Kissimmee, FL 34746",
    "location": "Sumter"
  },
  {
    "name": "Royall Advertising",
    "description": "Marketing Programs & Services",
    "phone": "(407) 401-7479",
    "address": " 14 E Washington St  Orlando, FL 32801",
    "location": "Sumter"
  },
  {
    "name": "Advertising In Florida",
    "description": "Internet Marketing & Advertising",
    "phone": "(407) 675-3515",
    "address": " 111 N Orange Ave, 8th Floor, Suite 800  Orlando, FL 32801",
    "location": "Sumter"
  },
  {
    "name": "Allure Advertising",
    "description": "Product Design, Development & Marketing",
    "phone": "(407) 719-4567",
    "address": " 5517 Hansel Ave Ste B  Orlando, FL 32809",
    "location": "Sumter"
  },
  {
    "name": "JKR Advertising & Marketing",
    "description": "Advertising Agencies",
    "phone": "(321) 397-0777",
    "address": " 298 S Lake Destiny Dr  Orlando, FL 32810",
    "location": "Sumter"
  },
  {
    "name": "Lawyers Group Advertising",
    "description": "Advertising Agencies",
    "phone": "(321) 972-5620",
    "address": " 2729 W Fairbanks Ave  Winter Park, FL 32789",
    "location": "Sumter"
  },
  {
    "name": "JKR Advertising & Marketings",
    "description": "Advertising Agencies",
    "phone": "(321) 397-0777",
    "address": " 195 Wekiva Springs Rd  Longwood, FL 32779",
    "location": "Sumter"
  },
  {
    "name": "Genius Advertising & Marketing",
    "description": "Advertising Agencies",
    "phone": "(407) 682-3037",
    "address": " 864 Little Bend Rd  Altamonte Springs, FL 32714",
    "location": "Sumter"
  },
  {
    "name": "Bernard Hodes Advertising Inc",
    "description": "Advertising Agencies",
    "phone": "(407) 740-5002",
    "address": " 1101 N Lake Destiny Rd Ste 300  Maitland, FL 32751",
    "location": "Sumter"
  },
  {
    "name": "Affordable Advertising Kempf",
    "description": "Advertising Agencies",
    "phone": "(407) 239-1105",
    "address": " 5300 W Irlo Bronson Memorial Hwy  Kissimmee, FL 34746",
    "location": "Sumter"
  },
  {
    "name": "Continental Outdoor Advertising",
    "description": "Outdoor Advertising",
    "phone": "(407) 628-9988",
    "address": " 2250 Lee Rd  Winter Park, FL 32789",
    "location": "Sumter"
  },
  {
    "name": "Global Advertising",
    "description": "Transit Advertising",
    "phone": "(407) 203-5812",
    "address": " 1707 Orlando Central Pkwy Ste 430  Orlando, FL 32809",
    "location": "Sumter"
  },
  {
    "name": "VCI & Associates Advertising",
    "description": "Vacation Time Sharing Plans",
    "phone": "(866) 678-3204",
    "address": " 37 N Orange Ave Ste 617  Orlando, FL 32801",
    "location": "Sumter"
  },
  {
    "name": "Aura Advertising and Modeling Agency",
    "description": "Advertising Agencies",
    "phone": "(321) 230-9751",
    "address": " 37 N Orange Ave Ste 500  Orlando, FL 32801",
    "location": "Sumter"
  },
  {
    "name": "Higher Advertising & Pr Inc",
    "description": "Advertising Specialties",
    "phone": "(407) 447-1340",
    "address": " 30 S Magnolia Ave Ste 250  Orlando, FL 32801",
    "location": "Sumter"
  },
  {
    "name": "Kelso Outdoor Advertising",
    "description": "Transit Advertising",
    "phone": "(407) 648-7001",
    "address": " 212 Pasadena Pl  Orlando, FL 32803",
    "location": "Sumter"
  },
  {
    "name": "Jackson Advertising Inc",
    "description": "Advertising Agencies",
    "phone": "(407) 849-9995",
    "address": " 912 Highland Ave  Orlando, FL 32803",
    "location": "Sumter"
  },
  {
    "name": "Creative Advertising Network",
    "description": "Advertising Agencies",
    "phone": "(407) 210-6566",
    "address": " 301 E Pine St  Orlando, FL 32801",
    "location": "Sumter"
  },
  {
    "name": "Frank Murphy Advertising",
    "description": "Outdoor Advertising",
    "phone": "(407) 539-2771",
    "address": " 9029 Lake Hope Dr  Maitland, FL 32751",
    "location": "Sumter"
  },
  {
    "name": "Dayner Hall Marketing & Advertising",
    "description": "Advertising Agencies",
    "phone": "(407) 206-1630",
    "address": " 621 E Pine St  Orlando, FL 32801",
    "location": "Sumter"
  },
  {
    "name": "CGS Advertising Group Inc",
    "description": "Advertising Agencies",
    "phone": "(407) 316-8070",
    "address": " 1212 Mount Vernon St  Orlando, FL 32803",
    "location": "Sumter"
  },
  {
    "name": "Stalder Green Advertising",
    "description": "Advertising Agencies",
    "phone": "(407) 645-1113",
    "address": " 1101 N Kentucky Ave  Winter Park, FL 32789",
    "location": "Sumter"
  },
  {
    "name": "Gillman Advertising Specialties",
    "description": "Advertising Specialties",
    "phone": "(407) 331-5111",
    "address": " 498 Palm Springs Dr Ste 350  Altamonte Springs, FL 32701",
    "location": "Sumter"
  },
  {
    "name": "WHOISCARRUS Advertising",
    "description": "Advertising Agencies",
    "phone": "(407) 477-2528",
    "address": " 416 N Ferncreek Ave Ste A  Orlando, FL 32803",
    "location": "Sumter"
  }
]
