[
  {
    "name": "B4 Signs",
    "description": "Signs",
    "phone": "(352) 507-7100",
    "address": " 118 E Park Ave  Chiefland, FL 32626",
    "location": "Suwannee"
  },
  {
    "name": "Deberry Marketing Services",
    "description": "Internet Marketing & Advertising",
    "phone": "(352) 507-7033",
    "address": " 116 E Park Ave  Chiefland, FL 32626",
    "location": "Suwannee"
  },
  {
    "name": "Flpolebarns.com",
    "description": "Internet Marketing & Advertising",
    "phone": "(352) 727-0461",
    "address": " 4033 SW Highway 358  Steinhatchee, FL 32359",
    "location": "Suwannee"
  },
  {
    "name": "Social Planning, Inc.",
    "description": "Web Site Design & Services",
    "phone": "(352) 317-3565",
    "address": " 717 3rd St W  Steinhatchee, FL 32359",
    "location": "Suwannee"
  },
  {
    "name": "The Print Shop of Chiefland Inc",
    "description": "Digital Printing & Imaging",
    "phone": "(352) 493-0322",
    "address": " 224 N Main St  Chiefland, FL 32626",
    "location": "Suwannee"
  },
  {
    "name": "The Print Shop of Chiefland, Inc",
    "description": "Screen Printing",
    "phone": "(352) 493-0322",
    "address": " 1517 N Young Blvd  Chiefland, FL 32626",
    "location": "Suwannee"
  },
  {
    "name": "Suwannee River Woods",
    "description": "Signs",
    "phone": "(352) 493-1363",
    "address": " 14990 NW Highway 19  Chiefland, FL 32626",
    "location": "Suwannee"
  },
  {
    "name": "Hajar Associates",
    "description": "Advertising Agencies",
    "phone": "(352) 563-5264",
    "address": " 10385 N Dauphine Ter  Dunnellon, FL 34433",
    "location": "Suwannee"
  },
  {
    "name": "Ultradot Distribution",
    "description": "Advertising Agencies",
    "phone": "(352) 447-2255",
    "address": " 6302 Riverside Dr  Yankeetown, FL 34498",
    "location": "Suwannee"
  },
  {
    "name": "Sign-Man Signs",
    "description": "Advertising Specialties",
    "phone": "(352) 529-2600",
    "address": " 1890 SW 18th Ave  Williston, FL 32696",
    "location": "Suwannee"
  },
  {
    "name": "Easy As Services",
    "description": "Printing Services",
    "phone": "(352) 486-9057",
    "address": " 760 E Hathaway Ave  Bronson, FL 32621",
    "location": "Suwannee"
  },
  {
    "name": "B4 Signs & Advertising",
    "description": "Signs",
    "phone": "(352) 601-1288",
    "address": " 230 SE Highway 41  Williston, FL 32696",
    "location": "Suwannee"
  },
  {
    "name": "Airsign, Inc.",
    "description": "Outdoor Advertising",
    "phone": "(888) 645-3442",
    "address": " 12 NW 5th Pl  Williston, FL 32696",
    "location": "Suwannee"
  }
]
