[
  {
    "name": "Moro Advertising Solutions",
    "description": "Advertising Agencies",
    "phone": "(305) 681-2252",
    "address": " 545 NW 129th St  North Miami, FL 33168",
    "location": "Taylor"
  },
  {
    "name": "Rodriguez, Jose",
    "description": "Advertising Agencies",
    "phone": "(305) 751-3144",
    "address": " 45 NW 119th St  Miami, FL 33168",
    "location": "Taylor"
  },
  {
    "name": "Poetic Akhu",
    "description": "Advertising Agencies",
    "phone": "(786) 253-5612",
    "address": " 540 NW 165th Street Rd  Miami, FL 33169",
    "location": "Taylor"
  },
  {
    "name": "Square One Branding",
    "description": "Advertising Agencies",
    "phone": "(786) 552-6343",
    "address": " 8201 Coral Way  Miami, FL 33155",
    "location": "Taylor"
  },
  {
    "name": "Castingland Miami",
    "description": "Advertising Agencies",
    "phone": "(786) 542-0500",
    "address": " 475 NE 123rd St  North Miami, FL 33161",
    "location": "Taylor"
  },
  {
    "name": "Star Town Plus",
    "description": "Advertising Agencies",
    "phone": "(305) 758-7433",
    "address": " 12010 N Miami Ave  North Miami, FL 33168",
    "location": "Taylor"
  },
  {
    "name": "Hunter-Hamersmith & Associates Advertising Inc",
    "description": "Advertising Agencies",
    "phone": "(305) 895-3492",
    "address": " 725 NE 125th St  North Miami, FL 33161",
    "location": "Taylor"
  },
  {
    "name": "HH Advertising Inc",
    "description": "Advertising Agencies",
    "phone": "(305) 895-8430",
    "address": " 725 NE 125th St  North Miami, FL 33161",
    "location": "Taylor"
  },
  {
    "name": "Haitian American Leadership",
    "description": "Advertising Agencies",
    "phone": "(786) 953-4041",
    "address": " 12811 W Dixie Hwy  North Miami, FL 33161",
    "location": "Taylor"
  },
  {
    "name": "T D I",
    "description": "Advertising Agencies",
    "phone": "(305) 622-2877",
    "address": " 1570 NW 165th St  Miami, FL 33169",
    "location": "Taylor"
  },
  {
    "name": "Afrovisions Pr Advertising Inc",
    "description": "Advertising Agencies",
    "phone": "(305) 949-8239",
    "address": " 1348 NE 147th St  Miami, FL 33161",
    "location": "Taylor"
  },
  {
    "name": "Lloyds Bushel & Associates Corp",
    "description": "Advertising Agencies",
    "phone": "(305) 981-2353",
    "address": " 11098 Biscayne Blvd  Miami, FL 33161",
    "location": "Taylor"
  },
  {
    "name": "Mediatech",
    "description": "Advertising Agencies",
    "phone": "(305) 757-4900",
    "address": " 9999 NE 2nd Ave  Miami Shores, FL 33138",
    "location": "Taylor"
  },
  {
    "name": "Armand",
    "description": "Advertising Agencies",
    "phone": "(844) 996-6337",
    "address": " 9600 NE 2nd Ave  Miami Shores, FL 33138",
    "location": "Taylor"
  },
  {
    "name": "Cre8ive Juice Group",
    "description": "Advertising Agencies",
    "phone": "(786) 360-3221",
    "address": " 9620 NE 2nd Ave  Miami Shores, FL 33138",
    "location": "Taylor"
  },
  {
    "name": "Stanson Group",
    "description": "Advertising Agencies",
    "phone": "(305) 456-3854",
    "address": " 9526 NE 2nd Ave  Miami Shores, FL 33138",
    "location": "Taylor"
  },
  {
    "name": "Tropic Survival Advertising & Marketing",
    "description": "Advertising Agencies",
    "phone": "(305) 899-7229",
    "address": " 1125 NE 125th St Ste 400  North Miami, FL 33161",
    "location": "Taylor"
  },
  {
    "name": "Generation E",
    "description": "Advertising Agencies",
    "phone": "(315) 871-7273",
    "address": " 555 NW 87th St  El Portal, FL 33150",
    "location": "Taylor"
  },
  {
    "name": "Red Throne Productions LLC",
    "description": "Advertising Agencies",
    "phone": "(954) 670-7889",
    "address": " 12450 NW 38th Ave  Opa Locka, FL 33054",
    "location": "Taylor"
  },
  {
    "name": "I Hostthm.Com",
    "description": "Advertising Agencies",
    "phone": "(305) 891-7322",
    "address": " 14260 NE 12th Ave  North Miami, FL 33161",
    "location": "Taylor"
  },
  {
    "name": "Executive Digital",
    "description": "Advertising Agencies",
    "phone": "(786) 391-2945",
    "address": " 9325 NE 6th Ave  Miami Shores, FL 33138",
    "location": "Taylor"
  },
  {
    "name": "The Dautel Group",
    "description": "Advertising Agencies",
    "phone": "(561) 203-5509",
    "address": " 9190 Biscayne Blvd Ste 201  Miami Shores, FL 33138",
    "location": "Taylor"
  },
  {
    "name": "Advertising Updated Inc",
    "description": "Advertising Agencies",
    "phone": "(305) 944-6718",
    "address": " 1248 NE 154th St  North Miami Beach, FL 33162",
    "location": "Taylor"
  },
  {
    "name": "Walter Vision Productions Inc",
    "description": "Advertising Agencies",
    "phone": "(305) 572-9313",
    "address": " 801 NE 167th St  North Miami Beach, FL 33162",
    "location": "Taylor"
  },
  {
    "name": "Anc Communications",
    "description": "Advertising Agencies",
    "phone": "(305) 646-1770",
    "address": " 1000 Quayside Ter  Miami, FL 33138",
    "location": "Taylor"
  },
  {
    "name": "Eterpro",
    "description": "Advertising Agencies",
    "phone": "(305) 529-3641",
    "address": " 4000 Towerside Ter  Miami, FL 33138",
    "location": "Taylor"
  },
  {
    "name": "Latamer Trading Co Inc",
    "description": "Advertising Agencies",
    "phone": "(305) 891-5638",
    "address": " 4000 Towerside Ter  Miami, FL 33138",
    "location": "Taylor"
  },
  {
    "name": "Got It Newspaper",
    "description": "Advertising Agencies",
    "phone": "(954) 839-7502",
    "address": " 18350 nw 2nd Ave  Miami, FL 33169",
    "location": "Taylor"
  },
  {
    "name": "Highleveladvertising",
    "description": "Advertising Agencies",
    "phone": "(954) 625-9123",
    "address": " 111 NW 183rd St Ste 302  Miami, FL 33169",
    "location": "Taylor"
  },
  {
    "name": "Mike Davis Consultant PA",
    "description": "Advertising Agencies",
    "phone": "(305) 974-4549",
    "address": " 99 NW 183rd St  Miami, FL 33169",
    "location": "Taylor"
  },
  {
    "name": "Metellus Inc",
    "description": "Advertising Agencies",
    "phone": "(305) 974-4857",
    "address": " 99 NW 183rd St  Miami, FL 33169",
    "location": "Taylor"
  },
  {
    "name": "Family Matters",
    "description": "Advertising Agencies",
    "phone": "(786) 520-4255",
    "address": " 99 NW 183rd St  Miami, FL 33169",
    "location": "Taylor"
  },
  {
    "name": "Creative State",
    "description": "Advertising Agencies",
    "phone": "(305) 504-8877",
    "address": " 156 NW 73rd St  Miami, FL 33150",
    "location": "Taylor"
  },
  {
    "name": "Marlite Inc",
    "description": "Advertising Agencies",
    "phone": "(305) 655-3520",
    "address": " 300 NE 183rd St  Miami, FL 33179",
    "location": "Taylor"
  },
  {
    "name": "Aikiu",
    "description": "Advertising Agencies",
    "phone": "(305) 229-5093",
    "address": " 7636 NE 4th Ct  Miami, FL 33138",
    "location": "Taylor"
  },
  {
    "name": "The LED City",
    "description": "Advertising Agencies",
    "phone": "(786) 744-3050",
    "address": " 1943 NE 148th St  Miami, FL 33181",
    "location": "Taylor"
  },
  {
    "name": "Conway & Partners",
    "description": "Advertising Agencies",
    "phone": "(305) 420-5090",
    "address": " 7261 NE 4th Ave  Miami, FL 33138",
    "location": "Taylor"
  },
  {
    "name": "Wikot",
    "description": "Advertising Agencies",
    "phone": "(786) 615-3232",
    "address": " 7300 Biscayne Blvd  Miami, FL 33138",
    "location": "Taylor"
  },
  {
    "name": "The Community",
    "description": "Advertising Agencies",
    "phone": "(786) 452-9341",
    "address": " 7300 Biscayne Blvd  Miami, FL 33138",
    "location": "Taylor"
  },
  {
    "name": "Www.Exhibitdeal.Com",
    "description": "Advertising Agencies",
    "phone": "(310) 899-1257",
    "address": " 18502 NE 5th Ave  Miami, FL 33179",
    "location": "Taylor"
  },
  {
    "name": "TSR Inc",
    "description": "Advertising Agencies",
    "phone": "(305) 696-6634",
    "address": " 7000 NW 32nd Ave  Miami, FL 33147",
    "location": "Taylor"
  },
  {
    "name": "Zoom IQ Inc",
    "description": "Advertising Agencies",
    "phone": "(305) 604-0006",
    "address": " 6815 Biscayne Blvd  Miami, FL 33138",
    "location": "Taylor"
  },
  {
    "name": "Pierson Distributors",
    "description": "Advertising Agencies",
    "phone": "(305) 757-7474",
    "address": " 1145 Belle Meade Island Dr  Miami, FL 33138",
    "location": "Taylor"
  },
  {
    "name": "Martinez & Fernandez",
    "description": "Advertising Agencies",
    "phone": "(305) 558-6555",
    "address": " 11900 Biscayne Blvd  North Miami, FL 33181",
    "location": "Taylor"
  },
  {
    "name": "Media Department II",
    "description": "Advertising Agencies",
    "phone": "(305) 892-5272",
    "address": " 12000 Biscayne Blvd  North Miami, FL 33181",
    "location": "Taylor"
  },
  {
    "name": "Infinite Market Agency",
    "description": "Advertising Agencies",
    "phone": "(305) 849-9117",
    "address": " 16401 NW 37th Ave  Opa Locka, FL 33054",
    "location": "Taylor"
  },
  {
    "name": "GLG Projects Intergration",
    "description": "Advertising Agencies",
    "phone": "(305) 892-7152",
    "address": " 12550 Biscayne Blvd Ste 311  North Miami, FL 33181",
    "location": "Taylor"
  },
  {
    "name": "Miami Offshore Service",
    "description": "Advertising Agencies",
    "phone": "(786) 472-1889",
    "address": " 12555 Biscayne Blvd  North Miami, FL 33181",
    "location": "Taylor"
  },
  {
    "name": "Behr Advertising, Inc.",
    "description": "Advertising Agencies",
    "phone": "(305) 674-8406",
    "address": " 1801 NE 123rd St Ste 314  North Miami, FL 33181",
    "location": "Taylor"
  },
  {
    "name": "Green Dot Advertising",
    "description": "Advertising Agencies",
    "phone": "(305) 674-8406",
    "address": " 1801 NE 123rd St  North Miami, FL 33181",
    "location": "Taylor"
  },
  {
    "name": "Keyes Martin & Gaby",
    "description": "Advertising Agencies",
    "phone": "(305) 702-6386",
    "address": " 13899 Biscayne Blvd  North Miami Beach, FL 33181",
    "location": "Taylor"
  },
  {
    "name": "Ad-Pros Group",
    "description": "Advertising Agencies",
    "phone": "(305) 956-9906",
    "address": " 1810 NE 153rd St  North Miami Beach, FL 33162",
    "location": "Taylor"
  },
  {
    "name": "Mak Media",
    "description": "Advertising Agencies",
    "phone": "(305) 956-9563",
    "address": " 15050 NE 20th Ave Ste 101  North Miami, FL 33181",
    "location": "Taylor"
  },
  {
    "name": "Beber Silverstein Group",
    "description": "Advertising Agencies",
    "phone": "(305) 856-9800",
    "address": " 89 NE 27th St  Miami, FL 33137",
    "location": "Taylor"
  },
  {
    "name": "Rabinovici And Assoc",
    "description": "Advertising Agencies",
    "phone": "(305) 655-0021",
    "address": " 20815 NE 16th Ave  Miami, FL 33179",
    "location": "Taylor"
  },
  {
    "name": "Brain Switch Advertising",
    "description": "Advertising Agencies",
    "phone": "(305) 576-1415",
    "address": " 250 NW 23rd St  Miami, FL 33127",
    "location": "Taylor"
  },
  {
    "name": "The Badimon Group",
    "description": "Advertising Agencies",
    "phone": "(305) 785-8511",
    "address": " 2971 NE 185th St APT 1906  Miami, FL 33180",
    "location": "Taylor"
  },
  {
    "name": "C-Com Group, Inc",
    "description": "Advertising Agencies",
    "phone": "(305) 447-4015",
    "address": " 6380 NE 4th Ave  Miami, FL 33138",
    "location": "Taylor"
  },
  {
    "name": "La Comunidad Corp",
    "description": "Advertising Agencies",
    "phone": "(305) 865-9600",
    "address": " 6400 Biscayne Blvd  Miami, FL 33138",
    "location": "Taylor"
  },
  {
    "name": "Brett Goldstein",
    "description": "Advertising Agencies",
    "phone": "(329) 204-0320",
    "address": " 6445 NE 7th Ave Apt 416N  Miami, FL 33138",
    "location": "Taylor"
  },
  {
    "name": "Sharp & Company",
    "description": "Advertising Agencies",
    "phone": "(305) 751-4451",
    "address": " 5617 NW 7th Ave  Miami, FL 33127",
    "location": "Taylor"
  },
  {
    "name": "The Community Agency",
    "description": "Advertising Agencies",
    "phone": "(305) 865-9600",
    "address": " 6300 Biscayne Blvd  Miami, FL 33138",
    "location": "Taylor"
  },
  {
    "name": "Maax And Company",
    "description": "Advertising Agencies",
    "phone": "(305) 999-9721",
    "address": " 190 NE 199th St  Miami, FL 33179",
    "location": "Taylor"
  },
  {
    "name": "Linder Consulting Group",
    "description": "Advertising Agencies",
    "phone": "(305) 956-9725",
    "address": " 1551 NE Miami Gardens Dr  Miami, FL 33179",
    "location": "Taylor"
  },
  {
    "name": "Saggio International Bus Sltns",
    "description": "Advertising Agencies",
    "phone": "(786) 440-5275",
    "address": " 20295 NW 2nd Ave  Miami, FL 33169",
    "location": "Taylor"
  },
  {
    "name": "Opg Media Advertising Inc",
    "description": "Advertising Agencies",
    "phone": "(786) 704-1401",
    "address": " 5305 NW 2nd Ave  Miami, FL 33127",
    "location": "Taylor"
  },
  {
    "name": "Green DOT Advertsing",
    "description": "Advertising Agencies",
    "phone": "(305) 674-8406",
    "address": " 5400 NE 4th Ct Ste 3  Miami, FL 33137",
    "location": "Taylor"
  },
  {
    "name": "Mobile Billboard Miami",
    "description": "Advertising Agencies",
    "phone": "(305) 814-5880",
    "address": " 19820 NE 10th Ct  Miami, FL 33179",
    "location": "Taylor"
  },
  {
    "name": "Produ",
    "description": "Advertising Agencies",
    "phone": "(305) 256-6774",
    "address": " 4256 NW 7th Ave  Miami, FL 33127",
    "location": "Taylor"
  },
  {
    "name": "A S R O M Tech",
    "description": "Advertising Agencies",
    "phone": "(786) 520-4455",
    "address": " 75 NE 211th St  Miami, FL 33179",
    "location": "Taylor"
  },
  {
    "name": "Zebra Advertisement",
    "description": "Advertising Agencies",
    "phone": "(305) 974-4204",
    "address": " 1021 Ives Dairy Rd Ste 212  Miami, FL 33179",
    "location": "Taylor"
  },
  {
    "name": "Michael Szucs Productions",
    "description": "Advertising Agencies",
    "phone": "(305) 666-6646",
    "address": " 4535 Sabal Palm Rd  Miami, FL 33137",
    "location": "Taylor"
  },
  {
    "name": "R & O Media, Inc",
    "description": "Advertising Agencies",
    "phone": "(305) 993-5585",
    "address": " 4141 NE 2nd Ave Ste 202  Miami, FL 33137",
    "location": "Taylor"
  },
  {
    "name": "Elastic People",
    "description": "Advertising Agencies",
    "phone": "(305) 573-3434",
    "address": " 4141 NE 2nd Ave Ste 108  Miami, FL 33137",
    "location": "Taylor"
  },
  {
    "name": "Gold Coast Advertising Associates Inc",
    "description": "Advertising Agencies",
    "phone": "(305) 576-4141",
    "address": " 4141 NE 2nd Ave  Miami, FL 33137",
    "location": "Taylor"
  },
  {
    "name": "Catapult 13",
    "description": "Advertising Agencies",
    "phone": "(305) 788-6948",
    "address": " 5 NW 39th St  Miami, FL 33127",
    "location": "Taylor"
  },
  {
    "name": "Subway",
    "description": "Advertising Agencies",
    "phone": "(305) 572-0404",
    "address": " 3401 N Miami Ave Ste 124  Miami, FL 33127",
    "location": "Taylor"
  },
  {
    "name": "Wwworld Media, Inc.",
    "description": "Advertising Agencies",
    "phone": "(305) 572-0404",
    "address": " 3401 N Miami Ave Ste 239  Miami, FL 33127",
    "location": "Taylor"
  },
  {
    "name": "Alphametic",
    "description": "Advertising Agencies",
    "phone": "(786) 565-2810",
    "address": " 3401 N Miami Ave Ste 230  Miami, FL 33127",
    "location": "Taylor"
  },
  {
    "name": "Starlight Advertising Specialty",
    "description": "Advertising Agencies",
    "phone": "(305) 438-0098",
    "address": " 3550 Biscayne Blvd  Miami, FL 33137",
    "location": "Taylor"
  },
  {
    "name": "Max Borges Marketing Solutions",
    "description": "Advertising Agencies",
    "phone": "(305) 576-1171",
    "address": " 3550 Biscayne Blvd  Miami, FL 33137",
    "location": "Taylor"
  },
  {
    "name": "WMX",
    "description": "Advertising Agencies",
    "phone": "(305) 572-0404",
    "address": " 3401 N. Miami Ave. Ste. 239  MIami, FL 33137",
    "location": "Taylor"
  },
  {
    "name": "Four",
    "description": "Advertising Agencies",
    "phone": "(305) 360-4160",
    "address": " 3509 NE 2nd Ave  Miami, FL 33137",
    "location": "Taylor"
  },
  {
    "name": "Hayday Advertising",
    "description": "Advertising Agencies",
    "phone": "(786) 410-2886",
    "address": " 3199 NW 36th St  Miami, FL 33142",
    "location": "Taylor"
  },
  {
    "name": "Kivvit",
    "description": "Advertising Agencies",
    "phone": "(305) 964-8035",
    "address": " 3250 NE 1st Ave  Miami, FL 33137",
    "location": "Taylor"
  },
  {
    "name": "Limelite",
    "description": "Advertising Agencies",
    "phone": "(786) 787-0409",
    "address": " 18851 NE 29th Ave Ste 100  Miami, FL 33180",
    "location": "Taylor"
  },
  {
    "name": "Encajes Sa",
    "description": "Advertising Agencies",
    "phone": "(786) 924-3781",
    "address": " 18851 NE 29th Ave  Miami, FL 33180",
    "location": "Taylor"
  },
  {
    "name": "D V Advertising",
    "description": "Advertising Agencies",
    "phone": "(786) 542-6625",
    "address": " 3050 Biscayne Blvd  Miami, FL 33137",
    "location": "Taylor"
  },
  {
    "name": "Avtalents Inc",
    "description": "Advertising Agencies",
    "phone": "(305) 450-5568",
    "address": " 3300 NE 191st St  Miami, FL 33180",
    "location": "Taylor"
  },
  {
    "name": "Alphametic SEO Agency Miami",
    "description": "Advertising Agencies",
    "phone": "(786) 565-2810",
    "address": " 400 NW 26th St  Miami, FL 33127",
    "location": "Taylor"
  },
  {
    "name": "Sting House",
    "description": "Advertising Agencies",
    "phone": "(305) 456-3296",
    "address": " 89 NE 27th St Unit 102  Miami, FL 33137",
    "location": "Taylor"
  },
  {
    "name": "Beber Slverstein Partners Advertising",
    "description": "Advertising Agencies",
    "phone": "(305) 856-9800",
    "address": " 89 NE 27th St  Miami, FL 33137",
    "location": "Taylor"
  },
  {
    "name": "Outform Inc",
    "description": "Advertising Agencies",
    "phone": "(800) 204-0524",
    "address": " 82 NE 26th St  Miami, FL 33137",
    "location": "Taylor"
  },
  {
    "name": "SEED Branding Studio",
    "description": "Advertising Agencies",
    "phone": "(305) 987-0876",
    "address": " 3330 NE 190th St Apt 1419  Miami, FL 33180",
    "location": "Taylor"
  },
  {
    "name": "Fire Pepper Marketing",
    "description": "Advertising Agencies",
    "phone": "(305) 777-1786",
    "address": " 2627 NE 203rd St Ste 202  Miami, FL 33180",
    "location": "Taylor"
  },
  {
    "name": "Season Miami",
    "description": "Advertising Agencies",
    "phone": "(305) 573-8888",
    "address": " 162 NE 25th St  Miami, FL 33137",
    "location": "Taylor"
  },
  {
    "name": "Arena Advertising Inc",
    "description": "Advertising Agencies",
    "phone": "(305) 466-5551",
    "address": " 3370 NE 190th St  Miami, FL 33180",
    "location": "Taylor"
  },
  {
    "name": "Viva Partnership",
    "description": "Advertising Agencies",
    "phone": "(305) 576-6007",
    "address": " 3227 NE 2nd Ave  Miami, FL 33137",
    "location": "Taylor"
  },
  {
    "name": "Big Promotion Inc",
    "description": "Advertising Agencies",
    "phone": "(305) 624-0577",
    "address": " 16005 NW 52nd Ave  Hialeah, FL 33014",
    "location": "Taylor"
  },
  {
    "name": "Z Media Inc",
    "description": "Advertising Agencies",
    "phone": "(305) 532-5566",
    "address": " 1666 79th Street Cswy  North Bay Village, FL 33141",
    "location": "Taylor"
  },
  {
    "name": "Sebastian Consulting Group",
    "description": "Advertising Agencies",
    "phone": "(305) 364-3351",
    "address": " 6970 W 2nd Ln  Hialeah, FL 33014",
    "location": "Taylor"
  },
  {
    "name": "Done Deal Miami",
    "description": "Advertising Agencies",
    "phone": "(305) 330-0295",
    "address": " 1050 E 17th St  Hialeah, FL 33010",
    "location": "Taylor"
  },
  {
    "name": "A P S Technologies",
    "description": "Advertising Agencies",
    "phone": "(305) 357-7449",
    "address": " 630 W 84th St  Hialeah, FL 33014",
    "location": "Taylor"
  },
  {
    "name": "MVP Advertising",
    "description": "Advertising Agencies",
    "phone": "(305) 556-2200",
    "address": " 13960 NW 60th Ave  Miami Lakes, FL 33014",
    "location": "Taylor"
  },
  {
    "name": "Anmar Party Magazine Inc",
    "description": "Advertising Agencies",
    "phone": "(305) 557-0428",
    "address": " 5901 NW 151st St  Miami Lakes, FL 33014",
    "location": "Taylor"
  },
  {
    "name": "MJL Select",
    "description": "Advertising Agencies",
    "phone": "(305) 981-0100",
    "address": " 1666 79th Street Cswy  North Bay Village, FL 33141",
    "location": "Taylor"
  },
  {
    "name": "Golden K Media",
    "description": "Advertising Agencies",
    "phone": "(305) 397-8028",
    "address": " 1666 79th Street Cswy  North Bay Village, FL 33141",
    "location": "Taylor"
  },
  {
    "name": "Hi-Gloss Design Inc",
    "description": "Advertising Agencies",
    "phone": "(305) 759-7288",
    "address": " 1666 79th Street Cswy  North Bay Village, FL 33141",
    "location": "Taylor"
  },
  {
    "name": "Emerge International",
    "description": "Advertising Agencies",
    "phone": "(305) 624-3808",
    "address": " 5231 NW 180th Ter  Miami Gardens, FL 33055",
    "location": "Taylor"
  }
]
