[
  {
    "name": "Lamar Outdoor Advertising",
    "description": "Outdoor Advertising",
    "phone": "(407) 316-0036",
    "address": " 1468 N Goldenrod Rd  Orlando, FL 32807",
    "location": "Union"
  },
  {
    "name": "MakeSense Advertising",
    "description": "Directory & Guide Advertising",
    "phone": "(407) 255-2515",
    "address": " 5027 Commander Dr  Orlando, FL 32822",
    "location": "Union"
  },
  {
    "name": "Free Online Advertising",
    "description": "Internet Marketing & Advertising",
    "phone": "(866) 238-5791",
    "address": " 1875 Knight Ave  Orlando, FL 32826",
    "location": "Union"
  },
  {
    "name": "A & A Advertising Specialties",
    "description": "Advertising-Promotional Products",
    "phone": "(407) 381-5799",
    "address": " 2414 Teton Stone Run  Orlando, FL 32828",
    "location": "Union"
  },
  {
    "name": "Su Advertising Inc",
    "description": "Advertising Specialties",
    "phone": "(407) 737-3605",
    "address": " 1417 Sherman St Ste 202  Orlando, FL 32828",
    "location": "Union"
  },
  {
    "name": "Radio Advertising 407-704-3271",
    "description": "Entertainment Agencies & Bureaus",
    "phone": "(407) 704-3282",
    "address": " 5530 Chrishire Way  Orlando, FL 32822",
    "location": "Union"
  },
  {
    "name": "WHOISCARRUS Advertising",
    "description": "Advertising Agencies",
    "phone": "(407) 477-2528",
    "address": " 416 N Ferncreek Ave Ste A  Orlando, FL 32803",
    "location": "Union"
  },
  {
    "name": "CGS Advertising Group Inc",
    "description": "Advertising Agencies",
    "phone": "(407) 316-8070",
    "address": " 1212 Mount Vernon St  Orlando, FL 32803",
    "location": "Union"
  },
  {
    "name": "Advantage Advertising and Marketing",
    "description": "Copy Writers",
    "phone": "(407) 730-4172",
    "address": " 5132 Dockside Dr  Orlando, FL 32822",
    "location": "Union"
  },
  {
    "name": "The Group Advertising",
    "description": "Internet Marketing & Advertising",
    "phone": "(407) 898-2409",
    "address": " 1221 N Mills Ave Suite B  Orlando, FL 32803",
    "location": "Union"
  },
  {
    "name": "Dayner Hall Marketing & Advertising",
    "description": "Advertising Agencies",
    "phone": "(407) 206-1630",
    "address": " 621 E Pine St  Orlando, FL 32801",
    "location": "Union"
  },
  {
    "name": "Jackson Advertising Inc",
    "description": "Advertising Agencies",
    "phone": "(407) 849-9995",
    "address": " 912 Highland Ave  Orlando, FL 32803",
    "location": "Union"
  },
  {
    "name": "Florida Newspaper Advertising Network",
    "description": "Newspapers",
    "phone": "(407) 420-6100",
    "address": " 633 N Orange Ave  Orlando, FL 32801",
    "location": "Union"
  },
  {
    "name": "Royall Advertising",
    "description": "Marketing Programs & Services",
    "phone": "(407) 401-7479",
    "address": " 14 E Washington St  Orlando, FL 32801",
    "location": "Union"
  },
  {
    "name": "Advertising In Florida",
    "description": "Internet Marketing & Advertising",
    "phone": "(407) 675-3515",
    "address": " 111 N Orange Ave, 8th Floor, Suite 800  Orlando, FL 32801",
    "location": "Union"
  },
  {
    "name": "Bright Rain Advertising",
    "description": "Advertising Agencies",
    "phone": "(407) 440-3017",
    "address": " 733 W Smith St  Orlando, FL 32804",
    "location": "Union"
  },
  {
    "name": "Allure Advertising",
    "description": "Product Design, Development & Marketing",
    "phone": "(407) 719-4567",
    "address": " 5517 Hansel Ave Ste B  Orlando, FL 32809",
    "location": "Union"
  },
  {
    "name": "Kelso Outdoor Advertising",
    "description": "Transit Advertising",
    "phone": "(407) 648-7001",
    "address": " 212 Pasadena Pl  Orlando, FL 32803",
    "location": "Union"
  },
  {
    "name": "All the way up Advertising & Promotions",
    "description": "Outdoor Advertising",
    "phone": "(585) 448-6804",
    "address": " 5969 Lee Vista Blvd  Orlando, FL 32822",
    "location": "Union"
  },
  {
    "name": "Creative Advertising Network",
    "description": "Advertising Agencies",
    "phone": "(407) 210-6566",
    "address": " 301 E Pine St  Orlando, FL 32801",
    "location": "Union"
  },
  {
    "name": "Higher Advertising & Pr Inc",
    "description": "Advertising Specialties",
    "phone": "(407) 447-1340",
    "address": " 30 S Magnolia Ave Ste 250  Orlando, FL 32801",
    "location": "Union"
  },
  {
    "name": "VCI & Associates Advertising",
    "description": "Vacation Time Sharing Plans",
    "phone": "(866) 678-3204",
    "address": " 37 N Orange Ave Ste 617  Orlando, FL 32801",
    "location": "Union"
  },
  {
    "name": "Aura Advertising and Modeling Agency",
    "description": "Advertising Agencies",
    "phone": "(321) 230-9751",
    "address": " 37 N Orange Ave Ste 500  Orlando, FL 32801",
    "location": "Union"
  },
  {
    "name": "JKR Advertising & Marketing",
    "description": "Advertising Agencies",
    "phone": "(321) 397-0777",
    "address": " 298 S Lake Destiny Dr  Orlando, FL 32810",
    "location": "Union"
  },
  {
    "name": "Stadler-Green Advertising",
    "description": "Advertising Agencies",
    "phone": "(407) 667-4800",
    "address": " 1800 Pembrook Dr  Orlando, FL 32810",
    "location": "Union"
  },
  {
    "name": "United Advertising Agency Inc",
    "description": "Advertising Agencies",
    "phone": "(407) 422-2818",
    "address": " 612 N Orange Ave  Orlando, FL 32801",
    "location": "Union"
  },
  {
    "name": "Candace Crowe Design",
    "description": "Advertising Agencies",
    "phone": "(407) 384-7676",
    "address": " 3452 Lake Lynda Dr  Orlando, FL 32817",
    "location": "Union"
  },
  {
    "name": "Cyndie Cox Copywriter",
    "description": "Advertising Agencies",
    "phone": "(407) 816-6720",
    "address": " 562 Mendoza Dr  Orlando, FL 32825",
    "location": "Union"
  },
  {
    "name": "Treasures of Blessings",
    "description": "Advertising Agencies",
    "phone": "(321) 229-9703",
    "address": " 7314 E Colonial Dr  Orlando, FL 32807",
    "location": "Union"
  },
  {
    "name": "Rich Dealers",
    "description": "Advertising Agencies",
    "phone": "(407) 275-8667",
    "address": " 12802 Science Dr  Orlando, FL 32826",
    "location": "Union"
  },
  {
    "name": "VIP Management Consultants",
    "description": "Advertising Agencies",
    "phone": "(407) 277-8471",
    "address": " 448 S Alafaya Trl  Orlando, FL 32828",
    "location": "Union"
  },
  {
    "name": "Asea",
    "description": "Advertising Agencies",
    "phone": "(407) 275-6518",
    "address": " 422 Southern Charm Dr  Orlando, FL 32807",
    "location": "Union"
  },
  {
    "name": "Vergason Sojourner McWaters",
    "description": "Advertising Agencies",
    "phone": "(407) 673-4984",
    "address": " 5901 Brick Ct  Winter Park, FL 32792",
    "location": "Union"
  },
  {
    "name": "Crystal Clear Concepts",
    "description": "Advertising Agencies",
    "phone": "(407) 275-2280",
    "address": " 1259 Ballyshannon Pkwy  Orlando, FL 32828",
    "location": "Union"
  },
  {
    "name": "Parallel Marketing Service",
    "description": "Advertising Agencies",
    "phone": "(407) 517-4835",
    "address": " 2670 Creekview Cir  Oviedo, FL 32765",
    "location": "Union"
  },
  {
    "name": "Apex International Solutions",
    "description": "Advertising Agencies",
    "phone": "(407) 365-0587",
    "address": " 2945 Bayhead Run  Oviedo, FL 32765",
    "location": "Union"
  },
  {
    "name": "Promos 4 U",
    "description": "Advertising Agencies",
    "phone": "(407) 695-0299",
    "address": " 6914 Aloma Ave  Winter Park, FL 32792",
    "location": "Union"
  },
  {
    "name": "Judi Edwards Management Co",
    "description": "Advertising Agencies",
    "phone": "(407) 359-5797",
    "address": " 4250 Alafaya Trl  Oviedo, FL 32765",
    "location": "Union"
  },
  {
    "name": "Acme Brand Studio",
    "description": "Advertising Agencies",
    "phone": "(321) 287-4186",
    "address": " 2825 Prince John Rd  Winter Park, FL 32792",
    "location": "Union"
  },
  {
    "name": "Strategic Minds Assoc Inc",
    "description": "Advertising Agencies",
    "phone": "(407) 823-7454",
    "address": " 262 Winghurst Blvd  Orlando, FL 32828",
    "location": "Union"
  },
  {
    "name": "Bigeye",
    "description": "Advertising Agencies",
    "phone": "(407) 839-8599",
    "address": " 3203 Lawton Rd  Orlando, FL 32803",
    "location": "Union"
  },
  {
    "name": "Luma & Leaf",
    "description": "Advertising Agencies",
    "phone": "(407) 839-8599",
    "address": " 3203 Lawton Rd  Orlando, FL 32803",
    "location": "Union"
  },
  {
    "name": "for Rent Media Solutions",
    "description": "Advertising Agencies",
    "phone": "(407) 297-0832",
    "address": " 3165 Mccrory Pl  Orlando, FL 32803",
    "location": "Union"
  },
  {
    "name": "Target Classifieds",
    "description": "Advertising Agencies",
    "phone": "(407) 581-9234",
    "address": " 2816 E Robinson St  Orlando, FL 32803",
    "location": "Union"
  },
  {
    "name": "Jimnez & Carrillo",
    "description": "Advertising Agencies",
    "phone": "(407) 228-2080",
    "address": " 2816 E Robinson St  Orlando, FL 32803",
    "location": "Union"
  },
  {
    "name": "Credit Upgrade Services",
    "description": "Advertising Agencies",
    "phone": "(407) 745-9007",
    "address": " 5815 Saint Charles Prado  Orlando, FL 32822",
    "location": "Union"
  },
  {
    "name": "DeTorres Group",
    "description": "Advertising Agencies",
    "phone": "(561) 703-2538",
    "address": " 2102 E Robinson St Ste 400  Orlando, FL 32803",
    "location": "Union"
  },
  {
    "name": "Public Promotion Innovations Inc",
    "description": "Advertising Agencies",
    "phone": "(407) 930-0982",
    "address": " 6650 Hoffner Ave  Orlando, FL 32822",
    "location": "Union"
  },
  {
    "name": "S E O M",
    "description": "Advertising Agencies",
    "phone": "(407) 203-1102",
    "address": " 1916 E Robinson St  Orlando, FL 32803",
    "location": "Union"
  },
  {
    "name": "Creative CrossRoads",
    "description": "Advertising Agencies",
    "phone": "(407) 679-1303",
    "address": " 200 Saint Andrews Blvd  Winter Park, FL 32792",
    "location": "Union"
  },
  {
    "name": "Continental Outdoor Advertising",
    "description": "Outdoor Advertising",
    "phone": "(407) 628-9988",
    "address": " 2250 Lee Rd  Winter Park, FL 32789",
    "location": "Union"
  },
  {
    "name": "Signal Out Door Advertising",
    "description": "Advertising Specialties",
    "phone": "(407) 856-7079",
    "address": " 101 Sunnytown Rd Ste 312  Casselberry, FL 32707",
    "location": "Union"
  },
  {
    "name": "Lawyers Group Advertising",
    "description": "Advertising Agencies",
    "phone": "(321) 972-5620",
    "address": " 2729 W Fairbanks Ave  Winter Park, FL 32789",
    "location": "Union"
  },
  {
    "name": "Gillman Advertising Specialties",
    "description": "Advertising Agencies",
    "phone": "(407) 331-5111",
    "address": " 657 Maitland Ave  Altamonte Springs, FL 32701",
    "location": "Union"
  },
  {
    "name": "Frank Murphy Advertising",
    "description": "Outdoor Advertising",
    "phone": "(407) 539-2771",
    "address": " 9029 Lake Hope Dr  Maitland, FL 32751",
    "location": "Union"
  },
  {
    "name": "DeFalco Advertising",
    "description": "Advertising Agencies",
    "phone": "(407) 551-0303",
    "address": " 1441 S Grant St  Longwood, FL 32750",
    "location": "Union"
  },
  {
    "name": "Bernard Hodes Advertising Inc",
    "description": "Advertising Agencies",
    "phone": "(407) 740-5002",
    "address": " 1101 N Lake Destiny Rd Ste 300  Maitland, FL 32751",
    "location": "Union"
  },
  {
    "name": "Jerry Defalco Advertising",
    "description": "Advertising Agencies",
    "phone": "(407) 661-3131",
    "address": " 1060 Maitland Center Commons Blvd Ste 410  Maitland, FL 32751",
    "location": "Union"
  },
  {
    "name": "Gilbert Manjura Marketing and Advertising",
    "description": "Advertising Agencies",
    "phone": "(407) 261-5739",
    "address": " 346 Freeman St  Longwood, FL 32750",
    "location": "Union"
  },
  {
    "name": "Fax IT Advertising",
    "description": "Advertising Agencies",
    "phone": "(407) 339-4555",
    "address": " 1499 Robert St  Longwood, FL 32750",
    "location": "Union"
  },
  {
    "name": "Advantage Signs & Advertising",
    "description": "Signs",
    "phone": "(407) 339-7446",
    "address": " 1983 Corporate Sq  Longwood, FL 32750",
    "location": "Union"
  },
  {
    "name": "Genius Advertising & Marketing",
    "description": "Advertising Agencies",
    "phone": "(407) 682-3037",
    "address": " 864 Little Bend Rd  Altamonte Springs, FL 32714",
    "location": "Union"
  },
  {
    "name": "JKR Advertising & Marketings",
    "description": "Advertising Agencies",
    "phone": "(321) 397-0777",
    "address": " 195 Wekiva Springs Rd  Longwood, FL 32779",
    "location": "Union"
  },
  {
    "name": "Tc Commercial Advertising Sales",
    "description": "Advertising Specialties",
    "phone": "(888) 224-4836",
    "address": " 911 N State Road 434  Altamonte Springs, FL 32714",
    "location": "Union"
  },
  {
    "name": "Go Digital Advertising",
    "description": "Internet Marketing & Advertising",
    "phone": "(407) 497-7198",
    "address": " 2735 W State Road 434  Longwood, FL 32779",
    "location": "Union"
  },
  {
    "name": "Quick Advertising, Inc.",
    "description": "Signs",
    "phone": "(407) 774-0003",
    "address": " 3030 E Semoran Blvd Ste 156  Apopka, FL 32703",
    "location": "Union"
  },
  {
    "name": "Chance Advertising Agency",
    "description": "Audio-Visual Creative Services",
    "phone": "(407) 788-0028",
    "address": " 2484 W. Sr 434 #208  Longwood, FL 32779",
    "location": "Union"
  },
  {
    "name": "Evok Advertising",
    "description": "Advertising Agencies",
    "phone": "(407) 302-4416",
    "address": " 152 N 4th St  Lake Mary, FL 32746",
    "location": "Union"
  },
  {
    "name": "Blue Skies Advertising Inc",
    "description": "Advertising Specialties",
    "phone": "(407) 687-2961",
    "address": " 204 Teakwood Ct  Lake Mary, FL 32746",
    "location": "Union"
  },
  {
    "name": "Iceberg Advertising",
    "description": "Print Advertising",
    "phone": "(407) 486-8478",
    "address": " 3415 W Lake Mary Blvd  Lake Mary, FL 32746",
    "location": "Union"
  },
  {
    "name": "Advertising Specialty Institute",
    "description": "Advertising Agencies",
    "phone": "(407) 430-3698",
    "address": " 4300 W Lake Mary Blvd  Lake Mary, FL 32746",
    "location": "Union"
  },
  {
    "name": "Advertising Networks of Florida",
    "description": "Advertising-Shoppers Publications",
    "phone": "(866) 742-1373",
    "address": " 610 Crescent Executive Ct Ste 112  Lake Mary, FL 32746",
    "location": "Union"
  },
  {
    "name": "DeHarris Advertising & Promotions",
    "description": "Advertising-Promotional Products",
    "phone": "(407) 202-2370",
    "address": " 934 S Central Ave  Apopka, FL 32703",
    "location": "Union"
  },
  {
    "name": "Monster Media",
    "description": "Advertising Agencies",
    "phone": "(407) 478-8163",
    "address": " 555 S Lake Destiny Dr Suite 100  Orlando, FL 32810",
    "location": "Union"
  },
  {
    "name": "Corporate Design Associat",
    "description": "Advertising Agencies",
    "phone": "(407) 898-8838",
    "address": " 1231 Mount Vernon St  Orlando, FL 32803",
    "location": "Union"
  },
  {
    "name": "Foresight Design Group In",
    "description": "Advertising Agencies",
    "phone": "(407) 895-0029",
    "address": " 1212 Mount Vernon St  Orlando, FL 32803",
    "location": "Union"
  },
  {
    "name": "Push Inc",
    "description": "Advertising Agencies",
    "phone": "(407) 841-2299",
    "address": " 101 Ernestine St  Orlando, FL 32801",
    "location": "Union"
  },
  {
    "name": "Market Loyal",
    "description": "Advertising Agencies",
    "phone": "(407) 900-8615",
    "address": " 615 E Colonial Dr  Orlando, FL 32803",
    "location": "Union"
  },
  {
    "name": "Izea",
    "description": "Advertising Agencies",
    "phone": "(321) 332-6830",
    "address": " 150 N Orange Ave Ste 412  Orlando, FL 32801",
    "location": "Union"
  },
  {
    "name": "Laughing Samurai",
    "description": "Advertising Agencies",
    "phone": "(407) 982-4350",
    "address": " 1637 E Robinson St  Orlando, FL 32803",
    "location": "Union"
  },
  {
    "name": "Businesspassion.Com",
    "description": "Advertising Agencies",
    "phone": "(407) 897-8180",
    "address": " 1043 N Shine Ave  Orlando, FL 32803",
    "location": "Union"
  },
  {
    "name": "Say It Loud",
    "description": "Advertising Agencies",
    "phone": "(407) 898-7299",
    "address": " 1121 N Mills Ave  Orlando, FL 32803",
    "location": "Union"
  },
  {
    "name": "Sillery & Partners",
    "description": "Advertising Agencies",
    "phone": "(407) 739-8875",
    "address": " 1121 N Mills Ave  Orlando, FL 32803",
    "location": "Union"
  },
  {
    "name": "Synect",
    "description": "Advertising Agencies",
    "phone": "(407) 985-2547",
    "address": " 5752 S Semoran Blvd  Orlando, FL 32822",
    "location": "Union"
  },
  {
    "name": "Reed Brennan Media Associates",
    "description": "Advertising Agencies",
    "phone": "(407) 894-7300",
    "address": " 628 Virginia Dr  Orlando, FL 32803",
    "location": "Union"
  },
  {
    "name": "United Multi Service Group",
    "description": "Advertising Agencies",
    "phone": "(407) 377-1078",
    "address": " 2211 E Michigan St  Orlando, FL 32806",
    "location": "Union"
  },
  {
    "name": "Fry-Hammond-Barr Inc",
    "description": "Advertising Agencies",
    "phone": "(407) 849-0100",
    "address": " 600 E Washington St  Orlando, FL 32801",
    "location": "Union"
  },
  {
    "name": "Entrende",
    "description": "Advertising Agencies",
    "phone": "(407) 282-5566",
    "address": " 7480 Narcoossee Rd Ste G  Orlando, FL 32822",
    "location": "Union"
  },
  {
    "name": "Prismatic",
    "description": "Advertising Agencies",
    "phone": "(407) 895-0029",
    "address": " 745 N Magnolia Ave Ste 301  Orlando, FL 32803",
    "location": "Union"
  },
  {
    "name": "FDG Creative",
    "description": "Advertising Agencies",
    "phone": "(407) 895-0029",
    "address": " 745 N Magnolia Ave  Orlando, FL 32803",
    "location": "Union"
  },
  {
    "name": "DigitalUs",
    "description": "Advertising Agencies",
    "phone": "(407) 930-8965",
    "address": " 800 N Magnolia Ave  Orlando, FL 32803",
    "location": "Union"
  },
  {
    "name": "Cramer-Krasselt",
    "description": "Advertising Agencies",
    "phone": "(407) 841-8569",
    "address": " 225 E Robinson St Ste 570  Orlando, FL 32801",
    "location": "Union"
  },
  {
    "name": "TKO-Terry Kane Orlando Inc",
    "description": "Advertising Agencies",
    "phone": "(407) 649-8730",
    "address": " 215 E Central Blvd  Orlando, FL 32801",
    "location": "Union"
  },
  {
    "name": "Authentic Momentum Social Media and SEO Firm",
    "description": "Advertising Agencies",
    "phone": "(407) 513-2817",
    "address": " 2 W Harvard St  Orlando, FL 32804",
    "location": "Union"
  },
  {
    "name": "Fifty & Five - Marketing Agency",
    "description": "Advertising Agencies",
    "phone": "(310) 902-3246",
    "address": " 1001 N Orange Ave  Orlando, FL 32801",
    "location": "Union"
  },
  {
    "name": "Jackson Works Inc",
    "description": "Advertising Agencies",
    "phone": "(407) 930-6087",
    "address": " 310 E Anderson St  Orlando, FL 32801",
    "location": "Union"
  },
  {
    "name": "Reachlocal",
    "description": "Advertising Agencies",
    "phone": "(877) 525-6084",
    "address": " 1000 Legion Pl  Orlando, FL 32801",
    "location": "Union"
  },
  {
    "name": "LocaliQ",
    "description": "Advertising Agencies",
    "phone": "(877) 525-6084",
    "address": " 1000 Legion Pl  Orlando, FL 32801",
    "location": "Union"
  },
  {
    "name": "Mlb Creative Inc",
    "description": "Advertising Agencies",
    "phone": "(407) 645-4652",
    "address": " 62 W Colonial Dr  Orlando, FL 32801",
    "location": "Union"
  },
  {
    "name": "Virtual Biz Expos",
    "description": "Advertising Agencies",
    "phone": "(407) 377-6500",
    "address": " 845 N Garland Ave  Orlando, FL 32801",
    "location": "Union"
  },
  {
    "name": "Cheetah Agency",
    "description": "Advertising Agencies",
    "phone": "(407) 470-8888",
    "address": " 111 N Orange Ave  Orlando, FL 32801",
    "location": "Union"
  },
  {
    "name": "Ad Solutions Media",
    "description": "Advertising Agencies",
    "phone": "(269) 579-2130",
    "address": " 111 N Orange Ave Ste 800  Orlando, FL 32801",
    "location": "Union"
  },
  {
    "name": "Radancy",
    "description": "Advertising Agencies",
    "phone": "(646) 613-2000",
    "address": " 1822 S Osceola Ave  Orlando, FL 32806",
    "location": "Union"
  },
  {
    "name": "Boardroompr",
    "description": "Advertising Agencies",
    "phone": "(407) 973-8555",
    "address": " 37 N Orange Ave  Orlando, FL 32801",
    "location": "Union"
  },
  {
    "name": "Southern Cross Media",
    "description": "Advertising Agencies",
    "phone": "(407) 259-8139",
    "address": " 37 N Orange Ave Ste 500  Orlando, FL 32801",
    "location": "Union"
  },
  {
    "name": "Sun Telemedia LLC",
    "description": "Advertising Agencies",
    "phone": "(321) 332-7800",
    "address": " 37 N Orange Ave Ste 500  Orlando, FL 32801",
    "location": "Union"
  },
  {
    "name": "Watauga Group",
    "description": "Advertising Agencies",
    "phone": "(407) 982-2696",
    "address": " 37 N Orange Ave  Orlando, FL 32801",
    "location": "Union"
  },
  {
    "name": "Maximus Inc",
    "description": "Advertising Agencies",
    "phone": "(407) 649-7219",
    "address": " 1 S Orange Ave  Orlando, FL 32801",
    "location": "Union"
  },
  {
    "name": "Now Digital Inc",
    "description": "Advertising Agencies",
    "phone": "(407) 412-9988",
    "address": " 1 S Orange Ave  Orlando, FL 32801",
    "location": "Union"
  },
  {
    "name": "Jkr Defalco Inc",
    "description": "Advertising Agencies",
    "phone": "(321) 397-0777",
    "address": " 1 S Orange Ave  Orlando, FL 32801",
    "location": "Union"
  },
  {
    "name": "Orange Rock Media Inc",
    "description": "Advertising Agencies",
    "phone": "(407) 641-1580",
    "address": " 121 S. Orange Ave. Suite 1585  Orlando, FL 32801",
    "location": "Union"
  },
  {
    "name": "Comrade Digital Marketing Agency Orlando",
    "description": "Advertising Agencies",
    "phone": "(321) 587-3706",
    "address": " 20 N Orange Ave  Orlando, FL 32801",
    "location": "Union"
  },
  {
    "name": "Noble",
    "description": "Advertising Agencies",
    "phone": "(888) 933-5646",
    "address": " 121 S Orange Ave Ste 1070  Orlando, FL 32801",
    "location": "Union"
  },
  {
    "name": "321 Agency",
    "description": "Advertising Agencies",
    "phone": "(407) 734-5215",
    "address": " 121 S Orange Ave Ste 980N  Orlando, FL 32801",
    "location": "Union"
  },
  {
    "name": "Neo Reach Inc",
    "description": "Advertising Agencies",
    "phone": "(877) 972-2299",
    "address": " 189 S Orange Ave  Orlando, FL 32801",
    "location": "Union"
  },
  {
    "name": "Knight Images Inc",
    "description": "Advertising Agencies",
    "phone": "(407) 206-1011",
    "address": " 130 S Orange Ave  Orlando, FL 32801",
    "location": "Union"
  },
  {
    "name": "The Wagner Agency",
    "description": "Advertising Agencies",
    "phone": "(407) 541-0523",
    "address": " 300 S Orange Ave Ste 1000  Orlando, FL 32801",
    "location": "Union"
  },
  {
    "name": "Maven Creative",
    "description": "Advertising Agencies",
    "phone": "(407) 704-8426",
    "address": " 55 W Church St  Orlando, FL 32801",
    "location": "Union"
  },
  {
    "name": "Latavia Matthews",
    "description": "Advertising Agencies",
    "phone": "(786) 309-4596",
    "address": " 425 W Colonial Dr Ste 303  Orlando, FL 32804",
    "location": "Union"
  },
  {
    "name": "Artworks",
    "description": "Advertising Agencies",
    "phone": "(407) 843-2953",
    "address": " 609 Vassar St  Orlando, FL 32804",
    "location": "Union"
  },
  {
    "name": "Next Bridge Advisors Inc",
    "description": "Advertising Agencies",
    "phone": "(646) 755-3926",
    "address": " 1317 Edgewater Dr  Orlando, FL 32804",
    "location": "Union"
  },
  {
    "name": "Chris Distribution",
    "description": "Advertising Agencies",
    "phone": "(407) 420-1230",
    "address": " 921 Shady Lane Dr  Orlando, FL 32804",
    "location": "Union"
  },
  {
    "name": "Promo Only",
    "description": "Advertising Agencies",
    "phone": "(407) 838-2030",
    "address": " 257 S Lake Destiny Dr  Orlando, FL 32810",
    "location": "Union"
  },
  {
    "name": "Carlton Co Inc",
    "description": "Advertising Agencies",
    "phone": "(407) 256-6072",
    "address": " 620 Gatlin Ave  Orlando, FL 32806",
    "location": "Union"
  },
  {
    "name": "TC Interactive Group",
    "description": "Advertising Agencies",
    "phone": "(888) 313-7077",
    "address": " 1024 W Pine St  Orlando, FL 32805",
    "location": "Union"
  },
  {
    "name": "Acropolis Inc",
    "description": "Advertising Agencies",
    "phone": "(407) 895-4444",
    "address": " 5125 Adanson St Ste 200  Orlando, FL 32804",
    "location": "Union"
  },
  {
    "name": "Cosmetic Promotions Inc",
    "description": "Advertising Agencies",
    "phone": "(407) 644-9916",
    "address": " 1216 W Amelia St  Orlando, FL 32805",
    "location": "Union"
  },
  {
    "name": "Noble Marketing Inc",
    "description": "Advertising Agencies",
    "phone": "(407) 404-6776",
    "address": " 121 S Orange Ave  Orlando, FL 32801",
    "location": "Union"
  },
  {
    "name": "Wallob",
    "description": "Advertising Agencies",
    "phone": "(336) 203-7932",
    "address": " 1420 E. Altamonte Drive  Altamonte Springs, FL 32714",
    "location": "Union"
  },
  {
    "name": "Brandcomet",
    "description": "Advertising Agencies",
    "phone": "(407) 622-1993",
    "address": " 465 S Orlando Ave  Maitland, FL 32751",
    "location": "Union"
  },
  {
    "name": "Conectar Agency Inc",
    "description": "Advertising Agencies",
    "phone": "(407) 801-0046",
    "address": " 1620 S Orlando Ave  Maitland, FL 32751",
    "location": "Union"
  },
  {
    "name": "Cash Stream Recovery",
    "description": "Advertising Agencies",
    "phone": "(407) 478-3785",
    "address": " 1290 Palmetto Ave  Winter Park, FL 32789",
    "location": "Union"
  },
  {
    "name": "Stalder Green Advertising",
    "description": "Advertising Agencies",
    "phone": "(407) 645-1113",
    "address": " 1101 N Kentucky Ave  Winter Park, FL 32789",
    "location": "Union"
  },
  {
    "name": "Small Pond Media",
    "description": "Advertising Agencies",
    "phone": "(407) 951-8034",
    "address": " 126 Wilshire Blvd  Casselberry, FL 32707",
    "location": "Union"
  },
  {
    "name": "Hooah",
    "description": "Advertising Agencies",
    "phone": "(407) 362-7715",
    "address": " 807 S Orlando Ave  Winter Park, FL 32789",
    "location": "Union"
  },
  {
    "name": "Serendipity Medical Management Inc",
    "description": "Advertising Agencies",
    "phone": "(407) 322-3525",
    "address": " 1601 Wildcat Ct  Winter Springs, FL 32708",
    "location": "Union"
  },
  {
    "name": "Fifty & Five-Marketing Agency",
    "description": "Advertising Agencies",
    "phone": "(407) 745-5568",
    "address": " 227 S Orlando Ave  Winter Park, FL 32789",
    "location": "Union"
  },
  {
    "name": "Cutting Edge Communications",
    "description": "Advertising Agencies",
    "phone": "(407) 629-6366",
    "address": " 1300 Lyndale Blvd  Winter Park, FL 32789",
    "location": "Union"
  },
  {
    "name": "M Two Enterprises Inc",
    "description": "Advertising Agencies",
    "phone": "(407) 622-6224",
    "address": " 1400 W Fairbanks Ave Ste 101  Winter Park, FL 32789",
    "location": "Union"
  },
  {
    "name": "Jane Newnum and Associates",
    "description": "Advertising Agencies",
    "phone": "(407) 647-0442",
    "address": " 2107 N Park Ave  Winter Park, FL 32789",
    "location": "Union"
  },
  {
    "name": "The Brandon Agency",
    "description": "Advertising Agencies",
    "phone": "(843) 916-2000",
    "address": " 1477 W Fairbanks Ave  Winter Park, FL 32789",
    "location": "Union"
  },
  {
    "name": "Rho Mar Marketing Inc",
    "description": "Advertising Agencies",
    "phone": "(407) 332-0926",
    "address": " PO Box 181504  Casselberry, FL 32718",
    "location": "Union"
  },
  {
    "name": "MLB Creative",
    "description": "Advertising Agencies",
    "phone": "(407) 645-4652",
    "address": " 1778 N Park Ave Ste 100  Maitland, FL 32751",
    "location": "Union"
  },
  {
    "name": "Welcom Consulting Svc",
    "description": "Advertising Agencies",
    "phone": "(407) 696-7896",
    "address": " 673 Venture Ct  Winter Springs, FL 32708",
    "location": "Union"
  },
  {
    "name": "Wilcox & Associates Inc",
    "description": "Advertising Agencies",
    "phone": "(407) 629-6746",
    "address": " 540 S Maitland Ave  Maitland, FL 32751",
    "location": "Union"
  },
  {
    "name": "78 Madison",
    "description": "Advertising Agencies",
    "phone": "(407) 788-7070",
    "address": " 1401 Town Plaza Ct  Winter Springs, FL 32708",
    "location": "Union"
  },
  {
    "name": "Patterson & Taylor Inc",
    "description": "Advertising Agencies",
    "phone": "(407) 339-0793",
    "address": " 145 S Orange Suite 8 Ave  Maitland, FL 32751",
    "location": "Union"
  },
  {
    "name": "Rennew Media",
    "description": "Advertising Agencies",
    "phone": "(407) 900-7734",
    "address": " 151 N Maitland Ave  Maitland, FL 32751",
    "location": "Union"
  },
  {
    "name": "Grb Enterprises",
    "description": "Advertising Agencies",
    "phone": "(407) 644-1612",
    "address": " 1150 Grove St  Maitland, FL 32751",
    "location": "Union"
  },
  {
    "name": "Logogram",
    "description": "Advertising Agencies",
    "phone": "(407) 740-5511",
    "address": " 2250 Lee Rd  Winter Park, FL 32789",
    "location": "Union"
  },
  {
    "name": "AG Ad Agency",
    "description": "Advertising Agencies",
    "phone": "(407) 645-1950",
    "address": " 166 Lookout Pl Ste 101  Maitland, FL 32751",
    "location": "Union"
  },
  {
    "name": "Dat Media",
    "description": "Advertising Agencies",
    "phone": "(407) 759-5717",
    "address": " 2307 Lee Rd  Winter Park, FL 32789",
    "location": "Union"
  },
  {
    "name": "Via Cindy",
    "description": "Advertising Agencies",
    "phone": "(407) 695-0183",
    "address": " 102 W Bahama Rd  Winter Springs, FL 32708",
    "location": "Union"
  },
  {
    "name": "Help 4 You America Inc",
    "description": "Advertising Agencies",
    "phone": "(407) 265-7248",
    "address": " 241 Obrien Rd  Fern Park, FL 32730",
    "location": "Union"
  },
  {
    "name": "Ad Satisfaction",
    "description": "Advertising Agencies",
    "phone": "(407) 862-1228",
    "address": " 580 Ololu Dr  Winter Park, FL 32789",
    "location": "Union"
  },
  {
    "name": "Jvzoo",
    "description": "Advertising Agencies",
    "phone": "(406) 285-8966",
    "address": " 1945 W County Rd  Oviedo, FL 32766",
    "location": "Union"
  },
  {
    "name": "Florida Apartment Assn",
    "description": "Advertising Agencies",
    "phone": "(407) 647-8839",
    "address": " 875 Concourse Pkwy S  Maitland, FL 32751",
    "location": "Union"
  },
  {
    "name": "Cmts",
    "description": "Advertising Agencies",
    "phone": "(904) 739-9804",
    "address": " 608 Maitland Ave  Altamonte Springs, FL 32701",
    "location": "Union"
  },
  {
    "name": "Delisle & Associates",
    "description": "Advertising Agencies",
    "phone": "(407) 331-7705",
    "address": " 711 Ballard St  Altamonte Springs, FL 32701",
    "location": "Union"
  },
  {
    "name": "Medtech Momentum",
    "description": "Advertising Agencies",
    "phone": "(407) 960-2994",
    "address": " 377 Maitland Ave  Altamonte Springs, FL 32701",
    "location": "Union"
  },
  {
    "name": "Push Button Productions",
    "description": "Advertising Agencies",
    "phone": "(888) 494-7874",
    "address": " 815 Orienta Ave Ste 1060  Altamonte Springs, FL 32701",
    "location": "Union"
  },
  {
    "name": "BCV Deals",
    "description": "Advertising Agencies",
    "phone": "(407) 571-2980",
    "address": " 260 Maitland Ave  Altamonte Springs, FL 32701",
    "location": "Union"
  },
  {
    "name": "G A & Co",
    "description": "Advertising Agencies",
    "phone": "(407) 339-1736",
    "address": " 333 Croton Dr  Maitland, FL 32751",
    "location": "Union"
  },
  {
    "name": "EZ Yield Com",
    "description": "Advertising Agencies",
    "phone": "(407) 629-0900",
    "address": " 125 Excelsior Pkwy Ste 101  Winter Springs, FL 32708",
    "location": "Union"
  },
  {
    "name": "Tru-Sun Media",
    "description": "Advertising Agencies",
    "phone": "(407) 388-1001",
    "address": " 1255 Belle Ave  Winter Springs, FL 32708",
    "location": "Union"
  },
  {
    "name": "Yuppify",
    "description": "Advertising Agencies",
    "phone": "(407) 761-6952",
    "address": " 606 Lake Orienta Dr  Altamonte Springs, FL 32701",
    "location": "Union"
  },
  {
    "name": "Technical Communications Group",
    "description": "Advertising Agencies",
    "phone": "(407) 831-2235",
    "address": " 403 Barclay Ave  Altamonte Springs, FL 32701",
    "location": "Union"
  },
  {
    "name": "Dominion Enterprises",
    "description": "Advertising Agencies",
    "phone": "(407) 673-3466",
    "address": " 901 N Lake Destiny Rd  Maitland, FL 32751",
    "location": "Union"
  },
  {
    "name": "Think Agency",
    "description": "Advertising Agencies",
    "phone": "(407) 875-1999",
    "address": " 1001 N Lake Destiny Rd Ste 300  Maitland, FL 32751",
    "location": "Union"
  },
  {
    "name": "MP advertising.com",
    "description": "Advertising Agencies",
    "phone": "(407) 324-3255",
    "address": " PO Box 3052 E. Jefferson Street  Orlando, FL 32802",
    "location": "Union"
  },
  {
    "name": "Higgins Marketing Group, Inc.",
    "description": "Advertising Agencies",
    "phone": "(407) 680-3735",
    "address": " 219 Duncan Trl  Longwood, FL 32779",
    "location": "Union"
  },
  {
    "name": "Ralph's Transfer Co Inc",
    "description": "Advertising Agencies",
    "phone": "(407) 377-6966",
    "address": " 8420 Boggy Creek Rd  Orlando, FL 32824",
    "location": "Union"
  },
  {
    "name": "Bee Idea Advertising",
    "description": "Advertising Agencies",
    "phone": "(407) 351-3976",
    "address": " 7250 S Kirkman Rd  Orlando, FL 32819",
    "location": "Union"
  },
  {
    "name": "Elite Business Productions",
    "description": "Advertising Agencies",
    "phone": "(407) 292-9166",
    "address": " 600 Triumph Ct  Orlando, FL 32805",
    "location": "Union"
  },
  {
    "name": "Reliable Experts Consulting",
    "description": "Advertising Agencies",
    "phone": "(321) 206-8881",
    "address": " 1800 Pembrook Dr  Orlando, FL 32810",
    "location": "Union"
  }
]
