[
  {
    "name": "Brochure Displays, Inc.",
    "description": "Advertising Agencies",
    "phone": "(386) 271-5500",
    "address": " 1808 Concept Ct  Daytona Beach, FL 32114",
    "location": "Volusia"
  },
  {
    "name": "Springboard Marketing Group",
    "description": "Advertising Agencies",
    "phone": "(386) 947-4360",
    "address": " 1575 Aviation Center Pkwy  Daytona Beach, FL 32114",
    "location": "Volusia"
  },
  {
    "name": "A L C H Advertising & Mail Inc",
    "description": "Advertising Agencies",
    "phone": "(386) 322-3737",
    "address": " 6 Cormorant Cir  Daytona Beach, FL 32119",
    "location": "Volusia"
  },
  {
    "name": "Alan & Bob McGarity Advertising",
    "description": "Advertising Agencies",
    "phone": "(386) 252-6655",
    "address": " 401 Skyview Ln  Daytona Beach, FL 32114",
    "location": "Volusia"
  },
  {
    "name": "Kaltek International Inc",
    "description": "Advertising Agencies",
    "phone": "(386) 756-5535",
    "address": " 1335 Beville Rd  Daytona Beach, FL 32119",
    "location": "Volusia"
  },
  {
    "name": "Nerve Marketing",
    "description": "Advertising Agencies",
    "phone": "(386) 257-3030",
    "address": " 600 Mason Ave  Daytona Beach, FL 32117",
    "location": "Volusia"
  },
  {
    "name": "Valpak of Volusia",
    "description": "Advertising Agencies",
    "phone": "(800) 550-5025",
    "address": " 119 S Palmetto Ave Ste 201  Daytona Beach, FL 32114",
    "location": "Volusia"
  },
  {
    "name": "Florida Marketing & Pr",
    "description": "Advertising Agencies",
    "phone": "(386) 479-5544",
    "address": " 100 Marina Point Dr  Daytona Beach, FL 32114",
    "location": "Volusia"
  },
  {
    "name": "Click Geeks",
    "description": "Advertising Agencies",
    "phone": "(800) 988-7579",
    "address": " 250 S Beach St Ste 20A  Daytona Beach, FL 32114",
    "location": "Volusia"
  },
  {
    "name": "Dream Light Digital",
    "description": "Advertising Agencies",
    "phone": "(386) 212-4646",
    "address": " 140 S Beach St  Daytona Beach, FL 32114",
    "location": "Volusia"
  },
  {
    "name": "Image Makers Advertising Inc",
    "description": "Advertising Agencies",
    "phone": "(386) 236-1200",
    "address": " 140 S Beach St Ste 202  Daytona Beach, FL 32114",
    "location": "Volusia"
  },
  {
    "name": "MP Marketing",
    "description": "Advertising Agencies",
    "phone": "(386) 268-4536",
    "address": " 214 N Beach St  Daytona Beach, FL 32114",
    "location": "Volusia"
  },
  {
    "name": "SHAKLEE Authorized Distributor",
    "description": "Advertising Agencies",
    "phone": "(386) 236-9911",
    "address": " 2001 Kenilworth Ave  South Daytona, FL 32119",
    "location": "Volusia"
  },
  {
    "name": "Image360 Daytona",
    "description": "Advertising Agencies",
    "phone": "(386) 238-5507",
    "address": " 1440 N Nova Rd Ste 308  Holly Hill, FL 32117",
    "location": "Volusia"
  },
  {
    "name": "Homeland Therapy Consult",
    "description": "Advertising Agencies",
    "phone": "(386) 236-9986",
    "address": " 519 N Peninsula Dr  Daytona Beach, FL 32118",
    "location": "Volusia"
  },
  {
    "name": "Jiloty Shipley & Associates Inc",
    "description": "Advertising Agencies",
    "phone": "(386) 677-0673",
    "address": " 1510 Ridgewood Ave  Daytona Beach, FL 32117",
    "location": "Volusia"
  },
  {
    "name": "Torq Design",
    "description": "Advertising Agencies",
    "phone": "(386) 763-5558",
    "address": " 2990 S Atlantic Ave  Daytona Beach, FL 32118",
    "location": "Volusia"
  },
  {
    "name": "I Spotted Youcom Inc",
    "description": "Advertising Agencies",
    "phone": "(386) 788-5502",
    "address": " 4606 Clyde Morris Blvd  Port Orange, FL 32129",
    "location": "Volusia"
  },
  {
    "name": "Missing Link Communications INC",
    "description": "Advertising Agencies",
    "phone": "(386) 297-6500",
    "address": " 1840 S Palmetto Ave  South Daytona, FL 32119",
    "location": "Volusia"
  },
  {
    "name": "Turnkey Enterprises Inc",
    "description": "Advertising Agencies",
    "phone": "(386) 304-8303",
    "address": " 5338 Georgia Peach Ave  Port Orange, FL 32128",
    "location": "Volusia"
  },
  {
    "name": "Clifford Kellogg Cemetery Svc",
    "description": "Advertising Agencies",
    "phone": "(386) 679-6423",
    "address": " 1120 Avenue F  Ormond Beach, FL 32174",
    "location": "Volusia"
  },
  {
    "name": "Valpak",
    "description": "Advertising Agencies",
    "phone": "(386) 226-4889",
    "address": " 3817 S Nova Rd  Port Orange, FL 32127",
    "location": "Volusia"
  },
  {
    "name": "Waverly Media LLC",
    "description": "Advertising Agencies",
    "phone": "(386) 322-3600",
    "address": " 4188 Dairy Ct  Port Orange, FL 32127",
    "location": "Volusia"
  },
  {
    "name": "DSC Sales Inc",
    "description": "Advertising Agencies",
    "phone": "(386) 761-6642",
    "address": " 413 Oak Pl  Port Orange, FL 32127",
    "location": "Volusia"
  },
  {
    "name": "Kerbox Media",
    "description": "Advertising Agencies",
    "phone": "(310) 600-4484",
    "address": " 762 S Beach St  Ormond Beach, FL 32174",
    "location": "Volusia"
  },
  {
    "name": "Gameday R Media Network",
    "description": "Advertising Agencies",
    "phone": "(386) 492-2916",
    "address": " 5889 S Williamson Blvd  Port Orange, FL 32128",
    "location": "Volusia"
  },
  {
    "name": "Hayworth Creative",
    "description": "Advertising Agencies",
    "phone": "(386) 677-7000",
    "address": " 700 W Granada Blvd  Ormond Beach, FL 32174",
    "location": "Volusia"
  },
  {
    "name": "Lord & Lasker",
    "description": "Advertising Agencies",
    "phone": "(386) 615-8170",
    "address": " 555 W Granada Blvd Ste F5  Ormond Beach, FL 32174",
    "location": "Volusia"
  },
  {
    "name": "Benedict Advertising & Marketing",
    "description": "Advertising Agencies",
    "phone": "(386) 255-1222",
    "address": " 59 Dunlawton Ave  Port Orange, FL 32127",
    "location": "Volusia"
  },
  {
    "name": "Mastando Media",
    "description": "Advertising Agencies",
    "phone": "(386) 846-3363",
    "address": " 3 Ormond Green Blvd  Ormond Beach, FL 32174",
    "location": "Volusia"
  },
  {
    "name": "D2 Advertising",
    "description": "Advertising Agencies",
    "phone": "(866) 275-5108",
    "address": " 307 W Granada Blvd  Ormond Beach, FL 32174",
    "location": "Volusia"
  },
  {
    "name": "Belden & Associates Inc",
    "description": "Advertising Agencies",
    "phone": "(386) 756-0302",
    "address": " 5825 Southport Dr  Port Orange, FL 32127",
    "location": "Volusia"
  },
  {
    "name": "Promoteme Advertising",
    "description": "Advertising Agencies",
    "phone": "(386) 320-9999",
    "address": " 1 N Beach St  Ormond Beach, FL 32174",
    "location": "Volusia"
  },
  {
    "name": "S 2 Advertising",
    "description": "Advertising Agencies",
    "phone": "(386) 672-3150",
    "address": " 533 N Nova Rd Ste 213B  Ormond Beach, FL 32174",
    "location": "Volusia"
  },
  {
    "name": "Pando Design",
    "description": "Advertising Agencies",
    "phone": "(386) 898-2703",
    "address": " 6145 Sanctuary Garden Blvd  Port Orange, FL 32128",
    "location": "Volusia"
  },
  {
    "name": "Twilight Grooves Inc",
    "description": "Advertising Agencies",
    "phone": "(386) 676-1015",
    "address": " 9 Sunshine Blvd  Ormond Beach, FL 32174",
    "location": "Volusia"
  },
  {
    "name": "Trands Inc",
    "description": "Advertising Agencies",
    "phone": "(386) 672-3131",
    "address": " 195 Coquina Ct  Ormond Beach, FL 32176",
    "location": "Volusia"
  },
  {
    "name": "Anello Enterprises",
    "description": "Advertising Agencies",
    "phone": "(386) 761-4511",
    "address": " 5540 W Bayshore Dr  Port Orange, FL 32127",
    "location": "Volusia"
  },
  {
    "name": "Colonblow Inc",
    "description": "Advertising Agencies",
    "phone": "(386) 441-2706",
    "address": " 97 Dawn Dr  Ormond Beach, FL 32176",
    "location": "Volusia"
  },
  {
    "name": "Captree Advertising",
    "description": "Advertising Agencies",
    "phone": "(386) 871-2080",
    "address": " 555 Maribella Ct  New Smyrna Beach, FL 32168",
    "location": "Volusia"
  },
  {
    "name": "Dawn Kolet Volusia Savings",
    "description": "Advertising Agencies",
    "phone": "(386) 405-6706",
    "address": " 362 N Airport Rd  New Smyrna Beach, FL 32168",
    "location": "Volusia"
  },
  {
    "name": "Woodham & Associates Inc",
    "description": "Advertising Agencies",
    "phone": "(386) 441-8400",
    "address": " 2290 Ocean Shore Blvd Apt 102  Ormond Beach, FL 32176",
    "location": "Volusia"
  },
  {
    "name": "Shok Idea Group",
    "description": "Advertising Agencies",
    "phone": "(386) 957-3939",
    "address": " 434 Canal St  New Smyrna Beach, FL 32168",
    "location": "Volusia"
  },
  {
    "name": "Image Today Graphics",
    "description": "Advertising Agencies",
    "phone": "(386) 428-5556",
    "address": " 516 Magnolia St  New Smyrna Beach, FL 32168",
    "location": "Volusia"
  },
  {
    "name": "Artyst Tyrant - Affordable Premium Website Design and Graphic Design",
    "description": "Advertising Agencies",
    "phone": "(386) 366-0431",
    "address": " 125 Powell Blvd Apt 12102  Daytona Beach, FL 32114",
    "location": "Volusia"
  },
  {
    "name": "King Direct Marketing",
    "description": "Advertising Agencies",
    "phone": "(386) 788-8925",
    "address": " 1184 Pelican Bay Dr  Daytona Beach, FL 32119",
    "location": "Volusia"
  },
  {
    "name": "Mesio Public Relations",
    "description": "Advertising Agencies",
    "phone": "(386) 226-9963",
    "address": " Po Box 265791  Daytona Beach, FL 32126",
    "location": "Volusia"
  },
  {
    "name": "YELLOW PAGES CUTTER",
    "description": "Advertising Agencies",
    "phone": "(386) 438-7325",
    "address": " Atlantic Ave  Daytona Beach, FL 32118",
    "location": "Volusia"
  },
  {
    "name": "Sunshine Multimedia Solutions",
    "description": "Advertising Agencies",
    "phone": "(386) 866-0070",
    "address": " 1301 Beville Road Suite 7  Daytona Beach, FL 32119",
    "location": "Volusia"
  },
  {
    "name": "The Brichard Group",
    "description": "Advertising Agencies",
    "phone": "(253) 237-4774",
    "address": " 1600 Big Tree Rd  South Daytona, FL 32119",
    "location": "Volusia"
  },
  {
    "name": "Web Daytona",
    "description": "Advertising Agencies",
    "phone": "(386) 405-4281",
    "address": " 115 S Palmetto Ave  Daytona Beach, FL 32114",
    "location": "Volusia"
  },
  {
    "name": "Hometown News",
    "description": "Advertising Agencies",
    "phone": "(386) 322-5900",
    "address": " 2400 S Ridgewood Ave Ste 22  South Daytona, FL 32119",
    "location": "Volusia"
  },
  {
    "name": "Speedi Sign",
    "description": "Advertising Agencies",
    "phone": "(386) 258-1183",
    "address": " 421 Ridgewood Ave  Daytona Beach, FL 32117",
    "location": "Volusia"
  },
  {
    "name": "Benedict Advertising",
    "description": "Advertising Agencies",
    "phone": "(386) 255-1222",
    "address": " 640 N Peninsula Dr  Daytona Beach, FL 32118",
    "location": "Volusia"
  },
  {
    "name": "Gano Signs & Graphics",
    "description": "Advertising Agencies",
    "phone": "(386) 238-8653",
    "address": " 2410 S Atlantic Ave  Daytona Beach, FL 32118",
    "location": "Volusia"
  },
  {
    "name": "Car People Marketing Inc",
    "description": "Advertising Agencies",
    "phone": "(386) 761-3131",
    "address": " 3818 S Nova Rd Suite C  Port Orange, FL 32127",
    "location": "Volusia"
  },
  {
    "name": "Smart Marketing",
    "description": "Advertising Agencies",
    "phone": "(386) 265-9469",
    "address": " 40 Soco Trl  Ormond Beach, FL 32174",
    "location": "Volusia"
  },
  {
    "name": "New Vision Videos LLC",
    "description": "Advertising Agencies",
    "phone": "(386) 788-1596",
    "address": " 3280 S Atlantic Ave  Daytona Beach, FL 32118",
    "location": "Volusia"
  },
  {
    "name": "Eurosport Daytona Inc",
    "description": "Advertising Agencies",
    "phone": "(386) 672-7199",
    "address": " 355 Tomoka Ave  Ormond Beach, FL 32174",
    "location": "Volusia"
  },
  {
    "name": "DMV High Impact Mail",
    "description": "Advertising Agencies",
    "phone": "(386) 256-3823",
    "address": " 468 Riverside Dr  Ormond Beach, FL 32176",
    "location": "Volusia"
  },
  {
    "name": "Eat Leasing LLC",
    "description": "Advertising Agencies",
    "phone": "(386) 237-0446",
    "address": " 232 River Beach Dr  Ormond Beach, FL 32176",
    "location": "Volusia"
  },
  {
    "name": "Buttleman Sporting Goods & Trophies Inc",
    "description": "Advertising Agencies",
    "phone": "(386) 677-0183",
    "address": " 175 N Yonge St  Ormond Beach, FL 32174",
    "location": "Volusia"
  },
  {
    "name": "Resorts Solutions of America",
    "description": "Advertising Agencies",
    "phone": "(386) 317-5969",
    "address": " 5243 S Nova Rd  Port Orange, FL 32127",
    "location": "Volusia"
  },
  {
    "name": "Valorbound",
    "description": "Advertising Agencies",
    "phone": "(386) 478-6320",
    "address": " 18 Canterbury Woods  Ormond Beach, FL 32174",
    "location": "Volusia"
  },
  {
    "name": "King Direct Marketing Inc",
    "description": "Advertising Agencies",
    "phone": "(386) 788-8925",
    "address": " 1916 Bay Lake Way  Port Orange, FL 32128",
    "location": "Volusia"
  },
  {
    "name": "Hamlin & Associates",
    "description": "Advertising Agencies",
    "phone": "(386) 672-4113",
    "address": " 575 N Nova Rd  Ormond Beach, FL 32174",
    "location": "Volusia"
  },
  {
    "name": "357webdesign",
    "description": "Advertising Agencies",
    "phone": "(386) 290-3143",
    "address": " 357 John Anderson Dr  Ormond Beach, FL 32176",
    "location": "Volusia"
  },
  {
    "name": "On Wax Dup Signs & Print",
    "description": "Advertising Agencies",
    "phone": "(386) 873-2919",
    "address": " 1720 Palm Ave  Deland, FL 32724",
    "location": "Volusia"
  },
  {
    "name": "Revenue Cycle Resources- RCR|HUB",
    "description": "Advertising Agencies",
    "phone": "(407) 421-4940",
    "address": " 538 Canal St  New Smyrna Beach, FL 32168",
    "location": "Volusia"
  },
  {
    "name": "FedEx Office Print & Ship Center",
    "description": "Copying & Duplicating Service",
    "phone": "(386) 323-7840",
    "address": " 2274 W International Speedway Blvd  Daytona Beach, FL 32114",
    "location": "Volusia"
  },
  {
    "name": "Smartguests.com",
    "description": "Internet Marketing & Advertising",
    "phone": "(888) 800-7779",
    "address": " 2250 W International Speedway Blvd  Daytona Beach, FL 32114",
    "location": "Volusia"
  },
  {
    "name": "RAM Promotions",
    "description": "Advertising Specialties",
    "phone": "(386) 677-2075",
    "address": " 221 Fentress Blvd  Daytona Beach, FL 32114",
    "location": "Volusia"
  },
  {
    "name": "Federal Sign",
    "description": "Signs",
    "phone": "(386) 255-1901",
    "address": " 300 Fentress Blvd  Daytona Beach, FL 32114",
    "location": "Volusia"
  },
  {
    "name": "Action Signs & Designs",
    "description": "Signs",
    "phone": "(386) 341-0697",
    "address": " 2987 Bellevue Ave Booth M-75  Daytona Beach, FL 32124",
    "location": "Volusia"
  },
  {
    "name": "Lamar Advertising Co",
    "description": "Transit Advertising",
    "phone": "(386) 258-0206",
    "address": " 475 Fentress Blvd Ste L  Daytona Beach, FL 32114",
    "location": "Volusia"
  },
  {
    "name": "Premiums Promotions & Imports",
    "description": "Advertising-Promotional Products",
    "phone": "(386) 258-1900",
    "address": " 2441 Bellevue Ave  Daytona Beach, FL 32114",
    "location": "Volusia"
  },
  {
    "name": "Direct Mail Express, Inc",
    "description": "Mail & Shipping Services",
    "phone": "(386) 257-2500",
    "address": " 2441 Bellevue Ave  Daytona Beach, FL 32114",
    "location": "Volusia"
  },
  {
    "name": "Expressionables",
    "description": "Business Cards",
    "phone": "(888) 346-1848",
    "address": " 2441 Bellevue Ave  Daytona Beach, FL 32114",
    "location": "Volusia"
  },
  {
    "name": "DME Marketing",
    "description": "Marketing Programs & Services",
    "phone": "(386) 271-3000",
    "address": " 2441 Bellevue Ave  Daytona Beach, FL 32114",
    "location": "Volusia"
  },
  {
    "name": "Hawkeye Brothers Sign & Graphics",
    "description": "Signs",
    "phone": "(386) 492-3883",
    "address": " 480 Fentress Blvd Ste A  Daytona Beach, FL 32114",
    "location": "Volusia"
  },
  {
    "name": "AlphaGraphics",
    "description": "Printing Services",
    "phone": "(386) 693-1572",
    "address": " 339 Bill France Blvd  Daytona Beach, FL 32114",
    "location": "Volusia"
  },
  {
    "name": "Hawkeye Brothers S Signs",
    "description": "Signs",
    "phone": "(386) 492-3883",
    "address": " 2381 Mason Ave  Daytona Beach, FL 32117",
    "location": "Volusia"
  },
  {
    "name": "Flagler Media",
    "description": "Web Site Hosting",
    "phone": "(386) 227-6477",
    "address": " 728 Fentress Blvd  Daytona Beach, FL 32114",
    "location": "Volusia"
  },
  {
    "name": "Skip'sboots.com",
    "description": "Internet Marketing & Advertising",
    "phone": "(386) 255-0455",
    "address": " 1320 W International Speedway Blvd  Daytona Beach, FL 32114",
    "location": "Volusia"
  },
  {
    "name": "Midlantic Marketing Solutions",
    "description": "Marketing Programs & Services",
    "phone": "(386) 274-1227",
    "address": " 750 Fentress Blvd  Daytona Beach, FL 32114",
    "location": "Volusia"
  },
  {
    "name": "Central Signs",
    "description": "Signs-Maintenance & Repair",
    "phone": "(386) 322-7446",
    "address": " 517 Mason Av  South Daytona, FL 32119",
    "location": "Volusia"
  },
  {
    "name": "BZ Mailing Services Inc",
    "description": "Mail & Shipping Services",
    "phone": "(386) 274-1447",
    "address": " 1901 Mason Ave  Daytona Beach, FL 32117",
    "location": "Volusia"
  },
  {
    "name": "DME Visual",
    "description": "Printing Services",
    "phone": "(904) 940-8500",
    "address": " 1640 Mason Avenue  Daytona Beach, FL 32117",
    "location": "Volusia"
  },
  {
    "name": "Southeastern Lighting Solutions",
    "description": "Signs",
    "phone": "(386) 238-1711",
    "address": " 821 Fentress Ct  Daytona Beach, FL 32117",
    "location": "Volusia"
  },
  {
    "name": "Alloftheabove",
    "description": "Direct Mail Advertising",
    "phone": "(386) 234-5937",
    "address": " 1409 Forest Ave  Daytona Beach, FL 32117",
    "location": "Volusia"
  },
  {
    "name": "Print Art Screen Printing",
    "description": "Printers-Screen Printing",
    "phone": "(386) 258-5186",
    "address": " 340 marion st  Daytona Beach, FL 32114",
    "location": "Volusia"
  },
  {
    "name": "Federal Heath",
    "description": "Signs",
    "phone": "(386) 255-1901",
    "address": " 1128 Beville Rd Ste E  Daytona Beach, FL 32114",
    "location": "Volusia"
  },
  {
    "name": "FASTSIGNS",
    "description": "Signs",
    "phone": "(386) 256-4784",
    "address": " 1025 N Nova Rd  Daytona Beach, FL 32117",
    "location": "Volusia"
  },
  {
    "name": "Lott's Productions",
    "description": "Internet Marketing & Advertising",
    "phone": "(386) 255-8282",
    "address": " 1413 Golfview Dr  Daytona Beach, FL 32114",
    "location": "Volusia"
  },
  {
    "name": "P J Sign Systems",
    "description": "Signs",
    "phone": "(386) 257-4522",
    "address": " 614 Fern Ave  Daytona Beach, FL 32117",
    "location": "Volusia"
  },
  {
    "name": "Signs Now Daytona",
    "description": "Signs",
    "phone": "(386) 238-5507",
    "address": " 1440 N Nova Rd Suite 308/309  Daytona Beach, FL 32117",
    "location": "Volusia"
  },
  {
    "name": "Fair-Way Sign Corporation",
    "description": "Signs",
    "phone": "(386) 253-2300",
    "address": " 418 Fremont Ave Bldg C  Daytona Beach, FL 32114",
    "location": "Volusia"
  },
  {
    "name": "Coastline Signs & Leds",
    "description": "Signs",
    "phone": "(386) 238-6200",
    "address": " 532 N Segrave St  Daytona Beach, FL 32114",
    "location": "Volusia"
  },
  {
    "name": "Action Signs D esigns Inc",
    "description": "Signs",
    "phone": "(386) 238-9159",
    "address": " 530 Mason Ave  Daytona Beach, FL 32117",
    "location": "Volusia"
  },
  {
    "name": "D R Signs",
    "description": "Signs",
    "phone": "(386) 252-2777",
    "address": " 133 Thomasson Ave  Daytona Beach, FL 32117",
    "location": "Volusia"
  },
  {
    "name": "54 Bells., Inc.",
    "description": "Internet Marketing & Advertising",
    "phone": "(800) 385-7404",
    "address": " 852 S Palmetto Ave  Daytona Beach, FL 32114",
    "location": "Volusia"
  },
  {
    "name": "Inform Print & Promotions",
    "description": "Advertising-Promotional Products",
    "phone": "(386) 252-5766",
    "address": " 1209 S Ridgewood Ave  Daytona Beach, FL 32114",
    "location": "Volusia"
  },
  {
    "name": "Experts Digital Solutions, LLC",
    "description": "Print Advertising",
    "phone": "(386) 868-3365",
    "address": " 140 S Beach St Ste 200  Daytona Beach, FL 32114",
    "location": "Volusia"
  },
  {
    "name": "Getyouranked.com",
    "description": "Internet Marketing & Advertising",
    "phone": "(386) 259-8715",
    "address": " 140 S Beach St  Daytona Beach, FL 32114",
    "location": "Volusia"
  },
  {
    "name": "Zgraph Design & Marketing",
    "description": "Marketing Programs & Services",
    "phone": "(386) 255-5556",
    "address": " 125 Basin St Ste 203  Daytona Beach, FL 32114",
    "location": "Volusia"
  },
  {
    "name": "Coleman Rubber Stamps",
    "description": "Rubber & Plastic Stamps",
    "phone": "(386) 253-1206",
    "address": " 171 Madison Ave  Daytona Beach, FL 32114",
    "location": "Volusia"
  },
  {
    "name": "Signs By Tomorrow",
    "description": "Signs",
    "phone": "(386) 238-5507",
    "address": " 1757 N Nova Rd  Daytona Beach, FL 32117",
    "location": "Volusia"
  },
  {
    "name": "Signs Now",
    "description": "Signs",
    "phone": "(386) 238-5507",
    "address": " 1757 N Nova Rd Ste 112  Daytona Beach, FL 32117",
    "location": "Volusia"
  },
  {
    "name": "Independent Sign & Lighting",
    "description": "Signs",
    "phone": "(386) 748-2460",
    "address": " 2090 S Nova Rd Suite AA18  South Daytona, FL 32119",
    "location": "Volusia"
  },
  {
    "name": "D M V High Impact Mail",
    "description": "Direct Mail Advertising",
    "phone": "(386) 256-3823",
    "address": " 1027 N Nova Rd Ste 110  Holly Hill, FL 32117",
    "location": "Volusia"
  },
  {
    "name": "Premiums Promotions and Imports",
    "description": "Advertising-Promotional Products",
    "phone": "(386) 258-1900",
    "address": " 952 Big Tree Rd  South Daytona, FL 32119",
    "location": "Volusia"
  },
  {
    "name": "Wishworks Media",
    "description": "Business Cards",
    "phone": "(386) 308-3986",
    "address": " 669 Beville Rd Fl 32119  South Daytona, FL 32119",
    "location": "Volusia"
  },
  {
    "name": "CRAVE Marketing & Social Media Solutions - $99 Website*",
    "description": "Internet Marketing & Advertising",
    "phone": "(386) 746-7578",
    "address": " US Hwy 1  South Daytona, FL 32119",
    "location": "Volusia"
  },
  {
    "name": "Side Effects Custom Wraps",
    "description": "Graphic Designers",
    "phone": "(386) 333-9906",
    "address": " 1842 S Segrave St  South Daytona, FL 32119",
    "location": "Volusia"
  },
  {
    "name": "Your Web Programming Department Inc.",
    "description": "Internet Marketing & Advertising",
    "phone": "(386) 868-2965",
    "address": " 939 Ridgewood Ave  Daytona beach, FL 32117",
    "location": "Volusia"
  },
  {
    "name": "almighty signs",
    "description": "Boat Painting & Lettering",
    "phone": "(386) 256-9059",
    "address": " 420 mobile ave  daytona beach, FL 32118",
    "location": "Volusia"
  },
  {
    "name": "Copy Cat Printing Center",
    "description": "Business Cards",
    "phone": "(386) 677-6911",
    "address": " 1501 Ridgewood Ave Ste 104  Daytona Beach, FL 32117",
    "location": "Volusia"
  },
  {
    "name": "American Engraving Signs",
    "description": "Engraving",
    "phone": "(386) 252-0246",
    "address": " 560 10th St  Daytona Beach, FL 32117",
    "location": "Volusia"
  },
  {
    "name": "Carlaron Inc",
    "description": "Signs",
    "phone": "(386) 258-1183",
    "address": " 421 Ridgewood Ave  Daytona Beach, FL 32117",
    "location": "Volusia"
  }
]
