[
  {
    "name": "Jordan Crossing Sign Shop",
    "description": "Signs",
    "phone": "(850) 926-5188",
    "address": " 22 Leslie Cir  Crawfordville, FL 32327",
    "location": "Wakulla"
  },
  {
    "name": "R L B Construction Conslnt",
    "description": "Advertising Agencies",
    "phone": "(850) 926-7761",
    "address": " PO Box 1573  Crawfordville, FL 32326",
    "location": "Wakulla"
  },
  {
    "name": "Wakulla Sign Co",
    "description": "Signs",
    "phone": "(850) 421-2301",
    "address": " 466 Woodville Hwy  Crawfordville, FL 32327",
    "location": "Wakulla"
  },
  {
    "name": "G-Signs",
    "description": "Signs",
    "phone": "(850) 926-1601",
    "address": " 3055 Crawfordville Hwy  Crawfordville, FL 32327",
    "location": "Wakulla"
  },
  {
    "name": "Modern Mailers",
    "description": "Direct Mail Advertising",
    "phone": "(850) 745-6397",
    "address": " 933 Whiddon Lake Rd  Crawfordville, FL 32327",
    "location": "Wakulla"
  },
  {
    "name": "Simply Done Marketing",
    "description": "Internet Marketing & Advertising",
    "phone": "(850) 228-5110",
    "address": " 1884 Woodville Hwy  Crawfordville, FL 32327",
    "location": "Wakulla"
  },
  {
    "name": "PrestigiousCreations",
    "description": "Advertising Specialties",
    "phone": "(850) 544-7884",
    "address": " 89 Tickie Ridge Cir  Crawfordville, FL 32327",
    "location": "Wakulla"
  },
  {
    "name": "Emerald Coast Striping",
    "description": "Signs",
    "phone": "(850) 574-3831",
    "address": " 4454 Entrepot Blvd.  Tallahassee, FL 32310",
    "location": "Wakulla"
  },
  {
    "name": "Lamar Advertising Co",
    "description": "Advertising Agencies",
    "phone": "(850) 877-4184",
    "address": " 4706 Capital Cir SW  Tallahassee, FL 32305",
    "location": "Wakulla"
  },
  {
    "name": "Prime Digital Network",
    "description": "Advertising Agencies",
    "phone": "(850) 320-6396",
    "address": " 3712 Crawfordville Rd  Tallahassee, FL 32305",
    "location": "Wakulla"
  },
  {
    "name": "Pruitt Humphress Powers & Munroe",
    "description": "Advertising Agencies",
    "phone": "(850) 222-1212",
    "address": " 25 Saint Marks Rivers Edge Dr  Crawfordville, FL 32327",
    "location": "Wakulla"
  },
  {
    "name": "My-Omni-Shop.com",
    "description": "Internet Marketing & Advertising",
    "phone": "(850) 760-7177",
    "address": " 3927 Crawfordville Rd  Tallahassee, FL 32305",
    "location": "Wakulla"
  },
  {
    "name": "Dice Promotions",
    "description": "Advertising Specialties",
    "phone": "(850) 597-7081",
    "address": " 4013 Woodville Hwy  Tallahassee, FL 32305",
    "location": "Wakulla"
  },
  {
    "name": "Myflorida.com",
    "description": "Internet Marketing & Advertising",
    "phone": "(850) 487-4196",
    "address": " 4050 Esplanade Way  Tallahassee, FL 32311",
    "location": "Wakulla"
  },
  {
    "name": "Florida Logos Inc",
    "description": "Signs",
    "phone": "(850) 656-5933",
    "address": " 4706 Capital Cir SW  Tallahassee, FL 32305",
    "location": "Wakulla"
  },
  {
    "name": "Durra-Print",
    "description": "Advertising Agencies",
    "phone": "(850) 583-6395",
    "address": " 3044 W Tharpe St  Tallahassee, FL 32303",
    "location": "Wakulla"
  },
  {
    "name": "Express Printing, Mailing & Copying",
    "description": "Printing Services-Commercial",
    "phone": "(850) 222-9777",
    "address": " 927 N Monroe St  Tallahassee, FL 32303",
    "location": "Wakulla"
  },
  {
    "name": "Goodson J S & Partners Advertising",
    "description": "Advertising Agencies",
    "phone": "(850) 878-2322",
    "address": " 1351 E Lafayette St  Tallahassee, FL 32301",
    "location": "Wakulla"
  },
  {
    "name": "Thinkcreative",
    "description": "Advertising Agencies",
    "phone": "(850) 656-7050",
    "address": " 304 W College Ave  Tallahassee, FL 32301",
    "location": "Wakulla"
  },
  {
    "name": "STREET ADVERTISING...",
    "description": "Advertising Agencies",
    "phone": "(850) 274-3153",
    "address": " 480 W Tennessee St  Tallahassee, FL 32301",
    "location": "Wakulla"
  },
  {
    "name": "Gelhardt Graphics",
    "description": "Advertising Agencies",
    "phone": "(850) 877-6185",
    "address": " 902 Brookwood Dr  Tallahassee, FL 32308",
    "location": "Wakulla"
  },
  {
    "name": "Florida Outdoor Advertising Association",
    "description": "Advertising Agencies",
    "phone": "(850) 224-5838",
    "address": " 314 N Gadsden St  Tallahassee, FL 32301",
    "location": "Wakulla"
  },
  {
    "name": "The Social Source, LLC",
    "description": "Advertising Agencies",
    "phone": "(850) 273-8439",
    "address": " 799 W Gaines St  Tallahassee, FL 32304",
    "location": "Wakulla"
  },
  {
    "name": "Moxxi Marketing",
    "description": "Advertising Agencies",
    "phone": "(239) 330-6236",
    "address": " 300 W Pensacola St  Tallahassee, FL 32301",
    "location": "Wakulla"
  },
  {
    "name": "223 Agency",
    "description": "Advertising Agencies",
    "phone": "(833) 850-8324",
    "address": " 223 W Carolina St  Tallahassee, FL 32301",
    "location": "Wakulla"
  },
  {
    "name": "LocaliQ",
    "description": "Advertising Agencies",
    "phone": "(877) 525-6084",
    "address": " 277 N Magnolia Dr  Tallahassee, FL 32301",
    "location": "Wakulla"
  },
  {
    "name": "Reach America Media",
    "description": "Advertising Agencies",
    "phone": "(850) 273-8473",
    "address": " 835 E Park Ave  Tallahassee, FL 32301",
    "location": "Wakulla"
  },
  {
    "name": "Perez Lynch & Partners Inc",
    "description": "Advertising Agencies",
    "phone": "(850) 224-7204",
    "address": " 738 E Park Ave  Tallahassee, FL 32301",
    "location": "Wakulla"
  },
  {
    "name": "Sammons Media",
    "description": "Advertising Agencies",
    "phone": "(850) 671-4371",
    "address": " 313 Williams St  Tallahassee, FL 32303",
    "location": "Wakulla"
  },
  {
    "name": "Eighty 8 Solutions",
    "description": "Advertising Agencies",
    "phone": "(448) 488-9690",
    "address": " 1020 E Lafayette St  Tallahassee, FL 32301",
    "location": "Wakulla"
  },
  {
    "name": "Clec Itc Deltacom-4616",
    "description": "Advertising Agencies",
    "phone": "(850) 656-7050",
    "address": " 304 W College Ave  Tallahassee, FL 32301",
    "location": "Wakulla"
  },
  {
    "name": "Sachs Media Group",
    "description": "Advertising Agencies",
    "phone": "(850) 222-1996",
    "address": " 114 S Duval St  Tallahassee, FL 32301",
    "location": "Wakulla"
  },
  {
    "name": "St John & Partners",
    "description": "Advertising Agencies",
    "phone": "(850) 656-4236",
    "address": " 250 Marriott Dr  Tallahassee, FL 32399",
    "location": "Wakulla"
  },
  {
    "name": "Ppk",
    "description": "Advertising Agencies",
    "phone": "(850) 329-2109",
    "address": " 725 E Park Ave  Tallahassee, FL 32301",
    "location": "Wakulla"
  },
  {
    "name": "Captiveyes Inc",
    "description": "Advertising Agencies",
    "phone": "(850) 391-0752",
    "address": " 835 E Park Ave  Tallahassee, FL 32301",
    "location": "Wakulla"
  },
  {
    "name": "Pod Advertising",
    "description": "Advertising Agencies",
    "phone": "(850) 597-8374",
    "address": " 124 Marriott Dr  Tallahassee, FL 32301",
    "location": "Wakulla"
  },
  {
    "name": "Hull Stephen D Inc",
    "description": "Advertising Agencies",
    "phone": "(850) 681-8535",
    "address": " 811 E Call St  Tallahassee, FL 32301",
    "location": "Wakulla"
  },
  {
    "name": "Hubze Inc",
    "description": "Advertising Agencies",
    "phone": "(850) 597-8077",
    "address": " 501 E Tennessee St Ste D  Tallahassee, FL 32308",
    "location": "Wakulla"
  },
  {
    "name": "Cuneo Creative Consultants",
    "description": "Advertising Agencies",
    "phone": "(850) 402-0027",
    "address": " 1406 Hays St Ste 1  Tallahassee, FL 32301",
    "location": "Wakulla"
  },
  {
    "name": "Nuance Agency",
    "description": "Advertising Agencies",
    "phone": "(850) 524-3129",
    "address": " 313 Williams St  Tallahassee, FL 32303",
    "location": "Wakulla"
  },
  {
    "name": "Tallahassee Advertising",
    "description": "Advertising Agencies",
    "phone": "(850) 728-4322",
    "address": " 1311 Executive Center Dr  Tallahassee, FL 32301",
    "location": "Wakulla"
  },
  {
    "name": "National-Marketplace.com",
    "description": "Advertising Agencies",
    "phone": "(850) 276-9894",
    "address": " 480 W Tennessee St  Tallahassee, FL 32301",
    "location": "Wakulla"
  },
  {
    "name": "Adventures In Advertising",
    "description": "Advertising Agencies",
    "phone": "(850) 224-6819",
    "address": " 292 N Magnolia Dr  Tallahassee, FL 32301",
    "location": "Wakulla"
  },
  {
    "name": "Adventures in Advertising",
    "description": "Advertising Agencies",
    "phone": "(850) 224-6819",
    "address": " 507 Concord Rd  Tallahassee, FL 32308",
    "location": "Wakulla"
  },
  {
    "name": "Specialty Sportswear & Promotions LLC",
    "description": "Advertising Agencies",
    "phone": "(850) 350-3723",
    "address": " 1500 Capital Cir SE  Tallahassee, FL 32301",
    "location": "Wakulla"
  },
  {
    "name": "The Pod Advertising",
    "description": "Advertising Agencies",
    "phone": "(850) 597-8374",
    "address": " 502 E Park Ave  Tallahassee, FL 32301",
    "location": "Wakulla"
  },
  {
    "name": "TCB Marketing",
    "description": "Advertising Agencies",
    "phone": "(850) 574-6758",
    "address": " 2818 S Monroe St  Tallahassee, FL 32301",
    "location": "Wakulla"
  },
  {
    "name": "ALCOM, Inc.",
    "description": "Advertising Agencies",
    "phone": "(850) 385-7762",
    "address": " 508 Capital Cir SE Ste D3  Tallahassee, FL 32301",
    "location": "Wakulla"
  },
  {
    "name": "Bidavilla Com",
    "description": "Advertising Agencies",
    "phone": "(850) 383-8587",
    "address": " 903 N Monroe St  Tallahassee, FL 32303",
    "location": "Wakulla"
  },
  {
    "name": "Speed Promotions",
    "description": "Advertising Agencies",
    "phone": "(850) 405-0596",
    "address": " 702 Stafford St  Tallahassee, FL 32305",
    "location": "Wakulla"
  },
  {
    "name": "Visual Solutions",
    "description": "Advertising Specialties",
    "phone": "(850) 224-4252",
    "address": " 1105 N Monroe St  Tallahassee, FL 32303",
    "location": "Wakulla"
  },
  {
    "name": "Super Signs",
    "description": "Signs-Erectors & Hangers",
    "phone": "(850) 422-1883",
    "address": " 1706 The Capitol Suite 1  Tallahassee, FL 32399",
    "location": "Wakulla"
  },
  {
    "name": "Bill's Signs & Service Inc",
    "description": "Signs-Maintenance & Repair",
    "phone": "(850) 576-6847",
    "address": " 5765 Mandy Ln  Tallahassee, FL 32304",
    "location": "Wakulla"
  },
  {
    "name": "Eyecatcher Signs Graphics",
    "description": "Signs",
    "phone": "(850) 574-7446",
    "address": " 2622 W Tennessee St  Tallahassee, FL 32304",
    "location": "Wakulla"
  },
  {
    "name": "Clothesline",
    "description": "Embroidery",
    "phone": "(850) 877-9171",
    "address": " 1369 E Lafayette St Ste A  Tallahassee, FL 32301",
    "location": "Wakulla"
  },
  {
    "name": "Signarama Tallahassee, FL",
    "description": "Signs",
    "phone": "(850) 656-3200",
    "address": " 897 N Monroe St  Tallahassee, FL 32303",
    "location": "Wakulla"
  },
  {
    "name": "Signs Now",
    "description": "Signs",
    "phone": "(850) 383-6500",
    "address": " 1551 Capital Cir SE Ste 6  Tallahassee, FL 32301",
    "location": "Wakulla"
  },
  {
    "name": "Target Copy",
    "description": "Printing Services",
    "phone": "(850) 224-3007",
    "address": " 635 W Tennessee St  Tallahassee, FL 32304",
    "location": "Wakulla"
  },
  {
    "name": "Full Moon Signs & Graphics",
    "description": "Signs",
    "phone": "(850) 877-6683",
    "address": " 2836 Industrial Plaza Dr  Tallahassee, FL 32301",
    "location": "Wakulla"
  },
  {
    "name": "Lithohaus Printers Inc",
    "description": "Direct Mail Advertising",
    "phone": "(850) 671-6600",
    "address": " 2843 Industrial Plaza Dr  Tallahassee, FL 32301",
    "location": "Wakulla"
  },
  {
    "name": "ROI Town",
    "description": "Internet Marketing & Advertising",
    "phone": "(850) 566-4990",
    "address": " 304 N Meridian St Apt 6  Tallahassee, FL 32301",
    "location": "Wakulla"
  },
  {
    "name": "Tallahassee Democrat",
    "description": "Printing Services-Commercial",
    "phone": "(850) 599-2100",
    "address": " 277 N Magnolia Dr  Tallahassee, FL 32301",
    "location": "Wakulla"
  },
  {
    "name": "Web Traffic Consultants",
    "description": "Internet Marketing & Advertising",
    "phone": "(850) 325-0791",
    "address": " 206 Grace St  Tallahassee, FL 32301",
    "location": "Wakulla"
  },
  {
    "name": "Sauls Signs",
    "description": "Signs",
    "phone": "(850) 222-0975",
    "address": " 810 S M L King Jr Blvd  Tallahassee, FL 32301",
    "location": "Wakulla"
  },
  {
    "name": "Sign Solutions Inc",
    "description": "Signs",
    "phone": "(850) 562-7446",
    "address": " 220 N Duval St  Tallahassee, FL 32301",
    "location": "Wakulla"
  },
  {
    "name": "MS Sign",
    "description": "Signs",
    "phone": "(850) 656-6256",
    "address": " 1325 Mahan Dr  Tallahassee, FL 32308",
    "location": "Wakulla"
  },
  {
    "name": "Old Elpaso Coffee Co",
    "description": "Direct Mail Advertising",
    "phone": "(850) 402-0119",
    "address": " 1540 Pine Forest Dr  Tallahassee, FL 32301",
    "location": "Wakulla"
  },
  {
    "name": "Modular Mailing Systems Inc",
    "description": "Direct Mail Advertising",
    "phone": "(850) 402-1647",
    "address": " 1891 Capital Cir SE  Tallahassee, FL 32301",
    "location": "Wakulla"
  },
  {
    "name": "Tallahasseelocals.Com",
    "description": "Internet Marketing & Advertising",
    "phone": "(850) 405-5993",
    "address": " 1200 Tampa Dr  Tallahassee, FL 32311",
    "location": "Wakulla"
  },
  {
    "name": "GulfStar Innovations, LLC",
    "description": "Internet Marketing & Advertising",
    "phone": "(352) 587-2940",
    "address": " 75 N Woodward Ave # 8000-1738  Tallahassee, FL 32313",
    "location": "Wakulla"
  },
  {
    "name": "Velocity Online",
    "description": "Internet Marketing & Advertising",
    "phone": "(850) 205-4638",
    "address": " 215 W Carolina St  Tallahassee, FL 32301",
    "location": "Wakulla"
  },
  {
    "name": "Ziffer Stansberrv Advertising & Public Relations",
    "description": "Public Relations Counselors",
    "phone": "(850) 668-0010",
    "address": " 3166 Baringer Hill Dr  Tallahassee, FL 32311",
    "location": "Wakulla"
  },
  {
    "name": "Clutch Enterprises",
    "description": "Advertising Specialties",
    "phone": "(850) 549-9272",
    "address": " 2903 Jim Lee Rd  Tallahassee, FL 32301",
    "location": "Wakulla"
  },
  {
    "name": "Signarama",
    "description": "Signs",
    "phone": "(850) 656-3200",
    "address": " 2289 Lake Bradford Rd  Tallahassee, FL 32310",
    "location": "Wakulla"
  },
  {
    "name": "Work for Home",
    "description": "Market Research & Analysis",
    "phone": "(850) 320-8554",
    "address": " 1201 Blairstone Rd  Tallahassee, FL 32301",
    "location": "Wakulla"
  },
  {
    "name": "EMG Design & Printing",
    "description": "Business Cards",
    "phone": "(850) 553-1299",
    "address": " 2312 Apalachee Pkwy Ste 3  Tallahassee, FL 32301",
    "location": "Wakulla"
  },
  {
    "name": "Eyecatcher Signs Graphics Engravers & Screenprinting",
    "description": "Signs",
    "phone": "(850) 574-7746",
    "address": " 2262 W Tennessee St  Tallahassee, FL 32304",
    "location": "Wakulla"
  },
  {
    "name": "Alcom Marketing & Advertising",
    "description": "Advertising Specialties",
    "phone": "(850) 385-7762",
    "address": " 508 Capital Cir SE  Tallahassee, FL 32301",
    "location": "Wakulla"
  },
  {
    "name": "Signs By Tomorrow",
    "description": "Signs",
    "phone": "(850) 383-6500",
    "address": " 500 Capital Cir SE  Tallahassee, FL 32301",
    "location": "Wakulla"
  },
  {
    "name": "Ansun",
    "description": "Advertising Specialties",
    "phone": "(850) 345-5608",
    "address": " 800 Ocala Rd  Tallahassee, FL 32304",
    "location": "Wakulla"
  },
  {
    "name": "Ad-Max",
    "description": "Advertising Specialties",
    "phone": "(850) 309-1400",
    "address": " 2940 E Park Ave Ste C  Tallahassee, FL 32301",
    "location": "Wakulla"
  },
  {
    "name": "Sign Design Promotions",
    "description": "Advertising Specialties",
    "phone": "(850) 320-6120",
    "address": " 831 N Monroe St  Tallahassee, FL 32303",
    "location": "Wakulla"
  },
  {
    "name": "Ragz",
    "description": "Screen Printing",
    "phone": "(850) 656-1223",
    "address": " 2827 Industrial Plaza Dr  Tallahassee, FL 32301",
    "location": "Wakulla"
  },
  {
    "name": "Target Print & Mall",
    "description": "Printing Services-Commercial",
    "phone": "(850) 671-6600",
    "address": " 2843 Industrial Plaza Dr  Tallahassee, FL 32301",
    "location": "Wakulla"
  },
  {
    "name": "Awards4U",
    "description": "Trophies, Plaques & Medals",
    "phone": "(850) 878-7187",
    "address": " 1387 E Lafayette St  Tallahassee, FL 32301",
    "location": "Wakulla"
  },
  {
    "name": "Signs by Design of North Florida, Inc.",
    "description": "Communications Services",
    "phone": "(844) 457-5858",
    "address": " 6766 Circle J Dr  Tallahassee, FL 32312",
    "location": "Wakulla"
  }
]
