[
  {
    "name": "El Nacional Global Media",
    "description": "Advertising Agencies",
    "phone": "(954) 385-1011",
    "address": " 2700 Glades Cir  Weston, FL 33327",
    "location": "Walton"
  },
  {
    "name": "JSI Media",
    "description": "Advertising Agencies",
    "phone": "(954) 729-9058",
    "address": " 647 Cambridge Ter  Weston, FL 33326",
    "location": "Walton"
  },
  {
    "name": "SDH Interactive",
    "description": "Advertising Agencies",
    "phone": "(786) 709-8591",
    "address": " 2100 N Commerce Pkwy  Weston, FL 33326",
    "location": "Walton"
  },
  {
    "name": "Ninety Nine Group",
    "description": "Advertising Agencies",
    "phone": "(954) 424-7132",
    "address": " 1575 N Park Dr Ste 102  Weston, FL 33326",
    "location": "Walton"
  },
  {
    "name": "Boca Advertising",
    "description": "Advertising Agencies",
    "phone": "(954) 302-1844",
    "address": " 124 Glades Cir Ste 139  Weston, FL 33327",
    "location": "Walton"
  },
  {
    "name": "Prime Med Inc",
    "description": "Advertising Agencies",
    "phone": "(954) 384-7646",
    "address": " 681 Spinnaker  Weston, FL 33326",
    "location": "Walton"
  },
  {
    "name": "Pharma Health Group",
    "description": "Advertising Agencies",
    "phone": "(954) 218-5627",
    "address": " 1725 Main St  Weston, FL 33326",
    "location": "Walton"
  },
  {
    "name": "Inmedia Consulting Inc",
    "description": "Advertising Agencies",
    "phone": "(954) 659-9159",
    "address": " 981 Waterside Cir  Weston, FL 33327",
    "location": "Walton"
  },
  {
    "name": "American Traders Enterprise Inc",
    "description": "Advertising Agencies",
    "phone": "(954) 888-9206",
    "address": " 304 Indian Trce  Weston, FL 33326",
    "location": "Walton"
  },
  {
    "name": "EZ Print & Marketing",
    "description": "Advertising Agencies",
    "phone": "(954) 835-5735",
    "address": " 2025 Sacramento  Weston, FL 33326",
    "location": "Walton"
  },
  {
    "name": "Iconic Promotions",
    "description": "Advertising Agencies",
    "phone": "(954) 385-4771",
    "address": " 657 Racquet Club Rd  Weston, FL 33326",
    "location": "Walton"
  },
  {
    "name": "Dcc Digital Cnvrgnccnsltng",
    "description": "Advertising Agencies",
    "phone": "(954) 389-6366",
    "address": " 19165 N Gardenia Ave  Weston, FL 33332",
    "location": "Walton"
  },
  {
    "name": "Adhangersusa, Inc.",
    "description": "Advertising Agencies",
    "phone": "(954) 249-2493",
    "address": " 1870 N Corporate Lakes Blvd Unit 266703  Weston, FL 33326",
    "location": "Walton"
  },
  {
    "name": "Miros Consulting Inc.",
    "description": "Advertising Agencies",
    "phone": "(954) 449-8705",
    "address": " 1500 Weston Rd  Weston, FL 33326",
    "location": "Walton"
  },
  {
    "name": "Next 1 Interactive",
    "description": "Advertising Agencies",
    "phone": "(954) 888-9779",
    "address": " 2690 Weston Rd  Weston, FL 33331",
    "location": "Walton"
  },
  {
    "name": "locomotif",
    "description": "Advertising Agencies",
    "phone": "(305) 791-7302",
    "address": " 2893 Executive Park Dr  Weston, FL 33331",
    "location": "Walton"
  },
  {
    "name": "Tanasi Enterprises Network",
    "description": "Advertising Agencies",
    "phone": "(754) 216-8318",
    "address": " 4405 Magnolia Ridge Dr  Weston, FL 33331",
    "location": "Walton"
  },
  {
    "name": "THE ROCK OF PANAMA CITY INC",
    "description": "Advertising Agencies",
    "phone": "(954) 465-5839",
    "address": " 2600 Glades Cir Ste 700  Weston, FL 33327",
    "location": "Walton"
  },
  {
    "name": "Picaro Services Inc",
    "description": "Advertising Agencies",
    "phone": "(954) 385-3823",
    "address": " 2900 Glades Cir  Weston, FL 33327",
    "location": "Walton"
  },
  {
    "name": "Emc Management",
    "description": "Advertising Agencies",
    "phone": "(954) 385-3485",
    "address": " 16405 Diamond Pl  Weston, FL 33331",
    "location": "Walton"
  },
  {
    "name": "Visibility Advice",
    "description": "Advertising Agencies",
    "phone": "(954) 614-1190",
    "address": " 682 Verona Ct  Weston, FL 33326",
    "location": "Walton"
  },
  {
    "name": "marketyourcorp.com | MYC, LLC",
    "description": "Advertising Agencies",
    "phone": "(954) 916-9800",
    "address": " 2200 N Commerce Pkwy  Weston, FL 33326",
    "location": "Walton"
  },
  {
    "name": "Thrust",
    "description": "Advertising Agencies",
    "phone": "(754) 247-6605",
    "address": " 1274 Waterview Ct  Weston, FL 33326",
    "location": "Walton"
  },
  {
    "name": "Linked By Design",
    "description": "Advertising Agencies",
    "phone": "(954) 856-2070",
    "address": " 2200 N Commerce Pkwy  Weston, FL 33326",
    "location": "Walton"
  },
  {
    "name": "All About Marketing Online, Inc.",
    "description": "Advertising Agencies",
    "phone": "(954) 993-5884",
    "address": " 4084 Pine Ridge Ln  Weston, FL 33331",
    "location": "Walton"
  },
  {
    "name": "Signs at Weston",
    "description": "Advertising Agencies",
    "phone": "(954) 306-4243",
    "address": " 2950 Glades Cir  Weston, FL 33327",
    "location": "Walton"
  },
  {
    "name": "Singer Scott Marketing Group Inc",
    "description": "Advertising Agencies",
    "phone": "(954) 217-2204",
    "address": " 3190 Willow Ln  Weston, FL 33331",
    "location": "Walton"
  },
  {
    "name": "Caption Media",
    "description": "Advertising Agencies",
    "phone": "(754) 300-1800",
    "address": " 1565 N Park Dr Ste 104  Weston, FL 33326",
    "location": "Walton"
  },
  {
    "name": "Marketing Group",
    "description": "Advertising Agencies",
    "phone": "(954) 384-1130",
    "address": " 2900 Glades Cir  Weston, FL 33327",
    "location": "Walton"
  },
  {
    "name": "Digital World International",
    "description": "Advertising Specialties",
    "phone": "(954) 384-8879",
    "address": " 1555 bonaventure blvd suite 1009  Weston, FL 33326",
    "location": "Walton"
  },
  {
    "name": "Cynsational - Marketing and Promotions",
    "description": "Advertising-Promotional Products",
    "phone": "(954) 661-8879",
    "address": " 1569 Sandpiper Cir  Weston, FL 33327",
    "location": "Walton"
  },
  {
    "name": "FedEx Office Print & Ship Center",
    "description": "Copying & Duplicating Service",
    "phone": "(954) 349-1682",
    "address": " 1548 Weston Rd  Weston, FL 33326",
    "location": "Walton"
  },
  {
    "name": "FASTSIGNS",
    "description": "Signs",
    "phone": "(954) 280-3102",
    "address": " 1649 Bonaventure Blvd  Weston, FL 33326",
    "location": "Walton"
  },
  {
    "name": "We Know Consulting LLC",
    "description": "Internet Marketing & Advertising",
    "phone": "(954) 790-7087",
    "address": " 1390 Victoria Isle Dr  Weston, FL 33327",
    "location": "Walton"
  },
  {
    "name": "Optimize InsideOut Media",
    "description": "Internet Marketing & Advertising",
    "phone": "(954) 224-2726",
    "address": " 682 Verona Ct  Weston, FL 33326",
    "location": "Walton"
  },
  {
    "name": "SpeedPro Imaging FT Lauderdale",
    "description": "Copying & Duplicating Service",
    "phone": "(954) 888-6303",
    "address": " 1776 N Commerce Pkwy  Weston, FL 33326",
    "location": "Walton"
  },
  {
    "name": "Mail Terminal Service",
    "description": "Direct Mail Advertising",
    "phone": "(954) 385-5899",
    "address": " 2700 S Commerce Pkwy  Weston, FL 33331",
    "location": "Walton"
  },
  {
    "name": "Postal Center International, Inc",
    "description": "Mail & Shipping Services",
    "phone": "(954) 321-5644",
    "address": " 2965 W Corporate Lakes Blvd  Weston, FL 33331",
    "location": "Walton"
  },
  {
    "name": "BlueWhale Marketing Group, Inc.",
    "description": "Internet Marketing & Advertising",
    "phone": "(800) 930-7413",
    "address": " 304 Indian Trce Suite 177  weston, FL 33326",
    "location": "Walton"
  },
  {
    "name": "MARKETING ASSISTANCE, INC.",
    "description": "Internet Marketing & Advertising",
    "phone": "(772) 341-0802",
    "address": " 1237 Seagrape Cir  Weston, FL 33326",
    "location": "Walton"
  },
  {
    "name": "Freeme-Up.com",
    "description": "Internet Marketing & Advertising",
    "phone": "(786) 766-4686",
    "address": " 1870 N Corporate Lakes Blvd  Weston, FL 33326",
    "location": "Walton"
  },
  {
    "name": "Cfbnetwork.com Inc",
    "description": "Internet Marketing & Advertising",
    "phone": "(954) 838-0084",
    "address": " 1565 N Park Dr  Weston, FL 33326",
    "location": "Walton"
  },
  {
    "name": "Equalcom",
    "description": "Internet Marketing & Advertising",
    "phone": "(954) 384-8555",
    "address": " 1960 N Commerce Pkwy  Weston, FL 33326",
    "location": "Walton"
  },
  {
    "name": "Gedi Web Solutions",
    "description": "Internet Marketing & Advertising",
    "phone": "(954) 636-3132",
    "address": " 4202 Staghorn Ln  Weston, FL 33331",
    "location": "Walton"
  },
  {
    "name": "Porte Marketing Group",
    "description": "Internet Marketing & Advertising",
    "phone": "(954) 389-4777",
    "address": " 3520 Paddock Rd  Weston, FL 33331",
    "location": "Walton"
  },
  {
    "name": "Tenek",
    "description": "Internet Marketing & Advertising",
    "phone": "(832) 246-9350",
    "address": " 4120 Palmetto Trl  Weston, FL 33331",
    "location": "Walton"
  },
  {
    "name": "Exit Node Corp",
    "description": "Web Site Design & Services",
    "phone": "(352) 217-3327",
    "address": " 2339 Cordoba Bnd  Weston, FL 33327",
    "location": "Walton"
  },
  {
    "name": "Media Works",
    "description": "Internet Marketing & Advertising",
    "phone": "(954) 389-9960",
    "address": " 2800 Glades Cir  Weston, FL 33327",
    "location": "Walton"
  },
  {
    "name": "Innovative Incentive",
    "description": "Advertising-Promotional Products",
    "phone": "(954) 384-1124",
    "address": " 2807 Oakbrook Ln  Weston, FL 33332",
    "location": "Walton"
  },
  {
    "name": "Windmill Advertising Group",
    "description": "Advertising Specialties",
    "phone": "(954) 385-1350",
    "address": " 1675 N Commerce Pkwy  Weston, FL 33326",
    "location": "Walton"
  },
  {
    "name": "Speedpro Imaging",
    "description": "Digital Printing & Imaging",
    "phone": "(954) 889-1371",
    "address": " 1776 N Commerce Pkwy  Weston, FL 33326",
    "location": "Walton"
  },
  {
    "name": "Cynsational Dreams",
    "description": "Advertising Specialties",
    "phone": "(954) 217-8879",
    "address": " 355 Fairway Cir  Weston, FL 33326",
    "location": "Walton"
  },
  {
    "name": "Sign Creations",
    "description": "Signs",
    "phone": "(954) 846-7763",
    "address": " 2700 Glades Cir  Weston, FL 33327",
    "location": "Walton"
  },
  {
    "name": "Moroch Partners",
    "description": "Advertising Agencies",
    "phone": "(954) 921-0625",
    "address": " 365 W Riverbend Dr  Sunrise, FL 33326",
    "location": "Walton"
  },
  {
    "name": "Rm Sales & Consulting",
    "description": "Advertising Agencies",
    "phone": "(954) 370-7197",
    "address": " 14350 SW 23rd St  Davie, FL 33325",
    "location": "Walton"
  },
  {
    "name": "Everglades Direct Inc",
    "description": "Advertising Agencies",
    "phone": "(954) 514-2112",
    "address": " 720 International Pkwy  Sunrise, FL 33325",
    "location": "Walton"
  },
  {
    "name": "Hersey Productions.Com",
    "description": "Advertising Agencies",
    "phone": "(954) 472-7890",
    "address": " 13901 SW 31st St  Davie, FL 33330",
    "location": "Walton"
  },
  {
    "name": "COLOR STOCK - MARKETING MEDIA",
    "description": "Advertising Agencies",
    "phone": "(888) 909-0981",
    "address": " 4474 Weston Rd  Davie, FL 33331",
    "location": "Walton"
  },
  {
    "name": "MDT Marketing",
    "description": "Advertising Agencies",
    "phone": "(954) 764-6910",
    "address": " 15471 SW 12th St  Sunrise, FL 33326",
    "location": "Walton"
  },
  {
    "name": "Allied Specialty Co",
    "description": "Advertising Agencies",
    "phone": "(954) 252-8570",
    "address": " 4817 Grapevine Way  Davie, FL 33331",
    "location": "Walton"
  },
  {
    "name": "thelogoboutique.com",
    "description": "Advertising Agencies",
    "phone": "(954) 636-1437",
    "address": " 15970 W State Road 84 # 125  Sunrise, FL 33326",
    "location": "Walton"
  },
  {
    "name": "Fill Your Tables",
    "description": "Internet Marketing & Advertising",
    "phone": "(954) 526-7424",
    "address": " 4474 Weston Rd # 330  Davie, FL 33331",
    "location": "Walton"
  },
  {
    "name": "Quick Signs",
    "description": "Signs",
    "phone": "(954) 839-5328",
    "address": " 1339 Shotgun Rd  Sunrise, FL 33326",
    "location": "Walton"
  },
  {
    "name": "Marcom Services",
    "description": "Lithographers",
    "phone": "(954) 636-4000",
    "address": " 15431SW 14th Street  Sunrise, FL 33326",
    "location": "Walton"
  },
  {
    "name": "WEB AND GRAPHIC DESIGNER",
    "description": "Internet Marketing & Advertising",
    "phone": "(786) 448-2872",
    "address": " 4410 Weston Rd  Davie, FL 33331",
    "location": "Walton"
  },
  {
    "name": "Progressive Marketing & Management Inc",
    "description": "Advertising Specialties",
    "phone": "(954) 385-0200",
    "address": " 1304 SW 160th Ave  Sunrise, FL 33326",
    "location": "Walton"
  },
  {
    "name": "Phoenix Social Media Inc.",
    "description": "Interactive Media",
    "phone": "(954) 990-4080",
    "address": " 218 E Riverbend Dr  Sunrise, FL 33326",
    "location": "Walton"
  },
  {
    "name": "Tribal Graphic Design",
    "description": "Advertising Agencies",
    "phone": "(954) 559-3492",
    "address": " 2203 SW 173rd Ave  Miramar, FL 33029",
    "location": "Walton"
  },
  {
    "name": "OMG Tow Marketing",
    "description": "Advertising Agencies",
    "phone": "(800) 789-4619",
    "address": " 10200 W State Road 84 Ste 107  Davie, FL 33324",
    "location": "Walton"
  },
  {
    "name": "Just2Creative",
    "description": "Advertising Agencies",
    "phone": "(954) 610-8432",
    "address": " 5941 Cornwall Ln  Davie, FL 33331",
    "location": "Walton"
  },
  {
    "name": "Biz Funk",
    "description": "Advertising Agencies",
    "phone": "(888) 210-3224",
    "address": " 12555 Orange Dr  Davie, FL 33330",
    "location": "Walton"
  },
  {
    "name": "Pure Digital Success Inc.",
    "description": "Advertising Agencies",
    "phone": "(561) 412-5371",
    "address": " 12555 Orange Dr Ste 4180A  Davie, FL 33330",
    "location": "Walton"
  },
  {
    "name": "OMG Promo",
    "description": "Advertising Agencies",
    "phone": "(800) 430-8725",
    "address": " 10200 W State Road 84 Ste 107  Davie, FL 33324",
    "location": "Walton"
  },
  {
    "name": "Vanted Solutions",
    "description": "Advertising Agencies",
    "phone": "(954) 473-8585",
    "address": " 1200 NW 116th Ave  Plantation, FL 33323",
    "location": "Walton"
  },
  {
    "name": "Florida Car Wrap",
    "description": "Advertising Agencies",
    "phone": "(954) 261-8151",
    "address": " 10388 W State Road 84  Davie, FL 33324",
    "location": "Walton"
  },
  {
    "name": "Delbert Baker",
    "description": "Advertising Agencies",
    "phone": "(754) 261-8326",
    "address": " 13051 NW 1st St Apt 11  Pembroke Pines, FL 33028",
    "location": "Walton"
  },
  {
    "name": "Erra Tech Solutions",
    "description": "Advertising Agencies",
    "phone": "(954) 639-7882",
    "address": " 18152 SW 33rd St  Miramar, FL 33029",
    "location": "Walton"
  },
  {
    "name": "Infoage Teksolutions",
    "description": "Advertising Agencies",
    "phone": "(305) 459-1155",
    "address": " 660 Green River Ln  Davie, FL 33325",
    "location": "Walton"
  },
  {
    "name": "Taptobook",
    "description": "Advertising Agencies",
    "phone": "(844) 482-7277",
    "address": " 1571 Sawgrass Corporate Pkwy  Sunrise, FL 33323",
    "location": "Walton"
  },
  {
    "name": "Pohmedia",
    "description": "Advertising Agencies",
    "phone": "(954) 845-9454",
    "address": " 1000 Sawgrass Corporate Pkwy Ste 110  Sunrise, FL 33323",
    "location": "Walton"
  },
  {
    "name": "Roger Deutsch Advertising",
    "description": "Advertising Agencies",
    "phone": "(954) 473-0600",
    "address": " 1761 SW 120th Ter  Davie, FL 33325",
    "location": "Walton"
  },
  {
    "name": "Aerolease Aviation",
    "description": "Advertising Agencies",
    "phone": "(954) 916-4417",
    "address": " 12555 Orange Dr # 126  Davie, FL 33330",
    "location": "Walton"
  },
  {
    "name": "Arena Advertising & Sports Marketing",
    "description": "Advertising Agencies",
    "phone": "(954) 533-8556",
    "address": " 11870 W State Road 84  Davie, FL 33325",
    "location": "Walton"
  },
  {
    "name": "Rand Searchlight Advertising",
    "description": "Advertising Agencies",
    "phone": "(954) 476-7620",
    "address": " 11330 SW 17th St  Davie, FL 33325",
    "location": "Walton"
  },
  {
    "name": "Logdon Consulting Inc",
    "description": "Advertising Agencies",
    "phone": "(954) 693-7852",
    "address": " 10790 Pegasus St  Davie, FL 33324",
    "location": "Walton"
  },
  {
    "name": "David Greenberger Inc",
    "description": "Advertising Agencies",
    "phone": "(954) 472-7147",
    "address": " 10830 NW 18th Ct  Plantation, FL 33322",
    "location": "Walton"
  },
  {
    "name": "R Wayne Associates Inc",
    "description": "Advertising Agencies",
    "phone": "(954) 309-3093",
    "address": " 244 NW 101st Ave  Plantation, FL 33324",
    "location": "Walton"
  },
  {
    "name": "Afo Ofa Inv Group",
    "description": "Advertising Agencies",
    "phone": "(954) 424-8571",
    "address": " 4270 SW 105th Ave  Davie, FL 33328",
    "location": "Walton"
  },
  {
    "name": "Howland Group Inc",
    "description": "Advertising Agencies",
    "phone": "(954) 485-3360",
    "address": " 8820 S Lake Dasha Dr  Plantation, FL 33324",
    "location": "Walton"
  },
  {
    "name": "Lloyd Germanischer Inc",
    "description": "Advertising Agencies",
    "phone": "(954) 474-3349",
    "address": " 1250 S Pine Island Rd Ste 375  Plantation, FL 33324",
    "location": "Walton"
  },
  {
    "name": "Hashtag Digital Marketing Group",
    "description": "Advertising Agencies",
    "phone": "(954) 317-9950",
    "address": " 18501 Pines Blvd Ste 300  Pembroke Pines, FL 33029",
    "location": "Walton"
  },
  {
    "name": "Drive By Digital",
    "description": "Advertising Agencies",
    "phone": "(954) 435-8214",
    "address": " 15100 NW 7th St  Pembroke Pines, FL 33028",
    "location": "Walton"
  },
  {
    "name": "Procomp Consulting Inc",
    "description": "Advertising Agencies",
    "phone": "(954) 436-1645",
    "address": " 17201 SW 12th St  Pembroke Pines, FL 33029",
    "location": "Walton"
  },
  {
    "name": "Maeker Enterprises",
    "description": "Advertising Agencies",
    "phone": "(754) 400-7638",
    "address": " 2074 SW 173rd Ave  Miramar, FL 33029",
    "location": "Walton"
  },
  {
    "name": "Pembroecay2",
    "description": "Advertising Agencies",
    "phone": "(954) 431-6544",
    "address": " 813 SW 143rd Ave  Pembroke Pines, FL 33027",
    "location": "Walton"
  },
  {
    "name": "Emerald Group Associates",
    "description": "Advertising Agencies",
    "phone": "(954) 431-4511",
    "address": " 11054 Neptune Dr  Hollywood, FL 33026",
    "location": "Walton"
  },
  {
    "name": "Abw Global Enterprises",
    "description": "Advertising Agencies",
    "phone": "(954) 367-5310",
    "address": " 3344 SW 180th Way  Miramar, FL 33029",
    "location": "Walton"
  },
  {
    "name": "MOTIONBORG, Inc.",
    "description": "Advertising Agencies",
    "phone": "(954) 441-1049",
    "address": " 1806 N Flamingo Rd  Pembroke Pines, FL 33028",
    "location": "Walton"
  },
  {
    "name": "Local Creative Marketing",
    "description": "Advertising Agencies",
    "phone": "(954) 900-6054",
    "address": " 3225 N Hiatus Rd Unit 451185  Fort Lauderdale, FL 33345",
    "location": "Walton"
  },
  {
    "name": "Prime Takeout",
    "description": "Advertising Agencies",
    "phone": "(954) 404-7070",
    "address": " PO Box 260943  Pembroke Pines, FL 33026",
    "location": "Walton"
  },
  {
    "name": "iHeartMedia",
    "description": "Advertising Agencies",
    "phone": "(954) 862-2000",
    "address": " 1200 SW 145th Ave Ste 350  Pembroke Pines, FL 33027",
    "location": "Walton"
  },
  {
    "name": "Onset Media",
    "description": "Advertising Agencies",
    "phone": "(954) 299-5310",
    "address": " 15751 Sheridan St Ste 418  Southwest Ranches, FL 33331",
    "location": "Walton"
  },
  {
    "name": "Linked Media Marketing",
    "description": "Advertising Agencies",
    "phone": "(786) 553-3167",
    "address": " 3291 SW 186th Ter  Miramar, FL 33029",
    "location": "Walton"
  },
  {
    "name": "OMG National",
    "description": "Advertising Agencies",
    "phone": "(800) 789-4619",
    "address": " 10200 W State Road 84 Ste 107  Davie, FL 33324",
    "location": "Walton"
  },
  {
    "name": "Miami Fort Lauderdale Social Media Marketing",
    "description": "Advertising Agencies",
    "phone": "(954) 560-7987",
    "address": " 11076 NW 23rd Ct Suite 100  Sunrise, FL 33322",
    "location": "Walton"
  },
  {
    "name": "Five One Digital, LLC",
    "description": "Advertising Agencies",
    "phone": "(305) 992-1122",
    "address": " 10825 NW 29th Mnr  Sunrise, FL 33322",
    "location": "Walton"
  },
  {
    "name": "Btw agency",
    "description": "Advertising Agencies",
    "phone": "(954) 598-2610",
    "address": " 701 nw 141st ave  Pembroke Pines, FL 33028",
    "location": "Walton"
  },
  {
    "name": "George Esper Printing & Promotions",
    "description": "Advertising Agencies",
    "phone": "(954) 922-7404",
    "address": " 20911 Johnson St Ste 117  Pembroke Pines, FL 33029",
    "location": "Walton"
  },
  {
    "name": "The Laredo Group Inc",
    "description": "Advertising Agencies",
    "phone": "(954) 577-5720",
    "address": " 127 Riverwalk Cir W  Plantation, FL 33325",
    "location": "Walton"
  },
  {
    "name": "Majestik Printing & Promotional",
    "description": "Advertising Agencies",
    "phone": "(954) 424-4040",
    "address": " 2741 Lake Park Cir W  Davie, FL 33328",
    "location": "Walton"
  },
  {
    "name": "Software Projects Inc",
    "description": "Advertising Agencies",
    "phone": "(954) 915-9456",
    "address": " 1257 S Pine Island Rd  Plantation, FL 33324",
    "location": "Walton"
  },
  {
    "name": "ILUM",
    "description": "Advertising Agencies",
    "phone": "(844) 344-4586",
    "address": " 18501 Pines Blvd  Pembroke Pines, FL 33029",
    "location": "Walton"
  },
  {
    "name": "Marlex Home Improvements, LLC (referral service)",
    "description": "Advertising Agencies",
    "phone": "(754) 423-2334",
    "address": " PO Box 260272  Pembroke Pines, FL 33026",
    "location": "Walton"
  },
  {
    "name": "Maranata Signs",
    "description": "Graphic Designers",
    "phone": "(954) 380-7611",
    "address": " 8600 W State Road 84  Davie, FL 33324",
    "location": "Walton"
  },
  {
    "name": "iOScoach.com",
    "description": "Consultants Referral Service",
    "phone": "(954) 247-8042",
    "address": " 12801 W Sunrise Blvd  Sunrise, FL 33323",
    "location": "Walton"
  },
  {
    "name": "Arkhitekton Design Group",
    "description": "Iron Work",
    "phone": "(954) 892-5813",
    "address": " 1560 Sawgrass Corporate Pkwy  Sunrise, FL 33323",
    "location": "Walton"
  },
  {
    "name": "AW Tees Printing & Embroidery",
    "description": "T-Shirts",
    "phone": "(954) 430-0335",
    "address": " 20841 Johnson St Ste 108  Pembroke Pines, FL 33029",
    "location": "Walton"
  },
  {
    "name": "Beyond Creative",
    "description": "Internet Marketing & Advertising",
    "phone": "(954) 466-1057",
    "address": " 1560 Sawgrass Corporate Pkwy  Sunrise, FL 33323",
    "location": "Walton"
  },
  {
    "name": "Laredo Group Inc",
    "description": "Internet Marketing & Advertising",
    "phone": "(954) 990-1650",
    "address": " 11860 W State Road 84  Davie, FL 33325",
    "location": "Walton"
  },
  {
    "name": "Rosiemedia",
    "description": "Internet Marketing & Advertising",
    "phone": "(954) 667-9668",
    "address": " 12401 Orange Dr Ste 204  Davie, FL 33330",
    "location": "Walton"
  },
  {
    "name": "Thee Web Designer",
    "description": "Internet Marketing & Advertising",
    "phone": "(954) 653-9699",
    "address": " 540 NW 107th Ave  Plantation, FL 33324",
    "location": "Walton"
  },
  {
    "name": "Rieback & David Integrated Marketing and Advertising",
    "description": "Internet Marketing & Advertising",
    "phone": "(561) 358-1119",
    "address": " 772 NW 100th Ter  Plantation, FL 33324",
    "location": "Walton"
  },
  {
    "name": "Susie Q Marketing",
    "description": "Internet Marketing & Advertising",
    "phone": "(954) 424-2924",
    "address": " 940 NW 92nd Ter  Plantation, FL 33324",
    "location": "Walton"
  },
  {
    "name": "Benz IT Solutions LLC",
    "description": "Internet Marketing & Advertising",
    "phone": "(954) 536-5205",
    "address": " 700 E Coco Plum Cir Apt 4  Plantation, FL 33324",
    "location": "Walton"
  },
  {
    "name": "Crystallinibikini",
    "description": "Internet Marketing & Advertising",
    "phone": "(954) 648-4716",
    "address": " 15895 NW 16th Ct  Pembroke Pines, FL 33028",
    "location": "Walton"
  },
  {
    "name": "Clicc Media Inc",
    "description": "Web Site Design & Services",
    "phone": "(954) 271-3111",
    "address": " 15800 Pines Blvd Ste 203b  Pembroke Pines, FL 33027",
    "location": "Walton"
  },
  {
    "name": "AndLocal: Digital Marketing Experts & SEO",
    "description": "Internet Marketing & Advertising",
    "phone": "(305) 322-2753",
    "address": " 15843 SW 10th St  Pembroke Pines, FL 33027",
    "location": "Walton"
  },
  {
    "name": "Slide First",
    "description": "Internet Marketing & Advertising",
    "phone": "(954) 505-8277",
    "address": " 1826 SW 150th Ave  Miramar, FL 33027",
    "location": "Walton"
  },
  {
    "name": "Signarama Davie, FL",
    "description": "Signs",
    "phone": "(954) 476-4923",
    "address": " 11850 W State Road 84 Ste A7  Davie, FL 33325",
    "location": "Walton"
  },
  {
    "name": "Signarama of Pembroke Pines, FL",
    "description": "Signs",
    "phone": "(954) 334-3435",
    "address": " 12240 SW 53rd St Ste 502  Cooper City, FL 33330",
    "location": "Walton"
  },
  {
    "name": "CB Social Media Management",
    "description": "Advertising Specialties",
    "phone": "(954) 543-1844",
    "address": " 151 N Nob Hill Rd #184  Plantation, FL 33324",
    "location": "Walton"
  },
  {
    "name": "Express yourself Signs",
    "description": "Signs",
    "phone": "(954) 825-2180",
    "address": " 15757 Pines Blvd Ste 240  Pembroke Pines, FL 33027",
    "location": "Walton"
  },
  {
    "name": "MG Embroidery & Printing Solutions,",
    "description": "Embroidery",
    "phone": "(786) 333-3862",
    "address": " 17524 SW 29th Ln  Miramar, FL 33029",
    "location": "Walton"
  },
  {
    "name": "Local Bulb LLC",
    "description": "Directory & Guide Advertising",
    "phone": "(855) 475-6225",
    "address": " 2900 NW 130th Ave.  Sunrise, FL 33323",
    "location": "Walton"
  },
  {
    "name": "Allen Industries",
    "description": "Signs",
    "phone": "(954) 851-1416",
    "address": " 1300 Concord Ter  Sunrise, FL 33323",
    "location": "Walton"
  },
  {
    "name": "Sign Creation Fl",
    "description": "Signs",
    "phone": "(954) 846-7763",
    "address": " 12801 W Sunrise Blvd Ste 9015  Sunrise, FL 33323",
    "location": "Walton"
  },
  {
    "name": "Ad Light International",
    "description": "Signs",
    "phone": "(954) 436-4222",
    "address": " 1911 NW 169th Ave  Pembroke Pines, FL 33028",
    "location": "Walton"
  },
  {
    "name": "Money Mailer",
    "description": "Direct Mail Advertising",
    "phone": "(954) 741-0238",
    "address": " 10740 NW 20th Ct  Sunrise, FL 33322",
    "location": "Walton"
  },
  {
    "name": "RSVP Ft Lauderdale",
    "description": "Direct Mail Advertising",
    "phone": "(954) 433-3700",
    "address": " 20021 NW 8th St  Pembroke Pines, FL 33029",
    "location": "Walton"
  },
  {
    "name": "B Back Promotions",
    "description": "Direct Mail Advertising",
    "phone": "(954) 602-9201",
    "address": " 11409 Knot Way  Hollywood, FL 33026",
    "location": "Walton"
  },
  {
    "name": "Klosebuy",
    "description": "Internet Marketing & Advertising",
    "phone": "(954) 839-9980",
    "address": " 13790 NW 4th St Ste 111  Sunrise, FL 33325",
    "location": "Walton"
  },
  {
    "name": "NextPlay Technologies, Inc",
    "description": "Internet Marketing & Advertising",
    "phone": "(954) 888-9779",
    "address": " 1560 Sawgrass Corporate Pkwy  Sunrise, FL 33323",
    "location": "Walton"
  },
  {
    "name": "Girlz Lyfe",
    "description": "Internet Marketing & Advertising",
    "phone": "(954) 895-1584",
    "address": " 6941 SW 196th Ave  Fort Lauderdale, FL 33332",
    "location": "Walton"
  },
  {
    "name": "DBI Consultants",
    "description": "Internet Marketing & Advertising",
    "phone": "(305) 397-8272",
    "address": " 1401 NW 136th Ave  Sunrise, FL 33323",
    "location": "Walton"
  },
  {
    "name": "Venatoro SEO | Social Media | Web Design",
    "description": "Internet Marketing & Advertising",
    "phone": "(954) 300-2426",
    "address": " 400 NW 127th Ave Apt 11  Plantation, FL 33325",
    "location": "Walton"
  },
  {
    "name": "Jsi Media",
    "description": "Internet Marketing & Advertising",
    "phone": "(954) 729-9058",
    "address": " 1084 NW 124th Ter  Sunrise, FL 33323",
    "location": "Walton"
  },
  {
    "name": "Martial Arts Websites by ESWDG",
    "description": "Internet Marketing & Advertising",
    "phone": "(877) 389-4085",
    "address": " 11861 SW 9th Mnr  Davie, FL 33325",
    "location": "Walton"
  },
  {
    "name": "Owntao LLC",
    "description": "Internet Marketing & Advertising",
    "phone": "(754) 300-7793",
    "address": " 2681 n flamingo rd  Plantation, FL 33323",
    "location": "Walton"
  },
  {
    "name": "Ducani Media",
    "description": "Internet Marketing & Advertising",
    "phone": "(954) 478-9538",
    "address": " 2900 NW 125th Ave Apt 42  Sunrise, FL 33323",
    "location": "Walton"
  },
  {
    "name": "Ellorenzo.net",
    "description": "Internet Marketing & Advertising",
    "phone": "(954) 990-9036",
    "address": " 151 N Nob Hill Rd  Plantation, FL 33324",
    "location": "Walton"
  },
  {
    "name": "Green Melon Marketing",
    "description": "Internet Marketing & Advertising",
    "phone": "(954) 306-9699",
    "address": " 425 NW 97th Ave  Plantation, FL 33324",
    "location": "Walton"
  },
  {
    "name": "SEO Broward Florida",
    "description": "Internet Marketing & Advertising",
    "phone": "(954) 648-3775",
    "address": " 1856 N Nob Hill Rd  Plantation, FL 33322",
    "location": "Walton"
  },
  {
    "name": "GRS Corp.",
    "description": "Internet Marketing & Advertising",
    "phone": "(877) 649-8715",
    "address": " 8930 W State Road 84 Ste 217  Davie, FL 33324",
    "location": "Walton"
  },
  {
    "name": "TNB Solutions",
    "description": "Interactive Media",
    "phone": "(954) 324-9077",
    "address": " 11157 NW 37th St  Sunrise, FL 33351",
    "location": "Walton"
  },
  {
    "name": "Whebb Works",
    "description": "Web Site Design & Services",
    "phone": "(954) 866-4322",
    "address": " 5850 SW 102nd Ave  Cooper City, FL 33328",
    "location": "Walton"
  },
  {
    "name": "Blue Rhino Agency",
    "description": "Internet Marketing & Advertising",
    "phone": "(954) 779-6866",
    "address": " 3471 Southern Orchard Rd E  Davie, FL 33328",
    "location": "Walton"
  },
  {
    "name": "Jonathan Riquer SEO",
    "description": "Internet Marketing & Advertising",
    "phone": "(305) 542-3506",
    "address": " 2451 NW 186th Ave  Pembroke Pines, FL 33029",
    "location": "Walton"
  },
  {
    "name": "Rescuemycomputer.net",
    "description": "Internet Marketing & Advertising",
    "phone": "(954) 445-6169",
    "address": " 1319 NW 166th Ave  Pembroke Pines, FL 33028",
    "location": "Walton"
  },
  {
    "name": "Access Title Loans, LLC",
    "description": "Internet Marketing & Advertising",
    "phone": "(305) 978-2083",
    "address": " 20911 Johnson St Ste 124  Pembroke Pines, FL 33029",
    "location": "Walton"
  },
  {
    "name": "South Florida Digital Solutions",
    "description": "Internet Marketing & Advertising",
    "phone": "(786) 667-4683",
    "address": " 140 NW 187th AVE  Pembroke Pines, FL 33029",
    "location": "Walton"
  },
  {
    "name": "Click Elements",
    "description": "Internet Marketing & Advertising",
    "phone": "(954) 228-5826",
    "address": " 11245 NW 14th Ct  Pembroke Pines, FL 33026",
    "location": "Walton"
  },
  {
    "name": "CapeKnot",
    "description": "Internet Marketing & Advertising",
    "phone": "(888) 985-5995",
    "address": " 17113 Miramar Pkwy  Miramar, FL 33027",
    "location": "Walton"
  },
  {
    "name": "Technology Solutions Ja",
    "description": "Internet Marketing & Advertising",
    "phone": "(305) 454-0614",
    "address": " 320 S Flamingo Rd  Pembroke Pines, FL 33027",
    "location": "Walton"
  },
  {
    "name": "Automotive Advertising Associates",
    "description": "Advertising Specialties",
    "phone": "(954) 434-4100",
    "address": " 16261 Oneida Pl  Davie, FL 33331",
    "location": "Walton"
  },
  {
    "name": "Liquid Grafx",
    "description": "Signs",
    "phone": "(954) 399-8580",
    "address": " 20908 Sheridan St  Fort Lauderdale, FL 33332",
    "location": "Walton"
  },
  {
    "name": "Goldcoast Group Inc",
    "description": "Advertising Specialties",
    "phone": "(954) 494-0198",
    "address": " 12717 W Sunrise Blvd  Sunrise, FL 33323",
    "location": "Walton"
  },
  {
    "name": "Wowchimp Web Design & Marketing Agency",
    "description": "Marketing Programs & Services",
    "phone": "(954) 647-5306",
    "address": " 12717 W Sunrise Blvd, Suit 275  Sunrise, FL 33323",
    "location": "Walton"
  },
  {
    "name": "Quick Time Signs",
    "description": "Signs",
    "phone": "(954) 382-2970",
    "address": " 12233 SW 55th St  Cooper City, FL 33330",
    "location": "Walton"
  },
  {
    "name": "Adfinity Advertising and Signs",
    "description": "Advertising Specialties",
    "phone": "(754) 223-4798",
    "address": " 1414 E Harmony Lake Cir  Davie, FL 33324",
    "location": "Walton"
  },
  {
    "name": "AAA Swap Shop Signs Inc",
    "description": "Signs",
    "phone": "(954) 587-5581",
    "address": " 3020 NW 125th Ave  Sunrise, FL 33323",
    "location": "Walton"
  },
  {
    "name": "JPSC Inc",
    "description": "Signs",
    "phone": "(954) 370-0606",
    "address": " 10220 W State Road 84  Davie, FL 33324",
    "location": "Walton"
  },
  {
    "name": "Creative Promo Inc",
    "description": "Advertising Specialties",
    "phone": "(954) 765-6652",
    "address": " 151 N Nob Hill Rd  Plantation, FL 33324",
    "location": "Walton"
  },
  {
    "name": "MBR Enterprises Inc",
    "description": "Advertising Specialties",
    "phone": "(954) 472-4222",
    "address": " 9177 W Sunrise Blvd  Plantation, FL 33322",
    "location": "Walton"
  },
  {
    "name": "Digital Sign Solutions",
    "description": "Signs",
    "phone": "(248) 210-9130",
    "address": " 20911 Johnson St  Pembroke Pines, FL 33029",
    "location": "Walton"
  },
  {
    "name": "Promotional Innovative Advertising",
    "description": "Advertising-Promotional Products",
    "phone": "(954) 437-7591",
    "address": " 11569 Gorham Dr  Hollywood, FL 33026",
    "location": "Walton"
  },
  {
    "name": "Pie in the Sky Promotional PRD",
    "description": "Advertising Specialties",
    "phone": "(954) 237-6827",
    "address": " 3191 SW 173rd Ter  Miramar, FL 33029",
    "location": "Walton"
  },
  {
    "name": "Edison Advertising Corp",
    "description": "Advertising-Promotional Products",
    "phone": "(954) 443-4101",
    "address": " 10611 London St  Hollywood, FL 33026",
    "location": "Walton"
  },
  {
    "name": "Gilmore Associates Inc",
    "description": "Advertising Agencies",
    "phone": "(954) 474-6851",
    "address": " 6851 SW 21st Ct  Davie, FL 33317",
    "location": "Walton"
  },
  {
    "name": "Sofibiz Advertisement",
    "description": "Advertising Agencies",
    "phone": "(954) 870-7190",
    "address": " 7481 W Oakland Park Blvd  Tamarac, FL 33319",
    "location": "Walton"
  },
  {
    "name": "SIGNS & STRIPES",
    "description": "Advertising Agencies",
    "phone": "(305) 775-1174",
    "address": " 2021 sw 70th ave  davie, FL 33317",
    "location": "Walton"
  },
  {
    "name": "Action Promotional Specialists",
    "description": "Advertising Agencies",
    "phone": "(954) 636-1685",
    "address": " 7520 NW 5th St Ste 101  Plantation, FL 33317",
    "location": "Walton"
  },
  {
    "name": "MEDIAWEBTV",
    "description": "Advertising Agencies",
    "phone": "(954) 306-1317",
    "address": " 4503 NW 103rd Ave Ste 104  Sunrise, FL 33351",
    "location": "Walton"
  },
  {
    "name": "Boardroompr",
    "description": "Advertising Agencies",
    "phone": "(954) 361-8618",
    "address": " 1776 N Pine Island Rd  Plantation, FL 33322",
    "location": "Walton"
  },
  {
    "name": "Bonafide Media Experts",
    "description": "Advertising Agencies",
    "phone": "(954) 637-0700",
    "address": " 10040 Reflections Blvd  Sunrise, FL 33351",
    "location": "Walton"
  },
  {
    "name": "Kreativize",
    "description": "Advertising Agencies",
    "phone": "(888) 521-7642",
    "address": " 261 N University Dr Ste 500  Plantation, FL 33324",
    "location": "Walton"
  },
  {
    "name": "MediaWebTv",
    "description": "Advertising Agencies",
    "phone": "(954) 306-1317",
    "address": " 9000 NW 44th St  Sunrise, FL 33351",
    "location": "Walton"
  },
  {
    "name": "MEGA Design Group",
    "description": "Advertising Agencies",
    "phone": "(954) 594-2690",
    "address": " 8360 W Oakland Park Blvd Ste 308  Sunrise, FL 33351",
    "location": "Walton"
  },
  {
    "name": "Dynamic Media Solution",
    "description": "Advertising Agencies",
    "phone": "(218) 396-6242",
    "address": " 5216 Falcon Trl  Davie, FL 33314",
    "location": "Walton"
  },
  {
    "name": "Iman Advertising",
    "description": "Advertising Agencies",
    "phone": "(844) 462-6836",
    "address": " 8050 N University Dr  Tamarac, FL 33321",
    "location": "Walton"
  },
  {
    "name": "P Jacobs Internet Marketing",
    "description": "Advertising Agencies",
    "phone": "(954) 592-4981",
    "address": " 6096 Buckeye Ct  Tamarac, FL 33319",
    "location": "Walton"
  },
  {
    "name": "Effectv",
    "description": "Advertising Agencies",
    "phone": "(888) 877-9799",
    "address": " 2901 SW 149th Ave  Miramar, FL 33027",
    "location": "Walton"
  },
  {
    "name": "Imaginart Media Productions",
    "description": "Advertising Agencies",
    "phone": "(305) 303-0415",
    "address": " 17814 SW 47th St  Miramar, FL 33029",
    "location": "Walton"
  },
  {
    "name": "Lipof Advertising",
    "description": "Advertising Agencies",
    "phone": "(954) 472-9999",
    "address": " 8030 Peters Rd Ste D  Plantation, FL 33324",
    "location": "Walton"
  },
  {
    "name": "Rook Audio",
    "description": "Advertising Agencies",
    "phone": "(754) 200-8169",
    "address": " 10163 NW 46th St  Sunrise, FL 33351",
    "location": "Walton"
  },
  {
    "name": "Gold Coast Advertising",
    "description": "Advertising Agencies",
    "phone": "(954) 791-6131",
    "address": " 2380 College Ave  Davie, FL 33317",
    "location": "Walton"
  },
  {
    "name": "Panrotas International Inc",
    "description": "Advertising Agencies",
    "phone": "(954) 721-9450",
    "address": " 5706 NW 70th Ave  Tamarac, FL 33321",
    "location": "Walton"
  },
  {
    "name": "Julie",
    "description": "Advertising Agencies",
    "phone": "(305) 436-7435",
    "address": " 7307 NW 80th St  Tamarac, FL 33321",
    "location": "Walton"
  },
  {
    "name": "Menda Group Advertising",
    "description": "Advertising Agencies",
    "phone": "(954) 436-9290",
    "address": " 3638 SW 162nd Ave  Miramar, FL 33027",
    "location": "Walton"
  },
  {
    "name": "art&mkt advertising",
    "description": "Advertising Agencies",
    "phone": "(954) 907-1358",
    "address": " 830 Coral Ridge Dr  Coral Springs, FL 33071",
    "location": "Walton"
  },
  {
    "name": "Fiverr",
    "description": "Advertising Agencies",
    "phone": "(954) 368-2267",
    "address": " 300 S Pine Island Rd  Plantation, FL 33324",
    "location": "Walton"
  },
  {
    "name": "A T S-Uk-USA Inc",
    "description": "Advertising Agencies",
    "phone": "(305) 350-7995",
    "address": " 8201 Peters Rd  Plantation, FL 33324",
    "location": "Walton"
  },
  {
    "name": "Appjolt",
    "description": "Advertising Agencies",
    "phone": "(954) 916-2636",
    "address": " 8201 Peters Rd  Plantation, FL 33324",
    "location": "Walton"
  },
  {
    "name": "Nightingale Consulting",
    "description": "Advertising Agencies",
    "phone": "(954) 652-0600",
    "address": " 8201 Peters Rd  Plantation, FL 33324",
    "location": "Walton"
  },
  {
    "name": "UCA Advertising",
    "description": "Advertising Agencies",
    "phone": "(954) 372-4606",
    "address": " 8211 W Broward Blvd  Plantation, FL 33324",
    "location": "Walton"
  },
  {
    "name": "Consolidated Marketing Unlimited",
    "description": "Advertising Agencies",
    "phone": "(305) 754-6767",
    "address": " 10873 NW 52nd St  Sunrise, FL 33351",
    "location": "Walton"
  },
  {
    "name": "Biorizon",
    "description": "Advertising Agencies",
    "phone": "(954) 927-0066",
    "address": " 8551 W Sunrise Blvd  Plantation, FL 33322",
    "location": "Walton"
  },
  {
    "name": "InternetGuru4u",
    "description": "Advertising Agencies",
    "phone": "(954) 394-5289",
    "address": " 8701 NW 20th Ct  Sunrise, FL 33322",
    "location": "Walton"
  },
  {
    "name": "Lenders & Builders Service",
    "description": "Advertising Agencies",
    "phone": "(954) 742-2306",
    "address": " 9843 NW 41st St  Sunrise, FL 33351",
    "location": "Walton"
  },
  {
    "name": "Ad Essentials of Florida Inc",
    "description": "Advertising Agencies",
    "phone": "(954) 977-6868",
    "address": " 8006 SW 21st Ct  Davie, FL 33324",
    "location": "Walton"
  },
  {
    "name": "Csh Management Service Inc",
    "description": "Advertising Agencies",
    "phone": "(954) 693-8933",
    "address": " 3250 Fairway Cir  Davie, FL 33328",
    "location": "Walton"
  },
  {
    "name": "Create One For Me",
    "description": "Advertising Agencies",
    "phone": "(954) 746-5199",
    "address": " 4416 NW 99th Ave  Sunrise, FL 33351",
    "location": "Walton"
  },
  {
    "name": "STRATIVO Group",
    "description": "Advertising Agencies",
    "phone": "(954) 607-6222",
    "address": " 10589 NW 53rd St  Sunrise, FL 33351",
    "location": "Walton"
  },
  {
    "name": "Business 411-Business Development Center",
    "description": "Advertising Agencies",
    "phone": "(844) 424-9411",
    "address": " 160 S University Dr  Plantation, FL 33324",
    "location": "Walton"
  },
  {
    "name": "Bros Global Marketing",
    "description": "Advertising Agencies",
    "phone": "(954) 741-5959",
    "address": " 5405 NW 102nd Ave  Sunrise, FL 33351",
    "location": "Walton"
  },
  {
    "name": "Lgtechnet",
    "description": "Advertising Agencies",
    "phone": "(954) 607-1990",
    "address": " 1830 N University Dr  Plantation, FL 33322",
    "location": "Walton"
  },
  {
    "name": "Emagine Creations Advertising",
    "description": "Advertising Agencies",
    "phone": "(954) 406-6800",
    "address": " 3626 NW 82nd Ter  Sunrise, FL 33351",
    "location": "Walton"
  },
  {
    "name": "Last Call Entertainment",
    "description": "Advertising Agencies",
    "phone": "(954) 746-6475",
    "address": " 3848 N University Dr  Sunrise, FL 33351",
    "location": "Walton"
  },
  {
    "name": "Gionordic",
    "description": "Advertising Agencies",
    "phone": "(954) 756-2407",
    "address": " 6500 Cypress Rd  Plantation, FL 33317",
    "location": "Walton"
  },
  {
    "name": "J and G",
    "description": "Advertising Agencies",
    "phone": "(754) 223-2043",
    "address": " 7830 NW 44th St  Lauderhill, FL 33351",
    "location": "Walton"
  },
  {
    "name": "Quirky Media",
    "description": "Advertising Agencies",
    "phone": "(866) 391-4683",
    "address": " 3406 Davie Rd  Davie, FL 33314",
    "location": "Walton"
  },
  {
    "name": "Watson McFeely & Associates Inc",
    "description": "Advertising Agencies",
    "phone": "(954) 327-8180",
    "address": " 2020 SW 59th Ave  Plantation, FL 33317",
    "location": "Walton"
  },
  {
    "name": "Nyla Technologies",
    "description": "Advertising Agencies",
    "phone": "(800) 311-8361",
    "address": " 1089 Sunset Strip  Sunrise, FL 33313",
    "location": "Walton"
  },
  {
    "name": "Montesino International",
    "description": "Advertising Agencies",
    "phone": "(954) 767-6185",
    "address": " 101 N Fig Tree Ln  Plantation, FL 33317",
    "location": "Walton"
  },
  {
    "name": "R.R.C.MEDIA 100 L.L.C.",
    "description": "Advertising Agencies",
    "phone": "(800) 857-1933",
    "address": " 6921 environ blvd  Fort lauderdale, FL 33319",
    "location": "Walton"
  },
  {
    "name": "J Roomy Superior Promotions",
    "description": "Advertising Agencies",
    "phone": "(954) 583-2602",
    "address": " 2081 SW 52nd Way  Plantation, FL 33317",
    "location": "Walton"
  },
  {
    "name": "Rae & Associates Inc",
    "description": "Advertising Agencies",
    "phone": "(754) 223-4706",
    "address": " 6780 NW 45th Ct  Lauderhill, FL 33319",
    "location": "Walton"
  },
  {
    "name": "Think Big Media",
    "description": "Advertising Agencies",
    "phone": "(954) 717-8735",
    "address": " 3650 Inverrary Dr  Lauderhill, FL 33319",
    "location": "Walton"
  },
  {
    "name": "Ad Consultant Group",
    "description": "Advertising Agencies",
    "phone": "(954) 234-3101",
    "address": " 7541 Black Olive Way  Tamarac, FL 33321",
    "location": "Walton"
  },
  {
    "name": "Count your laurels",
    "description": "Advertising Agencies",
    "phone": "(954) 709-6478",
    "address": " 4870 nw 8th drive  Fort Lauderdale, FL 33317",
    "location": "Walton"
  },
  {
    "name": "Senavia Corporation",
    "description": "Advertising Agencies",
    "phone": "(954) 706-4084",
    "address": " 6635 W Commercial Blvd  Tamarac, FL 33319",
    "location": "Walton"
  },
  {
    "name": "Camilla Gonzalez",
    "description": "Advertising Agencies",
    "phone": "(954) 900-4024",
    "address": " 7780 NW 78th Ave  Tamarac, FL 33321",
    "location": "Walton"
  },
  {
    "name": "International Liaison Corporation",
    "description": "Advertising Agencies",
    "phone": "(251) 373-4696",
    "address": " 1737 SW 43rd Ave  Fort Lauderdale, FL 33317",
    "location": "Walton"
  },
  {
    "name": "VMV Med Marketing Services",
    "description": "Advertising Agencies",
    "phone": "(754) 300-0575",
    "address": " 2120 SW 42nd Ter  Fort Lauderdale, FL 33317",
    "location": "Walton"
  },
  {
    "name": "Business & Technology Conslnts",
    "description": "Advertising Agencies",
    "phone": "(954) 534-6355",
    "address": " 5151 W Oakland Park Blvd  Lauderdale Lakes, FL 33313",
    "location": "Walton"
  },
  {
    "name": "American Business Management",
    "description": "Advertising Agencies",
    "phone": "(954) 318-3388",
    "address": " 4337 Rock Island Rd  Lauderhill, FL 33319",
    "location": "Walton"
  },
  {
    "name": "Daniel Group",
    "description": "Advertising Agencies",
    "phone": "(954) 674-2525",
    "address": " 3401 SW 160th Ave  Miramar, FL 33027",
    "location": "Walton"
  },
  {
    "name": "International Development",
    "description": "Advertising Agencies",
    "phone": "(305) 200-4000",
    "address": " Shoppes At Monarch Lakes  Miramar, FL 33027",
    "location": "Walton"
  },
  {
    "name": "Isla Marketing",
    "description": "Advertising Agencies",
    "phone": "(585) 298-0413",
    "address": " 3771 SW 160th Ave  Miramar, FL 33027",
    "location": "Walton"
  },
  {
    "name": "K Nickel",
    "description": "Advertising Agencies",
    "phone": "(954) 734-2775",
    "address": " 3350 SW 148th Ave Ste 110  Miramar, FL 33027",
    "location": "Walton"
  },
  {
    "name": "Thanks Ads USA LLC",
    "description": "Advertising Agencies",
    "phone": "(954) 636-2494",
    "address": " 3350 SW 148 Avenue Suite 110  Pembroke Pines, FL 33027",
    "location": "Walton"
  },
  {
    "name": "Mc2 Advertising",
    "description": "Advertising Agencies",
    "phone": "(954) 374-9925",
    "address": " 3350 SW 148th Ave  Miramar, FL 33027",
    "location": "Walton"
  },
  {
    "name": "DicoSoft Digital",
    "description": "Advertising Agencies",
    "phone": "(954) 674-6075",
    "address": " 900 St Charles Pl  Pembroke Pines, FL 33026",
    "location": "Walton"
  },
  {
    "name": "Kent Information Mgmt",
    "description": "Advertising Agencies",
    "phone": "(954) 442-9084",
    "address": " 2726 SW 137th Ter  Miramar, FL 33027",
    "location": "Walton"
  },
  {
    "name": "Ninety Branding",
    "description": "Advertising Agencies",
    "phone": "(305) 335-3008",
    "address": " 1671 SW 120th Ter  Pembroke Pines, FL 33025",
    "location": "Walton"
  },
  {
    "name": "Dotcom Media",
    "description": "Advertising Agencies",
    "phone": "(754) 400-8666",
    "address": " 18139 SW 54th St  Miramar, FL 33029",
    "location": "Walton"
  },
  {
    "name": "Click 2 See",
    "description": "Advertising Agencies",
    "phone": "(754) 210-3882",
    "address": " 11820 Miramar Pkwy  Miramar, FL 33025",
    "location": "Walton"
  },
  {
    "name": "Shopperting",
    "description": "Advertising Agencies",
    "phone": "(954) 470-3034",
    "address": " 11820 Miramar Pkwy  Miramar, FL 33025",
    "location": "Walton"
  },
  {
    "name": "Canadian Meds",
    "description": "Advertising Agencies",
    "phone": "(754) 400-7362",
    "address": " 3777 NW 78th Ave  Hollywood, FL 33024",
    "location": "Walton"
  },
  {
    "name": "Du Bois Marketing Inc",
    "description": "Advertising Agencies",
    "phone": "(954) 308-4880",
    "address": " 3300 Corporate Way  Miramar, FL 33025",
    "location": "Walton"
  },
  {
    "name": "Asis",
    "description": "Advertising Agencies",
    "phone": "(954) 753-8133",
    "address": " 12472 W Atlantic Blvd  Coral Springs, FL 33071",
    "location": "Walton"
  },
  {
    "name": "Service Management Inc",
    "description": "Advertising Agencies",
    "phone": "(305) 829-0848",
    "address": " 19141 Royal Birkdale Dr  Hialeah, FL 33015",
    "location": "Walton"
  },
  {
    "name": "P L F",
    "description": "Advertising Agencies",
    "phone": "(305) 558-9393",
    "address": " 9182 NW 177th Ter  Hialeah, FL 33018",
    "location": "Walton"
  },
  {
    "name": "Pa Consulting Inc",
    "description": "Advertising Agencies",
    "phone": "(305) 621-8113",
    "address": " 5874 NW 198th Ter  Hialeah, FL 33015",
    "location": "Walton"
  },
  {
    "name": "Awesome Advertising",
    "description": "Advertising Agencies",
    "phone": "(954) 445-7706",
    "address": " 6440 Pershing St  Hollywood, FL 33024",
    "location": "Walton"
  },
  {
    "name": "Video Seo Media",
    "description": "Advertising Agencies",
    "phone": "(954) 248-6650",
    "address": " 7925 Ramona St  Miramar, FL 33023",
    "location": "Walton"
  },
  {
    "name": "Linda Distributions Corp",
    "description": "Advertising Agencies",
    "phone": "(954) 965-7318",
    "address": " 7809 Venetian St  Miramar, FL 33023",
    "location": "Walton"
  },
  {
    "name": "Levy Advertising",
    "description": "Advertising Agencies",
    "phone": "(305) 592-5389",
    "address": " 4241 W 108th St  Hialeah, FL 33018",
    "location": "Walton"
  },
  {
    "name": "Alexis Transportation",
    "description": "Advertising Agencies",
    "phone": "(754) 423-2839",
    "address": " 18927 NW 56th Ct  Miami Gardens, FL 33055",
    "location": "Walton"
  },
  {
    "name": "Original On Hold",
    "description": "Advertising Agencies",
    "phone": "(954) 340-6499",
    "address": " 1440 Coral Ridge Dr  Coral Springs, FL 33071",
    "location": "Walton"
  },
  {
    "name": "JMG Adverstising",
    "description": "Advertising Agencies",
    "phone": "(954) 965-9791",
    "address": " 2544 N State Road 7  Hollywood, FL 33021",
    "location": "Walton"
  },
  {
    "name": "B S Cutton Co",
    "description": "Advertising Agencies",
    "phone": "(954) 341-2844",
    "address": " 11427 Lakeview Dr  Coral Springs, FL 33071",
    "location": "Walton"
  },
  {
    "name": "ZNZ Business Oppurtunity",
    "description": "Advertising Agencies",
    "phone": "(954) 648-7205",
    "address": " 1012 Long Island Ave  Fort Lauderdale, FL 33312",
    "location": "Walton"
  },
  {
    "name": "Car Wrap Solutions",
    "description": "Advertising Agencies",
    "phone": "(954) 593-4825",
    "address": " 4153 SW 47th Ave  Davie, FL 33314",
    "location": "Walton"
  },
  {
    "name": "RLJ Internet Marketing",
    "description": "Advertising Agencies",
    "phone": "(774) 234-7898",
    "address": " 8105 NW 61st St Apt A305  Tamarac, FL 33321",
    "location": "Walton"
  },
  {
    "name": "GFN Business Development",
    "description": "Advertising Agencies",
    "phone": "(855) 848-4251",
    "address": " Fort Lauderdale 33313  Fort Lauderdale, FL 33313",
    "location": "Walton"
  },
  {
    "name": "Prowrap Systems",
    "description": "Advertising Agencies",
    "phone": "(305) 209-0044",
    "address": " 4530 N Hiatus Rd, Ste 116  Fort Lauderdale, FL 33321",
    "location": "Walton"
  },
  {
    "name": "Franklin Products",
    "description": "Advertising Agencies",
    "phone": "(954) 742-5520",
    "address": " 1801 N Pine Island Rd  Plantation, FL 33322",
    "location": "Walton"
  },
  {
    "name": "Boardroom Communications Inc.",
    "description": "Advertising Agencies",
    "phone": "(954) 370-8999",
    "address": " 1776 N Pine Island Rd Ste 320  Plantation, FL 33322",
    "location": "Walton"
  },
  {
    "name": "Transformatic Advertising",
    "description": "Advertising Agencies",
    "phone": "(954) 573-0148",
    "address": " 8771 Holly Ct  Tamarac, FL 33321",
    "location": "Walton"
  },
  {
    "name": "Connectica A Web Design/Seo Company",
    "description": "Advertising Agencies",
    "phone": "(954) 282-1698",
    "address": " 8499 W Commercial Blvd  Tamarac, FL 33351",
    "location": "Walton"
  },
  {
    "name": "DoJo Multimedia",
    "description": "Advertising Agencies",
    "phone": "(954) 854-8998",
    "address": " 4520 NW 36th St  Lauderdale Lakes, FL 33319",
    "location": "Walton"
  },
  {
    "name": "Global Presence Marketing",
    "description": "Advertising Agencies",
    "phone": "(305) 501-4280",
    "address": " 10031 Pines Blvd Ste 220  Pembroke Pines, FL 33024",
    "location": "Walton"
  },
  {
    "name": "Smart Web Plans",
    "description": "Advertising Agencies",
    "phone": "(754) 777-0489",
    "address": " 8527 Pines Blvd  Pembroke Pines, FL 33024",
    "location": "Walton"
  },
  {
    "name": "LunaSol Media, LLC",
    "description": "Advertising Agencies",
    "phone": "(305) 792-8315",
    "address": " 10211 Pines Blvd Suite 165  Pembroke Pines, FL 33026",
    "location": "Walton"
  },
  {
    "name": "Everything Beauty",
    "description": "Advertising Agencies",
    "phone": "(954) 306-6915",
    "address": " 245 S State Road 7  Plantation, FL 33317",
    "location": "Walton"
  },
  {
    "name": "World Web Partners",
    "description": "Advertising Agencies",
    "phone": "(954) 306-6373",
    "address": " 7901 SW 6th Ct  Plantation, FL 33324",
    "location": "Walton"
  },
  {
    "name": "Expedition Multi Services",
    "description": "Advertising Agencies",
    "phone": "(754) 200-4580",
    "address": " 6299 W Sunrise Blvd Ste 214  Plantation, FL 33313",
    "location": "Walton"
  },
  {
    "name": "Trigr Media",
    "description": "Advertising Agencies",
    "phone": "(954) 972-4278",
    "address": " 7875 NW 57th St Unit 25841  Tamarac, FL 33320",
    "location": "Walton"
  },
  {
    "name": "Riverbed Interactive",
    "description": "Advertising Agencies",
    "phone": "(786) 577-3099",
    "address": " 1201 SW 128th Ter Apt E103  Pembroke Pines, FL 33027",
    "location": "Walton"
  },
  {
    "name": "DJDM SERVICES LLC",
    "description": "Advertising Agencies",
    "phone": "(866) 993-5367",
    "address": " 12701 SW 14th St, Suite 308  Pembroke Pines, FL 33027",
    "location": "Walton"
  },
  {
    "name": "True Injury, Attorney Marketing",
    "description": "Advertising Agencies",
    "phone": "(844) 878-2889",
    "address": " 12869 SW 31St CT  Miramar, FL 33027",
    "location": "Walton"
  },
  {
    "name": "NY Media Group",
    "description": "Advertising Agencies",
    "phone": "(954) 964-6737",
    "address": " 4900 S University Dr Ste 206  Davie, FL 33328",
    "location": "Walton"
  },
  {
    "name": "BBCW Distributions",
    "description": "Advertising Agencies",
    "phone": "(954) 786-1700",
    "address": " 3911 SW 47th Ave  Davie, FL 33314",
    "location": "Walton"
  },
  {
    "name": "Solayre Media Inc",
    "description": "Advertising Agencies",
    "phone": "(954) 389-4779",
    "address": " 4568 N Hiatus Rd  Sunrise, FL 33351",
    "location": "Walton"
  },
  {
    "name": "Saint George Productions Inc",
    "description": "Advertising Agencies",
    "phone": "(954) 587-1119",
    "address": " 7520 NW 5th St Ste 201  Plantation, FL 33317",
    "location": "Walton"
  },
  {
    "name": "Cyb Marketing Solutions",
    "description": "Advertising Agencies",
    "phone": "(754) 206-4941",
    "address": " 7450 NW 4th St  Plantation, FL 33317",
    "location": "Walton"
  },
  {
    "name": "Prive Promotions & Marketing Group Inc",
    "description": "Advertising Agencies",
    "phone": "(954) 533-9458",
    "address": " 3801 N University Dr  Sunrise, FL 33351",
    "location": "Walton"
  },
  {
    "name": "Aptitude Marketing Group",
    "description": "Advertising Agencies",
    "phone": "(954) 366-4219",
    "address": " 5701 NW 88th Ave  Tamarac, FL 33321",
    "location": "Walton"
  },
  {
    "name": "Oceanside Direct",
    "description": "Advertising Agencies",
    "phone": "(954) 901-7681",
    "address": " 5701 NW 88th Ave  Tamarac, FL 33321",
    "location": "Walton"
  },
  {
    "name": "JLee Marketing",
    "description": "Advertising Agencies",
    "phone": "(954) 324-2408",
    "address": " 4846 N University Dr  Lauderhill, FL 33351",
    "location": "Walton"
  },
  {
    "name": "Zybra Seo",
    "description": "Advertising Agencies",
    "phone": "(954) 866-2338",
    "address": " 6412 N University Dr Ste 141  Tamarac, FL 33321",
    "location": "Walton"
  },
  {
    "name": "Golden Traffic Advertising",
    "description": "Advertising Agencies",
    "phone": "(202) 350-1872",
    "address": " 801 S State Road 7  Plantation, FL 33317",
    "location": "Walton"
  },
  {
    "name": "All Local Service Hollywood",
    "description": "Advertising Agencies",
    "phone": "(954) 533-2404",
    "address": " 5450 S State Road 7  Davie, FL 33314",
    "location": "Walton"
  },
  {
    "name": "Ebanks Design Studio",
    "description": "Advertising Agencies",
    "phone": "(954) 651-4501",
    "address": " 4404  Miramar, FL 33027",
    "location": "Walton"
  },
  {
    "name": "All Promotional Solutions",
    "description": "Advertising Agencies",
    "phone": "(954) 436-2774",
    "address": " 8966 NW 41st St  Hollywood, FL 33024",
    "location": "Walton"
  },
  {
    "name": "Trophies By Edco Inc.",
    "description": "Advertising Agencies",
    "phone": "(954) 587-0137",
    "address": " 3702 Davie Blvd  Fort Lauderdale, FL 33312",
    "location": "Walton"
  },
  {
    "name": "Image 360 Lauderhill",
    "description": "Signs",
    "phone": "(954) 748-6990",
    "address": " 7362 W Commercial Blvd  Lauderhill, FL 33319",
    "location": "Walton"
  },
  {
    "name": "JLV Enterprises",
    "description": "Internet Marketing & Advertising",
    "phone": "(954) 200-2048",
    "address": " 6191 Orange Dr Ste 6167i  Davie, FL 33314",
    "location": "Walton"
  },
  {
    "name": "Shirts R Us",
    "description": "Clothing Stores",
    "phone": "(954) 533-4695",
    "address": " 1861 S State Road 7  Davie, FL 33317",
    "location": "Walton"
  },
  {
    "name": "Fastsigns Pembroke Pines",
    "description": "Signs",
    "phone": "(954) 438-7979",
    "address": " 9909 Pines Blvd  Pembroke Pines, FL 33024",
    "location": "Walton"
  },
  {
    "name": "Everything Trade Shows",
    "description": "Display Designers & Producers",
    "phone": "(954) 791-8882",
    "address": " 3701 SW 47th Ave Ste 106  Davie, FL 33314",
    "location": "Walton"
  },
  {
    "name": "SIGN-A-RAMA",
    "description": "Signs",
    "phone": "(954) 476-4923",
    "address": " 1906 S University Dr  Davie, FL 33324",
    "location": "Walton"
  },
  {
    "name": "ADVANCE BUSINESS CONSULTING",
    "description": "Business Plans Development",
    "phone": "(954) 842-4221",
    "address": " 331 NW 101st Ter  Pembroke Pines, FL 33026",
    "location": "Walton"
  },
  {
    "name": "WW Internet Marketing Studios",
    "description": "Internet Marketing & Advertising",
    "phone": "(954) 543-8736",
    "address": " 2215 NW 74th Way # 2  Hollywood, FL 33024",
    "location": "Walton"
  },
  {
    "name": "INTELLIPLANS",
    "description": "Internet Marketing & Advertising",
    "phone": "(954) 318-9717",
    "address": " Po Box 245275  Pembroke Pines, FL 33024",
    "location": "Walton"
  },
  {
    "name": "The Barton Organization",
    "description": "Web Site Design & Services",
    "phone": "(954) 399-2736",
    "address": " 8201 Peters Rd Ste 1000  Plantation, FL 33324",
    "location": "Walton"
  },
  {
    "name": "A to Z Signs",
    "description": "Signs",
    "phone": "(786) 797-3266",
    "address": " 6851 SW 21st Ct Ste 1  Davie, FL 33317",
    "location": "Walton"
  },
  {
    "name": "Kaylin Printing & Promotional Products",
    "description": "Advertising-Promotional Products",
    "phone": "(954) 392-8135",
    "address": " 950 S Pine Island Rd  Plantation, FL 33324",
    "location": "Walton"
  },
  {
    "name": "5 Star Vinyl, Inc.",
    "description": "Signs",
    "phone": "(954) 899-8684",
    "address": " 4851 NW 103rd Ave  Sunrise, FL 33351",
    "location": "Walton"
  },
  {
    "name": "Printing Connection, Too. Inc",
    "description": "Signs",
    "phone": "(954) 358-1448",
    "address": " 4960 SW 52nd St  Davie, FL 33314",
    "location": "Walton"
  },
  {
    "name": "OrderPrint",
    "description": "T-Shirts",
    "phone": "(305) 308-0314",
    "address": " 18100 NW 68th Ave  Hialeah, FL 33015",
    "location": "Walton"
  },
  {
    "name": "D'Nicest Signs",
    "description": "Signs",
    "phone": "(954) 423-3339",
    "address": " 8811 NW 16th St  Plantation, FL 33322",
    "location": "Walton"
  },
  {
    "name": "Azoolu Marketing",
    "description": "Marketing Consultants",
    "phone": "(877) 729-6658",
    "address": " 4567 N Pine Island Rd,  Fort Lauderdale, FL 33351",
    "location": "Walton"
  },
  {
    "name": "Your Sign Solution Inc.",
    "description": "Signs",
    "phone": "(954) 321-0430",
    "address": " 4611 SW 44th Ave  Fort Lauderdale, FL 33314",
    "location": "Walton"
  },
  {
    "name": "Signs Now",
    "description": "Signs",
    "phone": "(954) 749-9722",
    "address": " 4606 N Hiatus Rd  Sunrise, FL 33351",
    "location": "Walton"
  },
  {
    "name": "Signarama Sunrise",
    "description": "Decals",
    "phone": "(954) 741-5904",
    "address": " 5307 N Nob Hill Rd  Sunrise, FL 33351",
    "location": "Walton"
  },
  {
    "name": "Updated Printing Specialties",
    "description": "Printing Services-Commercial",
    "phone": "(954) 587-5757",
    "address": " 6701 Cypress Rd Apt 202  Plantation, FL 33317",
    "location": "Walton"
  },
  {
    "name": "Jz AD Specialties",
    "description": "Marketing Consultants",
    "phone": "(954) 818-6622",
    "address": " 5900 Stirling Rd Ste 6  Hollywood, FL 33021",
    "location": "Walton"
  },
  {
    "name": "Minuteman Press",
    "description": "Copying & Duplicating Service",
    "phone": "(954) 966-0233",
    "address": " 4171 N State Road 7  Hollywood, FL 33021",
    "location": "Walton"
  },
  {
    "name": "M3PA Services",
    "description": "Internet Marketing & Advertising",
    "phone": "(954) 899-0084",
    "address": " 7880 N University Dr  Tamarac, FL 33321",
    "location": "Walton"
  },
  {
    "name": "Gurus Social Media",
    "description": "Web Site Design & Services",
    "phone": "(954) 600-0357",
    "address": " 11010 SW 25th Ct  Miramar, FL 33025",
    "location": "Walton"
  },
  {
    "name": "American Signs",
    "description": "Signs",
    "phone": "(954) 351-0015",
    "address": " 1112 Sunset Strip  Sunrise, FL 33313",
    "location": "Walton"
  },
  {
    "name": "D Signs for Mobile Graphics Advertising",
    "description": "Signs",
    "phone": "(954) 733-3764",
    "address": " 3405 Lime Hill Rd  Lauderhill, FL 33319",
    "location": "Walton"
  },
  {
    "name": "Speed Pro Miami",
    "description": "Advertising Specialties",
    "phone": "(954) 534-9503",
    "address": " 11341 Interchange Cir S  Miramar, FL 33025",
    "location": "Walton"
  },
  {
    "name": "My Mailbox Services",
    "description": "Mailbox Rental",
    "phone": "(954) 474-2323",
    "address": " 2269 S University Dr  Davie, FL 33324",
    "location": "Walton"
  },
  {
    "name": "UnlimitedMailServices",
    "description": "Coupon Advertising",
    "phone": "(786) 294-1983",
    "address": " 7030 NW 179th St  Hialeah, FL 33015",
    "location": "Walton"
  },
  {
    "name": "Allegra Marketing Print Mail",
    "description": "Direct Mail Advertising",
    "phone": "(954) 963-3886",
    "address": " 5846 Stirling Rd  Hollywood, FL 33021",
    "location": "Walton"
  },
  {
    "name": "Addexus Technology Solutions",
    "description": "Internet Marketing & Advertising",
    "phone": "(954) 557-5958",
    "address": " 4755 NW 103rd Ave Suite 202  Sunrise, FL 33351",
    "location": "Walton"
  },
  {
    "name": "Site Grace Web Design",
    "description": "Internet Marketing & Advertising",
    "phone": "(954) 266-8283",
    "address": " 8255 W Sunrise Blvd  Plantation, FL 33322",
    "location": "Walton"
  },
  {
    "name": "StaySocial.Media",
    "description": "Internet Marketing & Advertising",
    "phone": "(888) 960-5330",
    "address": " 7550 W State Rd 84  Davie, FL 33317",
    "location": "Walton"
  },
  {
    "name": "Guerdon Media",
    "description": "Web Site Design & Services",
    "phone": "(954) 558-1166",
    "address": " 4220 SW 67th Ter  Davie, FL 33314",
    "location": "Walton"
  },
  {
    "name": "Amazing websites For Less",
    "description": "Internet Marketing & Advertising",
    "phone": "(954) 298-9479",
    "address": " 7491 W Oakland Park Blvd  Lauderhill, FL 33319",
    "location": "Walton"
  },
  {
    "name": "FIZAD, LLC",
    "description": "Internet Marketing & Advertising",
    "phone": "(954) 557-8699",
    "address": " 4846 N University Dr # 171  Lauderhill, FL 33351",
    "location": "Walton"
  },
  {
    "name": "Regal Technology Consulting",
    "description": "Internet Marketing & Advertising",
    "phone": "(954) 440-6095",
    "address": " 7875 Nw 57th St  Tamarac, FL 33321",
    "location": "Walton"
  },
  {
    "name": "Royalty Solutions Online",
    "description": "Internet Marketing & Advertising",
    "phone": "(877) 516-5329",
    "address": " 6099 Stirling Rd Ste 106  Davie, FL 33314",
    "location": "Walton"
  },
  {
    "name": "Blckpanda Creative",
    "description": "Internet Marketing & Advertising",
    "phone": "(954) 684-9594",
    "address": " 4001 SW 47th Ave Ste 202  Davie, FL 33314",
    "location": "Walton"
  },
  {
    "name": "Bahama Group LLC",
    "description": "Internet Marketing & Advertising",
    "phone": "(866) 550-0711",
    "address": " 1730 N State Road 7  Lauderhill, FL 33313",
    "location": "Walton"
  },
  {
    "name": "Sfmsc.com",
    "description": "Internet Marketing & Advertising",
    "phone": "(954) 791-9391",
    "address": " 6700 Griffin Rd  Davie, FL 33314",
    "location": "Walton"
  },
  {
    "name": "Francis Social Commission",
    "description": "Internet Marketing & Advertising",
    "phone": "(954) 865-7295",
    "address": " 400 SW 62nd Ave  Plantation, FL 33317",
    "location": "Walton"
  },
  {
    "name": "Caribbeancruises.us.com",
    "description": "Internet Marketing & Advertising",
    "phone": "(954) 660-9000",
    "address": " 1801 NW 66th Ave  Plantation, FL 33313",
    "location": "Walton"
  },
  {
    "name": "Pizani Web Solutions",
    "description": "Print Advertising",
    "phone": "(954) 655-4309",
    "address": " 8003 NW 108th Ave  tamarac, FL 33321",
    "location": "Walton"
  },
  {
    "name": "Klik",
    "description": "Internet Marketing & Advertising",
    "phone": "(954) 903-7873",
    "address": " 2071 SW 52nd Way  Plantation, FL 33317",
    "location": "Walton"
  },
  {
    "name": "Dee Powell Expect Success LLC",
    "description": "Internet Marketing & Advertising",
    "phone": "(954) 321-0876",
    "address": " 721 Beachwood Ln  Plantation, FL 33317",
    "location": "Walton"
  },
  {
    "name": "Revsite.com",
    "description": "Internet Marketing & Advertising",
    "phone": "(954) 292-0555",
    "address": " 8204 NW 93rd Ter  Tamarac, FL 33321",
    "location": "Walton"
  },
  {
    "name": "US Geek LLC",
    "description": "Internet Consultants",
    "phone": "(800) 465-1801",
    "address": " 4736 NW 2nd Ct  Plantation, FL 33317",
    "location": "Walton"
  },
  {
    "name": "Frank Lusian",
    "description": "Internet Marketing & Advertising",
    "phone": "(855) 332-4245",
    "address": " 3901 SW 47th Ave  Davie, FL 33314",
    "location": "Walton"
  },
  {
    "name": "Amccc.com",
    "description": "Internet Marketing & Advertising",
    "phone": "(954) 432-5611",
    "address": " 9410 Stirling Rd  Hollywood, FL 33024",
    "location": "Walton"
  },
  {
    "name": "Upfront Marketing Group",
    "description": "Internet Marketing & Advertising",
    "phone": "(954) 756-0038",
    "address": " 2150 Renaissance Blvd  Miramar, FL 33025",
    "location": "Walton"
  },
  {
    "name": "Ideal Marketing Agency + Social Brand School",
    "description": "Internet Marketing & Advertising",
    "phone": "(305) 906-0663",
    "address": " 11772 SW 25th Court  Miramar, FL 33025",
    "location": "Walton"
  },
  {
    "name": "AlternaBit Inc",
    "description": "Internet Marketing & Advertising",
    "phone": "(855) 760-7772",
    "address": " 11820 Miramar Pkwy Ste 105  Miramar, FL 33025",
    "location": "Walton"
  },
  {
    "name": "Commerce Intel Solutions",
    "description": "Internet Consultants",
    "phone": "(786) 512-3790",
    "address": " 405 Palm Cir E  Pembroke Pines, FL 33025",
    "location": "Walton"
  },
  {
    "name": "Flpfiber.net",
    "description": "Internet Marketing & Advertising",
    "phone": "(305) 552-2222",
    "address": " 9050 Pines Blvd  Pembroke Pines, FL 33024",
    "location": "Walton"
  },
  {
    "name": "Inventory Marketing",
    "description": "Internet Marketing & Advertising",
    "phone": "(888) 557-0290",
    "address": " 8301 NW 189th Street Rd  Hialeah, FL 33015",
    "location": "Walton"
  },
  {
    "name": "Xcaliberprotection.com",
    "description": "Internet Marketing & Advertising",
    "phone": "(954) 237-9358",
    "address": " 6890 Liberty St  Hollywood, FL 33024",
    "location": "Walton"
  },
  {
    "name": "Admazing Co LLC",
    "description": "Advertising Specialties",
    "phone": "(954) 626-0692",
    "address": " 1200 S Pine Island Rd. Ste 810  Plantation, FL 33324",
    "location": "Walton"
  },
  {
    "name": "Bundy Signs",
    "description": "Advertising Specialties",
    "phone": "(754) 332-2183",
    "address": " 4556 N Hiatus Rd  Sunrise, FL 33351",
    "location": "Walton"
  },
  {
    "name": "Signs By Tomorrow",
    "description": "Signs",
    "phone": "(954) 749-9722",
    "address": " 4606 N Hiatus Rd  Sunrise, FL 33351",
    "location": "Walton"
  },
  {
    "name": "Experience Advertising",
    "description": "Transit Advertising",
    "phone": "(954) 742-0345",
    "address": " 10871 NW 52nd St Ste 9  Sunrise, FL 33351",
    "location": "Walton"
  },
  {
    "name": "Delicious Delights",
    "description": "Advertising Specialties",
    "phone": "(954) 434-1902",
    "address": " 5240 SW 89th Ave  Cooper City, FL 33328",
    "location": "Walton"
  },
  {
    "name": "Me Signs Inc",
    "description": "Signs",
    "phone": "(954) 747-9996",
    "address": " 10283 NW 46th St  Sunrise, FL 33351",
    "location": "Walton"
  },
  {
    "name": "Sunshine Enterprises Inc",
    "description": "Embroidery",
    "phone": "(954) 572-8383",
    "address": " 10158 NW 47th St  Sunrise, FL 33351",
    "location": "Walton"
  },
  {
    "name": "Imperial Expressions",
    "description": "Specialty Bags",
    "phone": "(954) 749-4499",
    "address": " 10001 NW 50th St Ste 102b  Sunrise, FL 33351",
    "location": "Walton"
  },
  {
    "name": "Feldman J Signs",
    "description": "Signs",
    "phone": "(954) 581-3928",
    "address": " 3911 SW 12th Ct  Fort Lauderdale, FL 33312",
    "location": "Walton"
  },
  {
    "name": "100 Percent Signs",
    "description": "Signs",
    "phone": "(954) 639-7082",
    "address": " 1431 N Palm Ave  Pembroke Pines, FL 33026",
    "location": "Walton"
  },
  {
    "name": "M W R Sign Enterprise Inc",
    "description": "Signs",
    "phone": "(954) 438-7979",
    "address": " 9909 Pines Blvd  Pembroke Pines, FL 33024",
    "location": "Walton"
  },
  {
    "name": "Capitol Signs",
    "description": "Signs",
    "phone": "(954) 578-9340",
    "address": " 401 NW 93rd Ave  Pembroke Pines, FL 33024",
    "location": "Walton"
  },
  {
    "name": "Discount Signs USA",
    "description": "Signs",
    "phone": "(305) 556-0096",
    "address": " 17900 NW 85th Ave  Hialeah, FL 33015",
    "location": "Walton"
  },
  {
    "name": "Allstate Signs & Associates Inc",
    "description": "Signs",
    "phone": "(305) 392-1481",
    "address": " 17550 NW 67th Pl  Hialeah, FL 33015",
    "location": "Walton"
  },
  {
    "name": "Moneysaver Coupon Books",
    "description": "Direct Mail Advertising",
    "phone": "(954) 747-4898",
    "address": " 4555 NW 103rd Ave  Sunrise, FL 33351",
    "location": "Walton"
  },
  {
    "name": "Letter Perfect",
    "description": "Direct Mail Advertising",
    "phone": "(954) 474-1022",
    "address": " 6851 SW 21st Ct  Davie, FL 33317",
    "location": "Walton"
  },
  {
    "name": "Advo Inc",
    "description": "Direct Mail Advertising",
    "phone": "(954) 741-1600",
    "address": " 7771 W Oakland Park Blvd  Sunrise, FL 33351",
    "location": "Walton"
  },
  {
    "name": "Qwik Pack & Ship",
    "description": "Mail & Shipping Services",
    "phone": "(954) 572-9401",
    "address": " 7760 NW 44th St  Lauderhill, FL 33351",
    "location": "Walton"
  },
  {
    "name": "A & A Enterprises",
    "description": "Internet Marketing & Advertising",
    "phone": "(954) 696-2243",
    "address": " 5100 SW 90th Ave  Cooper City, FL 33328",
    "location": "Walton"
  },
  {
    "name": "STIRLING Digital Media",
    "description": "Internet Consultants",
    "phone": "(954) 828-2224",
    "address": " 950 S Pine Island Rd  Plantation, FL 33324",
    "location": "Walton"
  },
  {
    "name": "SEO Services Florida",
    "description": "Internet Marketing & Advertising",
    "phone": "(505) 358-1303",
    "address": " 2181 SW 81st Ave  Davie, FL 33324",
    "location": "Walton"
  },
  {
    "name": "Ebay-University.com",
    "description": "Internet Marketing & Advertising",
    "phone": "(954) 849-3652",
    "address": " 8255 W Sunrise Blvd  Plantation, FL 33322",
    "location": "Walton"
  },
  {
    "name": "Kosherklipper.com",
    "description": "Internet Marketing & Advertising",
    "phone": "(954) 608-1369",
    "address": " 2605 S University Dr  Davie, FL 33328",
    "location": "Walton"
  },
  {
    "name": "Smitty's Holdings, Inc.",
    "description": "Internet Marketing & Advertising",
    "phone": "(954) 423-2785",
    "address": " 4611 S University Dr # 440  Davie, FL 33328",
    "location": "Walton"
  },
  {
    "name": "Dcgtrade.com",
    "description": "Internet Marketing & Advertising",
    "phone": "(917) 628-4131",
    "address": " 1876 N University Dr  Plantation, FL 33322",
    "location": "Walton"
  },
  {
    "name": "Clickrightmedia",
    "description": "Publicity Service",
    "phone": "(954) 606-6599",
    "address": " 2119 Nova Village Dr  Davie, FL 33317",
    "location": "Walton"
  },
  {
    "name": "10Minutetee",
    "description": "Internet Marketing & Advertising",
    "phone": "(844) 582-0101",
    "address": " 7080 W State Road 84  Davie, FL 33317",
    "location": "Walton"
  },
  {
    "name": "Wolfhuntingear.com",
    "description": "Internet Marketing & Advertising",
    "phone": "(954) 292-6369",
    "address": " 4040 SW 72nd Ter  Davie, FL 33314",
    "location": "Walton"
  },
  {
    "name": "Roly Inc",
    "description": "Internet Marketing & Advertising",
    "phone": "(954) 616-5900",
    "address": " 7320 Griffin Rd  Davie, FL 33314",
    "location": "Walton"
  },
  {
    "name": "Rabbigold.com",
    "description": "Internet Marketing & Advertising",
    "phone": "(954) 721-7660",
    "address": " 5700 NW 94th Ave  Tamarac, FL 33321",
    "location": "Walton"
  },
  {
    "name": "Intergroup Business Doctors, Intl., Inc",
    "description": "Business Coaches & Consultants",
    "phone": "(954) 533-5660",
    "address": " 3048 Sunrise Lakes Dr. E, 118  Sunrise, FL 33322",
    "location": "Walton"
  },
  {
    "name": "Lucrative Dreams",
    "description": "Web Site Design & Services",
    "phone": "(954) 890-2297",
    "address": " 4902 Umbrella Tree Ln  Fort Lauderdale, FL 33319",
    "location": "Walton"
  },
  {
    "name": "Freethingz Inc",
    "description": "Internet Marketing & Advertising",
    "phone": "(954) 722-5737",
    "address": " 6728 NW 70th Ave  Tamarac, FL 33321",
    "location": "Walton"
  },
  {
    "name": "Business Marketing",
    "description": "Internet Marketing & Advertising",
    "phone": "(954) 439-4316",
    "address": " 900 SW 42nd Ave  Plantation, FL 33317",
    "location": "Walton"
  },
  {
    "name": "Afrancillon.com",
    "description": "Internet Marketing & Advertising",
    "phone": "(954) 839-4733",
    "address": " 6870 NW 69th Ct  Tamarac, FL 33321",
    "location": "Walton"
  },
  {
    "name": "Kr3ative",
    "description": "Internet Marketing & Advertising",
    "phone": "(954) 357-0342",
    "address": " 201 Peters Rd # 1000  Plantation, FL 33324",
    "location": "Walton"
  },
  {
    "name": "Americanqazaq.com",
    "description": "Internet Marketing & Advertising",
    "phone": "(954) 639-9261",
    "address": " 6021 NW 61st Ave  Tamarac, FL 33319",
    "location": "Walton"
  },
  {
    "name": "DeJa Vu Entertainment Inc.",
    "description": "Internet Marketing & Advertising",
    "phone": "(954) 829-4433",
    "address": " 2501 NW 41st Ave Apt 311  Lauderhill, FL 33313",
    "location": "Walton"
  },
  {
    "name": "jirosbusiness",
    "description": "Internet Marketing & Advertising",
    "phone": "(888) 491-5490",
    "address": " 800 NW 69th Ave  hollywood, FL 33024",
    "location": "Walton"
  },
  {
    "name": "Sofield Sign Service",
    "description": "Signs",
    "phone": "(954) 572-6192",
    "address": " 10295 NW 53rd St  Sunrise, FL 33351",
    "location": "Walton"
  },
  {
    "name": "Real Signs",
    "description": "Signs",
    "phone": "(954) 765-6660",
    "address": " 10293 NW 53rd St  Sunrise, FL 33351",
    "location": "Walton"
  },
  {
    "name": "Ruben Romero",
    "description": "Signs",
    "phone": "(954) 380-0451",
    "address": " 10257 NW 53rd St  Sunrise, FL 33351",
    "location": "Walton"
  },
  {
    "name": "Fast Service Signs of South FL",
    "description": "Signs",
    "phone": "(954) 380-0451",
    "address": " 10257 NW 53rd St  Sunrise, FL 33351",
    "location": "Walton"
  },
  {
    "name": "Almonte Signs",
    "description": "Signs",
    "phone": "(954) 999-5282",
    "address": " 10221 NW 53rd St  Sunrise, FL 33351",
    "location": "Walton"
  },
  {
    "name": "Sign Effect",
    "description": "Advertising Specialties",
    "phone": "(954) 990-4190",
    "address": " 1834 N University Dr  Plantation, FL 33322",
    "location": "Walton"
  },
  {
    "name": "Sign Central Inc",
    "description": "Signs",
    "phone": "(954) 748-7553",
    "address": " SUNRISE Lakes Blvd  Sunrise, FL 33322",
    "location": "Walton"
  },
  {
    "name": "J G Of South Florida Inc",
    "description": "Advertising Specialties",
    "phone": "(954) 316-6310",
    "address": " 7378 NW 5th St  Plantation, FL 33317",
    "location": "Walton"
  },
  {
    "name": "Media Concepts & Advertising",
    "description": "Advertising Specialties",
    "phone": "(954) 949-0540",
    "address": " 2031 SW 70th Ave Ste C21  Davie, FL 33317",
    "location": "Walton"
  },
  {
    "name": "Baron Promotions & Marketing Inc",
    "description": "Marketing Programs & Services",
    "phone": "(954) 492-2766",
    "address": " 6600 NW 16th St  Plantation, FL 33313",
    "location": "Walton"
  },
  {
    "name": "Idg Sings Corp",
    "description": "Signs",
    "phone": "(954) 347-2632",
    "address": " 7778 NW 44th St  Lauderhill, FL 33351",
    "location": "Walton"
  },
  {
    "name": "Art Deco Signs Inc",
    "description": "Signs",
    "phone": "(305) 405-0930",
    "address": " 6511 SW 57th St  Davie, FL 33314",
    "location": "Walton"
  },
  {
    "name": "Davie Sign Shop",
    "description": "Signs",
    "phone": "(954) 583-6762",
    "address": " 5936 SW 44th St  Davie, FL 33314",
    "location": "Walton"
  },
  {
    "name": "MS Legacy Export",
    "description": "Advertising Specialties",
    "phone": "(954) 777-2034",
    "address": " 6722 NW 39th Ln  Lauderhill, FL 33319",
    "location": "Walton"
  },
  {
    "name": "Promo Watch Inc",
    "description": "Advertising-Promotional Products",
    "phone": "(954) 735-5800",
    "address": " 3800 Inverrary Blvd  Lauderhill, FL 33319",
    "location": "Walton"
  },
  {
    "name": "Creation Nation Customs Inc.",
    "description": "Signs",
    "phone": "(561) 336-0817",
    "address": " 5965 Stirling Rd #266  Davie, FL 33314",
    "location": "Walton"
  },
  {
    "name": "Stork Signs and More",
    "description": "Paging & Signaling Equipment",
    "phone": "(754) 367-0799",
    "address": " 6104 NW 73rd Ave  Tamarac, FL 33321",
    "location": "Walton"
  },
  {
    "name": "Creative Visual Displays",
    "description": "Product Design, Development & Marketing",
    "phone": "(954) 336-7937",
    "address": " 6001 N Falls Circle Dr  Lauderhill, FL 33319",
    "location": "Walton"
  },
  {
    "name": "Edlgi Sign",
    "description": "Advertising Specialties",
    "phone": "(954) 724-9059",
    "address": " 6807 W Commercial Blvd  Lauderhill, FL 33319",
    "location": "Walton"
  },
  {
    "name": "Digital Technologies",
    "description": "Copying & Duplicating Service",
    "phone": "(954) 316-8636",
    "address": " 3701 SW 47th Ave  Davie, FL 33314",
    "location": "Walton"
  },
  {
    "name": "Asap",
    "description": "Signs",
    "phone": "(954) 314-7186",
    "address": " 4743 Orange Dr  Davie, FL 33314",
    "location": "Walton"
  },
  {
    "name": "SCG & Associates Inc",
    "description": "Lithographers",
    "phone": "(954) 925-7607",
    "address": " 4001 SW 47th Ave  Davie, FL 33314",
    "location": "Walton"
  },
  {
    "name": "Signners",
    "description": "Signs",
    "phone": "(954) 667-1414",
    "address": " 4111 SW 47th Ave  Davie, FL 33314",
    "location": "Walton"
  },
  {
    "name": "Ace Signs",
    "description": "Advertising Specialties",
    "phone": "(954) 581-8992",
    "address": " 4701 Orange Dr  Davie, FL 33314",
    "location": "Walton"
  },
  {
    "name": "American Art Sign Co",
    "description": "Signs",
    "phone": "(954) 792-1044",
    "address": " 4679 Orange Dr  Davie, FL 33314",
    "location": "Walton"
  },
  {
    "name": "The Wiggins Agency",
    "description": "Advertising Specialties",
    "phone": "(954) 368-2644",
    "address": " 1773 NW 40th Ave Ste 201  Lauderhill, FL 33313",
    "location": "Walton"
  },
  {
    "name": "Digital Graphix",
    "description": "Signs",
    "phone": "(877) 278-2284",
    "address": " 10365 NW 3rd St  Pembroke Pines, FL 33026",
    "location": "Walton"
  },
  {
    "name": "Phillip Valdes Consulting",
    "description": "Marketing Consultants",
    "phone": "(305) 981-6530",
    "address": " 10211 Pines Blvd Suite 165  Pembroke Pines, FL 33026",
    "location": "Walton"
  },
  {
    "name": "Signarama",
    "description": "Signs",
    "phone": "(954) 362-7361",
    "address": " 5263 SW 155th Way  Miramar, FL 33027",
    "location": "Walton"
  },
  {
    "name": "Barbara Sharief Campaign",
    "description": "Advertising Specialties",
    "phone": "(954) 251-2227",
    "address": " 4800 SW 141st Ave  Miramar, FL 33027",
    "location": "Walton"
  },
  {
    "name": "Carlos Signs",
    "description": "Signs",
    "phone": "(954) 909-1267",
    "address": " 8420 Pasadena Blvd  Pembroke Pines, FL 33024",
    "location": "Walton"
  },
  {
    "name": "Smart Source of Georgia",
    "description": "Lithographers",
    "phone": "(305) 625-8017",
    "address": " 9050 Pines Blvd  Pembroke Pines, FL 33024",
    "location": "Walton"
  },
  {
    "name": "Bellino University Drive",
    "description": "Advertising Specialties",
    "phone": "(954) 966-8181",
    "address": " 8160 Pines Blvd  Pembroke Pines, FL 33024",
    "location": "Walton"
  },
  {
    "name": "Pector Promotion",
    "description": "Advertising Specialties",
    "phone": "(305) 829-9264",
    "address": " 19636 W Lake Dr  Hialeah, FL 33015",
    "location": "Walton"
  },
  {
    "name": "Business Resources Of South Fl",
    "description": "Copying & Duplicating Service",
    "phone": "(305) 829-3155",
    "address": " 6841 N Saint Andrews Dr  Hialeah, FL 33015",
    "location": "Walton"
  },
  {
    "name": "Miller Signs",
    "description": "Signs",
    "phone": "(786) 323-9161",
    "address": " 2501 N 69th Ave  Hollywood, FL 33024",
    "location": "Walton"
  },
  {
    "name": "Micole Electric & Signs Inc",
    "description": "Signs",
    "phone": "(954) 536-3245",
    "address": " 10840 SW 1st Ct  Coral Springs, FL 33071",
    "location": "Walton"
  },
  {
    "name": "Sunrise Community Inc",
    "description": "Signs",
    "phone": "(305) 621-1971",
    "address": " 19731 NW 57th Pl  Hialeah, FL 33015",
    "location": "Walton"
  },
  {
    "name": "Ultra Digital Sign, LLC.",
    "description": "Signs",
    "phone": "(786) 426-3454",
    "address": " 5951 NW 189th Street Rd # 36  Hialeah, FL 33015",
    "location": "Walton"
  },
  {
    "name": "JL Promotions Inc",
    "description": "Advertising-Promotional Products",
    "phone": "(954) 964-7950",
    "address": " 7100 Pines Blvd  Hollywood, FL 33024",
    "location": "Walton"
  },
  {
    "name": "signs & printing",
    "description": "Signs",
    "phone": "(786) 426-2396",
    "address": " 4955 NW 199th St Lot 122  Miami Gardens, FL 33055",
    "location": "Walton"
  },
  {
    "name": "AIA LogoTools",
    "description": "Advertising-Promotional Products",
    "phone": "(954) 255-3644",
    "address": " 11642 NW 13th Mnr  Coral Springs, FL 33071",
    "location": "Walton"
  },
  {
    "name": "11800 Lakeview Inc",
    "description": "Advertising Specialties",
    "phone": "(954) 806-0235",
    "address": " 11800 Lakeview Dr  Coral Springs, FL 33071",
    "location": "Walton"
  },
  {
    "name": "Printdocs Inc",
    "description": "Lithographers",
    "phone": "(305) 999-0245",
    "address": " 5475 NW 189th St  Miami Gardens, FL 33055",
    "location": "Walton"
  },
  {
    "name": "Promo Docs",
    "description": "Digital Printing & Imaging",
    "phone": "(305) 999-0245",
    "address": " 5475 NW 189th St  Miami Gardens, FL 33055",
    "location": "Walton"
  },
  {
    "name": "A Aerial Sign Co",
    "description": "Signs",
    "phone": "(954) 989-2086",
    "address": " 1600 E Airport Rd  Pembroke Pines, FL 33023",
    "location": "Walton"
  },
  {
    "name": "JB Advertising",
    "description": "Advertising Specialties",
    "phone": "(954) 298-9530",
    "address": " 1300 SW 82nd Ave  North Lauderdale, FL 33068",
    "location": "Walton"
  },
  {
    "name": "Sesto MONOGRAMS",
    "description": "Embroidery",
    "phone": "(954) 962-3345",
    "address": " 7181 Pembroke Rd  Pembroke Pines, FL 33023",
    "location": "Walton"
  },
  {
    "name": "Gn Signs",
    "description": "Advertising Specialties",
    "phone": "(954) 589-0990",
    "address": " 7168 Pembroke Rd  Miramar, FL 33023",
    "location": "Walton"
  },
  {
    "name": "J Feldman Signs Inc",
    "description": "Signs",
    "phone": "(954) 587-7533",
    "address": " 3936 SW 12th Ct  Fort Lauderdale, FL 33312",
    "location": "Walton"
  },
  {
    "name": "Firewater Creative",
    "description": "Advertising Agencies",
    "phone": "(954) 828-1662",
    "address": " 2008 NW 3rd Ct  Fort Lauderdale, FL 33311",
    "location": "Walton"
  },
  {
    "name": "Professional Seo Services Agency",
    "description": "Advertising Agencies",
    "phone": "(754) 300-0462",
    "address": " 1868 NW 38th Ave  Fort Lauderdale, FL 33311",
    "location": "Walton"
  },
  {
    "name": "Touchfly Media, Inc",
    "description": "Advertising Agencies",
    "phone": "(954) 960-7960",
    "address": " 4109 Madison St  Hollywood, FL 33021",
    "location": "Walton"
  },
  {
    "name": "Broward Promotions Inc",
    "description": "Advertising Agencies",
    "phone": "(954) 862-7285",
    "address": " 2050 Tigertail Blvd Ste F  Dania, FL 33004",
    "location": "Walton"
  },
  {
    "name": "Big Promotion Inc",
    "description": "Advertising Agencies",
    "phone": "(305) 624-0577",
    "address": " 16005 NW 52nd Ave  Hialeah, FL 33014",
    "location": "Walton"
  },
  {
    "name": "Red Throne Productions LLC",
    "description": "Advertising Agencies",
    "phone": "(954) 670-7889",
    "address": " 12450 NW 38th Ave  Opa Locka, FL 33054",
    "location": "Walton"
  },
  {
    "name": "Search Envy",
    "description": "Advertising Agencies",
    "phone": "(305) 810-8685",
    "address": " 5711 NW 48th Ave  Tamarac, FL 33319",
    "location": "Walton"
  },
  {
    "name": "Flare Digital AI",
    "description": "Advertising Agencies",
    "phone": "(754) 212-8992",
    "address": " 2630 W Broward Blvd  Fort Lauderdale, FL 33312",
    "location": "Walton"
  },
  {
    "name": "Social Agency",
    "description": "Advertising Agencies",
    "phone": "(954) 251-6276",
    "address": " 2901 Stirling Rd Ste 210  Fort Lauderdale, FL 33312",
    "location": "Walton"
  },
  {
    "name": "DashClicks",
    "description": "Advertising Agencies",
    "phone": "(866) 600-3369",
    "address": " 2901 Stirling Rd Ste 210  Fort Lauderdale, FL 33312",
    "location": "Walton"
  },
  {
    "name": "Blue Interactive Agency",
    "description": "Advertising Agencies",
    "phone": "(954) 779-2801",
    "address": " 3323 W Commercial Blvd Ste 260  Fort Lauderdale, FL 33309",
    "location": "Walton"
  },
  {
    "name": "Npsapps",
    "description": "Advertising Agencies",
    "phone": "(954) 368-1640",
    "address": " 1500 W Cypress Creek Rd Ste 503  Fort Lauderdale, FL 33309",
    "location": "Walton"
  },
  {
    "name": "Groove Music Promotion",
    "description": "Advertising Agencies",
    "phone": "(720) 805-5525",
    "address": " 2837 Bahama Dr  Miramar, FL 33023",
    "location": "Walton"
  },
  {
    "name": "AKEMA Group",
    "description": "Advertising Agencies",
    "phone": "(954) 399-1230",
    "address": " 121 S 61st Ter  Hollywood, FL 33023",
    "location": "Walton"
  },
  {
    "name": "Demand Influence Media",
    "description": "Advertising Agencies",
    "phone": "(954) 329-0290",
    "address": " 16000 Pines Blvd  Pembroke Pines, FL 33082",
    "location": "Walton"
  },
  {
    "name": "5 Dollar Ads",
    "description": "Advertising Agencies",
    "phone": "(833) 753-6552",
    "address": " 1925 SW 68th Ave  North Lauderdale, FL 33068",
    "location": "Walton"
  },
  {
    "name": "Appreciation Agency",
    "description": "Advertising Agencies",
    "phone": "(786) 574-2275",
    "address": " 15476 NW 77th Ct  Hialeah, FL 33016",
    "location": "Walton"
  },
  {
    "name": "Iluma Agency",
    "description": "Advertising Agencies",
    "phone": "(786) 703-3083",
    "address": " 8100 Oak Ln Ste 202  Miami Lakes, FL 33016",
    "location": "Walton"
  },
  {
    "name": "One Million Friends of Madison",
    "description": "Advertising Agencies",
    "phone": "(954) 708-4073",
    "address": " 3639 Coral Springs Dr  Coral Springs, FL 33065",
    "location": "Walton"
  },
  {
    "name": "SEO Maven",
    "description": "Advertising Agencies",
    "phone": "(754) 209-6137",
    "address": " 4000 Hollywood Blvd Ste 555S  Hollywood, FL 33021",
    "location": "Walton"
  },
  {
    "name": "Goldforest",
    "description": "Advertising Agencies",
    "phone": "(954) 929-7790",
    "address": " 2994 Lakewood Ln  Hollywood, FL 33021",
    "location": "Walton"
  },
  {
    "name": "ITC Media Network",
    "description": "Advertising Agencies",
    "phone": "(954) 369-5600",
    "address": " 3301 N University Dr  Coral Springs, FL 33065",
    "location": "Walton"
  },
  {
    "name": "Black Belt Digital Marketing",
    "description": "Advertising Agencies",
    "phone": "(954) 220-4932",
    "address": " 3301 N University Dr Ste 100  Coral Springs, FL 33065",
    "location": "Walton"
  },
  {
    "name": "Marketing Matters",
    "description": "Advertising Agencies",
    "phone": "(954) 925-1511",
    "address": " 2700 N 29th Ave  Hollywood, FL 33020",
    "location": "Walton"
  },
  {
    "name": "Lohe Creative Group",
    "description": "Advertising Agencies",
    "phone": "(786) 351-4048",
    "address": " 8946 w 35th way  Hialeah, FL 33018",
    "location": "Walton"
  },
  {
    "name": "Valpak of Fort Lauderdale",
    "description": "Advertising Agencies",
    "phone": "(954) 485-5405",
    "address": " 5423 N State Road 7  Fort Lauderdale, FL 33319",
    "location": "Walton"
  },
  {
    "name": "Your Internet Video",
    "description": "Advertising Agencies",
    "phone": "(954) 929-9231",
    "address": " 3130 NW 68th St  Fort Lauderdale, FL 33309",
    "location": "Walton"
  },
  {
    "name": "VideoBoard Corporation",
    "description": "Advertising Agencies",
    "phone": "(786) 417-9818",
    "address": " 1451 W Cypress Creek Rd Ste 300  Fort Lauderdale, FL 33309",
    "location": "Walton"
  },
  {
    "name": "Future Endeavors",
    "description": "Advertising Agencies",
    "phone": "(954) 893-6068",
    "address": " 5927 Sheridan St  Hollywood, FL 33021",
    "location": "Walton"
  },
  {
    "name": "S-Tainer Co",
    "description": "Advertising Agencies",
    "phone": "(954) 880-1166",
    "address": " 1580 SW 25th St  West Park, FL 33023",
    "location": "Walton"
  },
  {
    "name": "Adroc Productions Inc",
    "description": "Advertising Agencies",
    "phone": "(954) 346-0730",
    "address": " 3770 NW 124th Ave  Coral Springs, FL 33065",
    "location": "Walton"
  },
  {
    "name": "Ciro Guerra",
    "description": "Advertising Agencies",
    "phone": "(954) 362-7380",
    "address": " 4932 Van Buren St  Hollywood, FL 33021",
    "location": "Walton"
  },
  {
    "name": "River Distributor",
    "description": "Advertising Agencies",
    "phone": "(305) 698-9588",
    "address": " 2314 W 80th St  Hialeah, FL 33016",
    "location": "Walton"
  },
  {
    "name": "Engelhardt Advertising",
    "description": "Advertising Agencies",
    "phone": "(954) 613-5139",
    "address": " 4000 Hollywood Blvd  Hollywood, FL 33021",
    "location": "Walton"
  },
  {
    "name": "Monsters Distributing Inc",
    "description": "Advertising Agencies",
    "phone": "(305) 231-1616",
    "address": " 7527 W 24th Ave  Hialeah, FL 33016",
    "location": "Walton"
  },
  {
    "name": "Al Behrendt Enterprises Inc",
    "description": "Advertising Agencies",
    "phone": "(954) 920-7877",
    "address": " 1 Oakwood Blvd Ste 140  Hollywood, FL 33020",
    "location": "Walton"
  },
  {
    "name": "Triton Digital",
    "description": "Advertising Agencies",
    "phone": "(786) 362-5215",
    "address": " 6975 W 16th Ave Apt 310  Hialeah, FL 33014",
    "location": "Walton"
  }
]
