[
  {
    "name": "Williams",
    "description": "Advertising Agencies",
    "phone": "(850) 572-7229",
    "address": " 1006 Hawthorn Dr  Pensacola, FL 32507",
    "location": "Washington"
  },
  {
    "name": "Vowells Downtown Printing",
    "description": "Advertising Agencies",
    "phone": "(850) 438-7831",
    "address": " 1233 Barrancas Ave  Pensacola, FL 32502",
    "location": "Washington"
  },
  {
    "name": "Thrifty Nickel",
    "description": "Advertising Agencies",
    "phone": "(850) 469-9712",
    "address": " 225 N Pace Blvd  Pensacola, FL 32505",
    "location": "Washington"
  },
  {
    "name": "Valpak of The Gulf Coast",
    "description": "Advertising Agencies",
    "phone": "(850) 530-8557",
    "address": " 109 N A St  Pensacola, FL 32502",
    "location": "Washington"
  },
  {
    "name": "Reel Centric",
    "description": "Advertising Agencies",
    "phone": "(850) 912-4229",
    "address": " 3 W Garden St  Pensacola, FL 32502",
    "location": "Washington"
  },
  {
    "name": "LocaliQ",
    "description": "Advertising Agencies",
    "phone": "(877) 525-6084",
    "address": " 2 N Palafox St  Pensacola, FL 32502",
    "location": "Washington"
  },
  {
    "name": "Pnj Media Solutions",
    "description": "Advertising Agencies",
    "phone": "(850) 435-8660",
    "address": " 101 E Romana St  Pensacola, FL 32502",
    "location": "Washington"
  },
  {
    "name": "Diane Mack Advertising",
    "description": "Advertising Agencies",
    "phone": "(850) 438-0207",
    "address": " 29 E Wright St  Pensacola, FL 32501",
    "location": "Washington"
  },
  {
    "name": "AC Advertising",
    "description": "Advertising Agencies",
    "phone": "(850) 437-3301",
    "address": " 10526 Heatherwood Dr  Pensacola, FL 32506",
    "location": "Washington"
  },
  {
    "name": "Idgroup",
    "description": "Advertising Agencies",
    "phone": "(850) 438-7823",
    "address": " 300 E Intendencia St  Pensacola, FL 32502",
    "location": "Washington"
  },
  {
    "name": "Wilson Talbot & Associates Inc",
    "description": "Advertising Agencies",
    "phone": "(850) 432-8170",
    "address": " 529 E Government St  Pensacola, FL 32502",
    "location": "Washington"
  },
  {
    "name": "E W Bullock Associates",
    "description": "Advertising Agencies",
    "phone": "(850) 438-4015",
    "address": " 730 Bayfront Pkwy  Pensacola, FL 32502",
    "location": "Washington"
  },
  {
    "name": "Appleyard Agency",
    "description": "Advertising Agencies",
    "phone": "(850) 494-2194",
    "address": " 4400 Bayou Blvd  Pensacola, FL 32503",
    "location": "Washington"
  },
  {
    "name": "J. Howard",
    "description": "Advertising Agencies",
    "phone": "(850) 629-9564",
    "address": " 707 E Cervantes St  Pensacola, FL 32501",
    "location": "Washington"
  },
  {
    "name": "Local Web Branding",
    "description": "Advertising Agencies",
    "phone": "(850) 725-5696",
    "address": " 5336 N Blue Angel Pkwy  Pensacola, FL 32526",
    "location": "Washington"
  },
  {
    "name": "F9 Digital Media",
    "description": "Advertising Agencies",
    "phone": "(850) 857-8335",
    "address": " 195 E Fairfield Dr  Pensacola, FL 32503",
    "location": "Washington"
  },
  {
    "name": "J & C Co",
    "description": "Advertising Agencies",
    "phone": "(850) 607-8882",
    "address": " 11596 Belize Dr  Pensacola, FL 32506",
    "location": "Washington"
  },
  {
    "name": "Southern Media Inc",
    "description": "Advertising Agencies",
    "phone": "(850) 477-3995",
    "address": " 9165 Roe St 4400 Bayou Bl  Pensacola, FL 32503",
    "location": "Washington"
  },
  {
    "name": "Electronic Display Networks",
    "description": "Advertising Agencies",
    "phone": "(850) 432-8080",
    "address": " 3014 E Cervantes St  Pensacola, FL 32503",
    "location": "Washington"
  },
  {
    "name": "McCall Duncan",
    "description": "Advertising Agencies",
    "phone": "(850) 476-5035",
    "address": " 4400 Bayou Blvd  Pensacola, FL 32503",
    "location": "Washington"
  },
  {
    "name": "Michael Kenney Graphic Design",
    "description": "Advertising Agencies",
    "phone": "(850) 433-1972",
    "address": " 4400 Bayou Blvd  Pensacola, FL 32503",
    "location": "Washington"
  },
  {
    "name": "Name Droppers",
    "description": "Advertising Agencies",
    "phone": "(850) 492-4900",
    "address": " 1192 Naples Dr  Pensacola, FL 32507",
    "location": "Washington"
  },
  {
    "name": "Adergy",
    "description": "Advertising Agencies",
    "phone": "(850) 932-5700",
    "address": " 14 Live Oak St  Gulf Breeze, FL 32561",
    "location": "Washington"
  },
  {
    "name": "Romjue Advertising & Co",
    "description": "Advertising Agencies",
    "phone": "(850) 916-2822",
    "address": " 913 Gulf Breeze Pkwy  Gulf Breeze, FL 32561",
    "location": "Washington"
  },
  {
    "name": "Jo Services",
    "description": "Advertising Agencies",
    "phone": "(850) 677-8028",
    "address": " 1101 Gulf Breeze Pkwy  Gulf Breeze, FL 32561",
    "location": "Washington"
  },
  {
    "name": "Prosperous Internet Marketing Inc",
    "description": "Advertising Agencies",
    "phone": "(850) 462-5272",
    "address": " 180 E Burgess Rd  Pensacola, FL 32503",
    "location": "Washington"
  },
  {
    "name": "Clear Channel Airports",
    "description": "Advertising Agencies",
    "phone": "(850) 433-1118",
    "address": " 2430 Airport Blvd  Pensacola, FL 32504",
    "location": "Washington"
  },
  {
    "name": "Lea Personnel Management",
    "description": "Advertising Agencies",
    "phone": "(850) 494-9168",
    "address": " 6210 Maybelle Dr  Pensacola, FL 32504",
    "location": "Washington"
  },
  {
    "name": "Betacom Inc",
    "description": "Advertising Agencies",
    "phone": "(850) 912-8682",
    "address": " 8670 Fowler Ave  Pensacola, FL 32534",
    "location": "Washington"
  },
  {
    "name": "ELW Consulting",
    "description": "Advertising Agencies",
    "phone": "(850) 476-1646",
    "address": " 6311 Dunlieth Pl  Pensacola, FL 32504",
    "location": "Washington"
  },
  {
    "name": "Goodson Racing",
    "description": "Advertising Agencies",
    "phone": "(850) 477-0994",
    "address": " 89 W Hood Dr  Pensacola, FL 32534",
    "location": "Washington"
  },
  {
    "name": "Davis & Company",
    "description": "Advertising Agencies",
    "phone": "(850) 934-7000",
    "address": " 947 Vestavia Way  Gulf Breeze, FL 32563",
    "location": "Washington"
  },
  {
    "name": "Saritus",
    "description": "Advertising Agencies",
    "phone": "(850) 291-6837",
    "address": " 1765 E Nine Mile Rd  Pensacola, FL 32514",
    "location": "Washington"
  },
  {
    "name": "US Digital Media Inc",
    "description": "Advertising Agencies",
    "phone": "(850) 473-8886",
    "address": " 9100 Hamman Ave  Pensacola, FL 32514",
    "location": "Washington"
  },
  {
    "name": "Wcaa Inc",
    "description": "Advertising Agencies",
    "phone": "(850) 478-6540",
    "address": " 3533 Pine Forest Rd  Cantonment, FL 32533",
    "location": "Washington"
  },
  {
    "name": "Hip Creative Agency",
    "description": "Advertising Agencies",
    "phone": "(850) 359-3081",
    "address": " 2690 S Highway 95a  Cantonment, FL 32533",
    "location": "Washington"
  },
  {
    "name": "The Original Clark's Flea Market U.S.A",
    "description": "Advertising Agencies",
    "phone": "(850) 968-9595",
    "address": " 2345 Pompano Rd  Cantonment, FL 32533",
    "location": "Washington"
  },
  {
    "name": "Randall, Hamishe N",
    "description": "Advertising Agencies",
    "phone": "(850) 916-4901",
    "address": " 3880 Paradise Bay Dr  Gulf Breeze, FL 32563",
    "location": "Washington"
  },
  {
    "name": "Vista Outdoor Advertising Inc",
    "description": "Advertising Agencies",
    "phone": "(888) 603-0804",
    "address": " 3384 Barrancas Ave  Pensacola, FL 32507",
    "location": "Washington"
  },
  {
    "name": "3SIXTY Marketing",
    "description": "Advertising Agencies",
    "phone": "(850) 393-4605",
    "address": " 350 W Cedar St Ste 300C  Pensacola, FL 32502",
    "location": "Washington"
  },
  {
    "name": "Lisa Bradley",
    "description": "Advertising Agencies",
    "phone": "(850) 438-7831",
    "address": " 1233 Barrancas Ave  Pensacola, FL 32502",
    "location": "Washington"
  },
  {
    "name": "Baybridge Idea Group",
    "description": "Advertising Agencies",
    "phone": "(850) 444-9849",
    "address": " 226 Palafox Pl Ste 402  Pensacola, FL 32502",
    "location": "Washington"
  },
  {
    "name": "Ideaworks, Inc.",
    "description": "Advertising Agencies",
    "phone": "(850) 434-9095",
    "address": " 1110 N Palafox St  Pensacola, FL 32501",
    "location": "Washington"
  },
  {
    "name": "Maps & Legends Marketing",
    "description": "Advertising Agencies",
    "phone": "(850) 462-4982",
    "address": " 418 W Garden St Ste 306  Pensacola, FL 32502",
    "location": "Washington"
  },
  {
    "name": "Advertising Agent: Andrea Bonner",
    "description": "Advertising Agencies",
    "phone": "(850) 982-0848",
    "address": " 500 W Belmont St  Pensacola, FL 32501",
    "location": "Washington"
  },
  {
    "name": "Premier Marketing Associates",
    "description": "Advertising Agencies",
    "phone": "(850) 497-6208",
    "address": " 125 W Romana St Ste 525  Pensacola, FL 32502",
    "location": "Washington"
  },
  {
    "name": "HIP Creative Inc.",
    "description": "Advertising Agencies",
    "phone": "(850) 359-3081",
    "address": " 301 N Barcelona St  Pensacola, FL 32501",
    "location": "Washington"
  },
  {
    "name": "Get Net Marketing LLC",
    "description": "Advertising Agencies",
    "phone": "(850) 376-2701",
    "address": " 101 Palafox Pl Unit 12670  Pensacola, FL 32591",
    "location": "Washington"
  },
  {
    "name": "Lucid Advertising, Inc.",
    "description": "Advertising Agencies",
    "phone": "(850) 760-0478",
    "address": " 226 Palafox Pl Ste 400  Pensacola, FL 32502",
    "location": "Washington"
  },
  {
    "name": "E.W. Bullock Associates Inc.",
    "description": "Advertising Agencies",
    "phone": "(850) 438-4015",
    "address": " 19 W Garden St Ste 201  Pensacola, FL 32502",
    "location": "Washington"
  },
  {
    "name": "Metrics + Message",
    "description": "Advertising Agencies",
    "phone": "(850) 270-8083",
    "address": " 3 W Garden St  Pensacola, FL 32502",
    "location": "Washington"
  },
  {
    "name": "Lamar Advertising Company of Pensacola",
    "description": "Advertising Agencies",
    "phone": "(850) 433-0024",
    "address": " 1401 N Tarragona St  Pensacola, FL 32501",
    "location": "Washington"
  },
  {
    "name": "Marketing Management Inc",
    "description": "Advertising Agencies",
    "phone": "(850) 435-9201",
    "address": " 10 E Fairfield Dr Ste C  Pensacola, FL 32501",
    "location": "Washington"
  },
  {
    "name": "Michael Kenney Graphic Design & Advertising",
    "description": "Advertising Agencies",
    "phone": "(850) 433-1972",
    "address": " 1010 N 12th Ave  Pensacola, FL 32501",
    "location": "Washington"
  },
  {
    "name": "Local Edge",
    "description": "Advertising Agencies",
    "phone": "(850) 477-7111",
    "address": " 1403 E Belmont St  Pensacola, FL 32501",
    "location": "Washington"
  },
  {
    "name": "Level Up Web Design",
    "description": "Advertising Agencies",
    "phone": "(850) 565-1688",
    "address": " PO Box 827  Pensacola, FL 32591",
    "location": "Washington"
  },
  {
    "name": "Shopper The",
    "description": "Advertising Agencies",
    "phone": "(850) 478-2222",
    "address": " 3041 E Olive Rd  Pensacola, FL 32514",
    "location": "Washington"
  },
  {
    "name": "Hutchinson Communications",
    "description": "Advertising Agencies",
    "phone": "(850) 572-3172",
    "address": " 5350 Flax Rd  Pensacola, FL 32504",
    "location": "Washington"
  },
  {
    "name": "OverPower Marketing",
    "description": "Advertising Agencies",
    "phone": "(850) 972-2666",
    "address": " 8327 Wilde Lake Rd  Pensacola, FL 32526",
    "location": "Washington"
  },
  {
    "name": "Bruno Marketing & Design",
    "description": "Advertising Agencies",
    "phone": "(850) 477-5885",
    "address": " 4340 Costa Mesa  Pensacola, FL 32504",
    "location": "Washington"
  },
  {
    "name": "Kramer Graphics Florida",
    "description": "Advertising Agencies",
    "phone": "(850) 934-7000",
    "address": " 1236 Autumn Breeze Cir  Gulf Breeze, FL 32563",
    "location": "Washington"
  },
  {
    "name": "Currin Graphics",
    "description": "Advertising Agencies",
    "phone": "(850) 505-0955",
    "address": " 2814 Copter Rd  Pensacola, FL 32514",
    "location": "Washington"
  },
  {
    "name": "Consult 4",
    "description": "Advertising Agencies",
    "phone": "(850) 430-9805",
    "address": " 4752 Livingston Dr  Pensacola, FL 32504",
    "location": "Washington"
  },
  {
    "name": "Logo Masters International Inc",
    "description": "Advertising Agencies",
    "phone": "(850) 937-6770",
    "address": " 3018 Stefani Road, Bldg. 2  Cantonment, FL 32533",
    "location": "Washington"
  },
  {
    "name": "Cox Media",
    "description": "Advertising Agencies",
    "phone": "(850) 432-1403",
    "address": " 3405 McLemore Dr  Pensacola, FL 32514",
    "location": "Washington"
  },
  {
    "name": "Opulentworx",
    "description": "Internet Marketing & Advertising",
    "phone": "(850) 684-0360",
    "address": " 901 S Old Corry Field Rd  Pensacola, FL 32507",
    "location": "Washington"
  },
  {
    "name": "Edmund Bright",
    "description": "Signs",
    "phone": "(850) 455-8607",
    "address": " 1103 S Fairfield Dr  Pensacola, FL 32506",
    "location": "Washington"
  },
  {
    "name": "Bright's Signs",
    "description": "Advertising Specialties",
    "phone": "(850) 455-6143",
    "address": " 1103 S Fairfield Dr  Pensacola, FL 32506",
    "location": "Washington"
  },
  {
    "name": "Kool Graphics",
    "description": "Graphic Designers",
    "phone": "(850) 529-5442",
    "address": " 1945 Athens Ave  Pensacola, FL 32507",
    "location": "Washington"
  }
]
