[
  {
    "name": "Remember Me Promotional Specialists",
    "description": "Advertising-Promotional Products",
    "phone": "(912) 230-6981",
    "address": "16821 27th Pl  Lake City, FL 32024",
    "location": "Bradford"
  },
  {
    "name": "Cady Promos, Inc.",
    "description": "Advertising-Promotional Products",
    "phone": "(800) 234-5561",
    "address": "2140 SW Main Blvd  Lake City, FL 32025",
    "location": "Bradford"
  },
  {
    "name": "All Kinds of Design",
    "description": "Advertising-Promotional Products",
    "phone": "(386) 344-4997",
    "address": "197 SW Joyful Loop  Lake City, FL 32024",
    "location": "Bradford"
  },
  {
    "name": "Fla-Ga Signs",
    "description": "Signs",
    "phone": "(386) 438-5911",
    "address": "356 NW Turner Ave  Lake City, FL 32055",
    "location": "Bradford"
  },
  {
    "name": "Rise Above Seo",
    "description": "Advertising Agencies",
    "phone": "(800) 625-0012",
    "address": "291 SW Fantasy Gln  Lake City, FL 32024",
    "location": "Bradford"
  },
  {
    "name": "Signco",
    "description": "Signs",
    "phone": "(386) 755-4704",
    "address": "162 SW Spencer Ct  Lake City, FL 32024",
    "location": "Bradford"
  },
  {
    "name": "Global Sign Images",
    "description": "Signs",
    "phone": "(386) 438-5717",
    "address": "484 SW Commerce Dr Ste 130  Lake City, FL 32025",
    "location": "Bradford"
  },
  {
    "name": "Nation Signs",
    "description": "Signs",
    "phone": "(386) 752-4660",
    "address": "471 SW State Road 247  Lake City, FL 32025",
    "location": "Bradford"
  },
  {
    "name": "Brushworks",
    "description": "Signs",
    "phone": "(386) 752-6722",
    "address": "13324 S Us Highway 441  Lake City, FL 32025",
    "location": "Bradford"
  },
  {
    "name": "Diamond S Designs",
    "description": "Advertising-Promotional Products",
    "phone": "(386) 227-6022",
    "address": "18701 104th St  Live Oak, FL 32060",
    "location": "Bradford"
  },
  {
    "name": "Hunter Printing Co",
    "description": "Stationery Stores",
    "phone": "(386) 752-2707",
    "address": "1330 SW Main Blvd  Lake City, FL 32025",
    "location": "Bradford"
  },
  {
    "name": "Capital Signs",
    "description": "Signs",
    "phone": "(386) 487-6482",
    "address": "366 SW Knox St  Lake City, FL 32025",
    "location": "Bradford"
  },
  {
    "name": "Linton, Caleb",
    "description": "Advertising Agencies",
    "phone": "(386) 292-6882",
    "address": "144 SW Waterford Ct  Lake City, FL 32025",
    "location": "Bradford"
  },
  {
    "name": "Image of July Morning Co",
    "description": "Advertising Agencies",
    "phone": "(386) 752-8088",
    "address": "231 NW Burk Ave Ste 101  Lake City, FL 32055",
    "location": "Bradford"
  },
  {
    "name": "Dowling Signs-North Central FL",
    "description": "Signs",
    "phone": "(386) 201-0813",
    "address": "18038 NW 246th St  High Springs, FL 32643",
    "location": "Bradford"
  },
  {
    "name": "Kms Media Solutions",
    "description": "Advertising Agencies",
    "phone": "(352) 258-0193",
    "address": "PO Box 580  High Springs, FL 32655",
    "location": "Bradford"
  }
]
