[
  {
    "name": "Fineline Printing",
    "description": "Advertising-Promotional Products",
    "phone": "(321) 267-9294",
    "address": "3700 S Hopkins Ave  Titusville, FL 32780",
    "location": "Brevard"
  },
  {
    "name": "Pike Products, Inc. Space Shirts",
    "description": "Advertising-Promotional Products",
    "phone": "(321) 453-7453",
    "address": "6116 N Courtenay Pkwy  Merritt Island, FL 32953",
    "location": "Brevard"
  },
  {
    "name": "Giant Advertising Balloons",
    "description": "Balloons-Advertising & Signage",
    "phone": "(321) 264-0610",
    "address": "1691 S Washington Ave  Titusville, FL 32780",
    "location": "Brevard"
  },
  {
    "name": "Copeland, Jerry P",
    "description": "Advertising Agencies",
    "phone": "(321) 267-3972",
    "address": "1514 Country Club Dr  Titusville, FL 32780",
    "location": "Brevard"
  },
  {
    "name": "Signspot",
    "description": "Signs",
    "phone": "(321) 383-0077",
    "address": "4424 S Hopkins Ave  Titusville, FL 32780",
    "location": "Brevard"
  },
  {
    "name": "Alive Advertising",
    "description": "Advertising Specialties",
    "phone": "(321) 613-8650",
    "address": "1341 Cheney Hwy  Titusville, FL 32780",
    "location": "Brevard"
  },
  {
    "name": "Ad Astra Technology Inc",
    "description": "Advertising Agencies",
    "phone": "(321) 222-7872",
    "address": "308 Cheney Hwy  Titusville, FL 32780",
    "location": "Brevard"
  },
  {
    "name": "Caimen Group Inc",
    "description": "Advertising Agencies",
    "phone": "(321) 225-8922",
    "address": "350 N Washington Ave Ste L  Titusville, FL 32796",
    "location": "Brevard"
  },
  {
    "name": "Jack the SEO Guy",
    "description": "Internet Marketing & Advertising",
    "phone": "(321) 355-2250",
    "address": "4416 Sherwood Forest Dr  Titusville, FL 32796",
    "location": "Brevard"
  },
  {
    "name": "Safari Media Direct",
    "description": "Advertising Specialties",
    "phone": "(321) 877-3863",
    "address": "3670 N Highway 1  Cocoa, FL 32926",
    "location": "Brevard"
  },
  {
    "name": "Wolf Jessee Paquin Communications",
    "description": "Advertising Agencies",
    "phone": "(321) 633-8281",
    "address": "1970 Michigan Ave  Cocoa, FL 32922",
    "location": "Brevard"
  },
  {
    "name": "Near My BNB",
    "description": "Advertising Agencies",
    "phone": "(321) 243-6589",
    "address": "120 Venetian Way Ste 21  Merritt Island, FL 32953",
    "location": "Brevard"
  },
  {
    "name": "Wolf Enterprises",
    "description": "Advertising Specialties",
    "phone": "(321) 449-1211",
    "address": "2060 Leeward Ln  Merritt Island, FL 32953",
    "location": "Brevard"
  },
  {
    "name": "Digital Spark Marketing",
    "description": "Advertising Agencies",
    "phone": "(607) 725-8240",
    "address": "213 Sykes Point Ln  Merritt Island, FL 32953",
    "location": "Brevard"
  }
]