[
  {
    "name": "Obj Signs",
    "description": "Signs",
    "phone": "(850) 689-1771",
    "address": "5440 E Brook Dr  Crestview, FL 32539",
    "location": "Escambia"
  },
  {
    "name": "Sunshine Promo USA Inc",
    "description": "Advertising Agencies",
    "phone": "(850) 683-3733",
    "address": "1580 Texas Pkwy  Crestview, FL 32536",
    "location": "Escambia"
  },
  {
    "name": "Okie Designs",
    "description": "Advertising-Promotional Products",
    "phone": "(251) 236-1403",
    "address": "311 Briarwood Dr  Brewton, AL 36426",
    "location": "Escambia"
  },
  {
    "name": "Margie's Sew Much Fun",
    "description": "Craft Instruction",
    "phone": "(850) 682-6920",
    "address": "2014 Lacey Ln  Crestview, FL 32536",
    "location": "Escambia"
  },
  {
    "name": "Emerald Coast Signs",
    "description": "Signs",
    "phone": "(850) 398-1712",
    "address": "745 N Ferdon Blvd  Crestview, FL 32536",
    "location": "Escambia"
  },
  {
    "name": "O'Connor Dawn Inc",
    "description": "Advertising Agencies",
    "phone": "(850) 682-0605",
    "address": "3541 Buckhorn Dr  Crestview, FL 32539",
    "location": "Escambia"
  },
  {
    "name": "Williams Sign Company",
    "description": "Advertising Specialties",
    "phone": "(850) 331-3045",
    "address": "745 N Ferdon Blvd  Crestview, FL 32536",
    "location": "Escambia"
  },
  {
    "name": "A-1 Signs & Banners",
    "description": "Signs",
    "phone": "(850) 682-2820",
    "address": "355 Church St  Crestview, FL 32539",
    "location": "Escambia"
  },
  {
    "name": "DAL Consulting",
    "description": "Advertising Agencies",
    "phone": "(850) 682-7053",
    "address": "1060 Northview Dr  Crestview, FL 32536",
    "location": "Escambia"
  },
  {
    "name": "Signs 2 Go",
    "description": "Signs",
    "phone": "(850) 398-5555",
    "address": "729 Ashley Dr  Crestview, FL 32536",
    "location": "Escambia"
  },
  {
    "name": "Jus Do Signs Graphics & Gifts",
    "description": "Signs",
    "phone": "(251) 867-8686",
    "address": "720 Douglas Ave  Brewton, AL 36426",
    "location": "Escambia"
  },
  {
    "name": "Andalusia Star News Newspaper Office",
    "description": "Print Advertising",
    "phone": "(334) 222-2402",
    "address": "207 Dunson St  Andalusia, AL 36420",
    "location": "Escambia"
  },
  {
    "name": "Trophy Center Inc",
    "description": "Awards",
    "phone": "(850) 862-8413",
    "address": "529 Eglin Pkwy NE  Fort Walton Beach, FL 32547",
    "location": "Escambia"
  },
  {
    "name": "Boomer Aviation Inc",
    "description": "Directory & Guide Advertising",
    "phone": "(850) 244-1313",
    "address": "40 Lincoln Dr NW  Fort Walton Beach, FL 32547",
    "location": "Escambia"
  }
]