[
  {
    "name": "Gizmos & Garments Inc",
    "description": "Advertising-Promotional Products",
    "phone": "(407) 343-0460",
    "address": "385 E Donegan Ave  Kissimmee, FL 34744",
    "location": "Gilchrist"
  },
  {
    "name": "Wholesale Signs Fabrications",
    "description": "Advertising-Promotional Products",
    "phone": "(407) 978-6688",
    "address": "2968 Michigan Ave  Kissimmee, FL 34744",
    "location": "Gilchrist"
  },
  {
    "name": "JDK & Associates",
    "description": "Advertising-Promotional Products",
    "phone": "(888) 678-8801",
    "address": "2785 Orchid Ln  Kissimmee, FL 34744",
    "location": "Gilchrist"
  },
  {
    "name": "Cunningham's Office Supply Inc",
    "description": "Advertising-Promotional Products",
    "phone": "(407) 846-2332",
    "address": "106 Church St  Kissimmee, FL 34741",
    "location": "Gilchrist"
  },
  {
    "name": "Coleman Design Service",
    "description": "Advertising-Promotional Products",
    "phone": "(407) 399-7378",
    "address": "P O Box 618174  Orlando, FL 32861",
    "location": "Gilchrist"
  },
  {
    "name": "Rudi Tuti's Specialties",
    "description": "Advertising-Promotional Products",
    "phone": "(407) 847-7950",
    "address": "3501 W Vine St Ste 399  Kissimmee, FL 34741",
    "location": "Gilchrist"
  },
  {
    "name": "Nazaire Massillon",
    "description": "Advertising-Promotional Products",
    "phone": "(321) 333-6883",
    "address": "36 Silver Oak Cir  Kissimmee, FL 34743",
    "location": "Gilchrist"
  },
  {
    "name": "Genesis Products & Service",
    "description": "Advertising-Promotional Products",
    "phone": "(407) 855-3909",
    "address": "3956 W Town Center Blvd  Orlando, FL 32837",
    "location": "Gilchrist"
  },
  {
    "name": "We Need to Stop the Cyber Bullies",
    "description": "Advertising-Promotional Products",
    "phone": "(321) 200-4514",
    "address": "245 Windsor Ct  Kissimmee, FL 34746",
    "location": "Gilchrist"
  },
  {
    "name": "Proforma",
    "description": "Advertising-Promotional Products",
    "phone": "(877) 877-9155",
    "address": "221 Eastpark Dr  Kissimmee, FL 34747",
    "location": "Gilchrist"
  },
  {
    "name": "D D Unlimited Inc",
    "description": "Advertising-Promotional Products",
    "phone": "(407) 704-8886",
    "address": "524 Mid Florida Dr  Orlando, FL 32824",
    "location": "Gilchrist"
  },
  {
    "name": "Soul Swag Supporting Rising Lotus",
    "description": "Advertising-Promotional Products",
    "phone": "(407) 988-3328",
    "address": "9402 American Eagle Way  Orlando, FL 32837",
    "location": "Gilchrist"
  },
  {
    "name": "Jlp Promotions",
    "description": "Advertising-Promotional Products",
    "phone": "(407) 342-4968",
    "address": "8024 Bright Ct  Orlando, FL 32836",
    "location": "Gilchrist"
  },
  {
    "name": "Palm Promotional",
    "description": "Advertising-Promotional Products",
    "phone": "(863) 576-7684",
    "address": "1539 Caterpillar St  Saint Cloud, FL 34771",
    "location": "Gilchrist"
  },
  {
    "name": "Promotional Mix",
    "description": "Advertising-Promotional Products",
    "phone": "(786) 603-2878",
    "address": "14120 Sanctuary Club Rd  Orlando, FL 32832",
    "location": "Gilchrist"
  },
  {
    "name": "R Devie Art of Life",
    "description": "Advertising-Promotional Products",
    "phone": "(407) 248-1562",
    "address": "7575 Kingspointe Pkwy  Orlando, FL 32819",
    "location": "Gilchrist"
  },
  {
    "name": "Vacation Ventures",
    "description": "Advertising-Promotional Products",
    "phone": "(407) 839-1012",
    "address": "7075 Kingspointe Pkwy  Orlando, FL 32819",
    "location": "Gilchrist"
  },
  {
    "name": "Latitude Promotions",
    "description": "Advertising-Promotional Products",
    "phone": "(407) 248-1040",
    "address": "7575 Dr Phillips Blvd  Orlando, FL 32819",
    "location": "Gilchrist"
  },
  {
    "name": "Brown Promotions & Mrchndsng",
    "description": "Advertising-Promotional Products",
    "phone": "(407) 201-5468",
    "address": "106 Bridgeport Way  Kissimmee, FL 34758",
    "location": "Gilchrist"
  },
  {
    "name": "Graphix Solutions",
    "description": "Advertising-Promotional Products",
    "phone": "(407) 234-7271",
    "address": "2478 Lake Debra Dr  orlando, FL 32835",
    "location": "Gilchrist"
  },
  {
    "name": "Price Chopper Wristbands",
    "description": "Advertising-Promotional Products",
    "phone": "(407) 679-1600",
    "address": "6325 McCoy Rd  Orlando, FL 32822",
    "location": "Gilchrist"
  },
  {
    "name": "Bowled Over Promotions",
    "description": "Advertising-Promotional Products",
    "phone": "(407) 481-9192",
    "address": "2504 Lauderdale Ct  Orlando, FL 32805",
    "location": "Gilchrist"
  },
  {
    "name": "Florida State Distributors Inc",
    "description": "Advertising-Promotional Products",
    "phone": "(407) 841-8344",
    "address": "4601 SW 34th St  Orlando, FL 32811",
    "location": "Gilchrist"
  },
  {
    "name": "Appreciation Promotion Services",
    "description": "Advertising-Promotional Products",
    "phone": "(407) 242-7584",
    "address": "4572 S Orange Blossom Trl  Orlando, FL 32839",
    "location": "Gilchrist"
  },
  {
    "name": "Jasper Enterprises Inc",
    "description": "Advertising-Promotional Products",
    "phone": "(407) 250-4890",
    "address": "4061 Forrestal Ave  Orlando, FL 32806",
    "location": "Gilchrist"
  },
  {
    "name": "Wow Promotional Items",
    "description": "Advertising-Promotional Products",
    "phone": "(407) 394-8955",
    "address": "4401 Vineland Rd  Orlando, FL 32811",
    "location": "Gilchrist"
  },
  {
    "name": "Betty's Promos Plus",
    "description": "Advertising-Promotional Products",
    "phone": "(321) 234-1212",
    "address": "3546 S Orange Ave  Orlando, FL 32806",
    "location": "Gilchrist"
  },
  {
    "name": "Shuffled Ink",
    "description": "Advertising-Promotional Products",
    "phone": "(407) 298-3579",
    "address": "3724 Vineland Rd Unit 3  Orlando, FL 32811",
    "location": "Gilchrist"
  },
  {
    "name": "SEO Web Designs",
    "description": "Advertising-Promotional Products",
    "phone": "(386) 734-9844",
    "address": "6447 S Chickasaw Trl  Orlando, FL 32829",
    "location": "Gilchrist"
  },
  {
    "name": "Global Promo",
    "description": "Advertising-Promotional Products",
    "phone": "(407) 513-9801",
    "address": "4535 SW 34th St  Orlando, FL 32811",
    "location": "Gilchrist"
  },
  {
    "name": "Area 51 Graphics",
    "description": "Advertising-Promotional Products",
    "phone": "(407) 428-1164",
    "address": "4535 SW 34th St  Orlando, FL 32811",
    "location": "Gilchrist"
  },
  {
    "name": "Soul Swag",
    "description": "Advertising-Promotional Products",
    "phone": "(407) 988-3328",
    "address": "13842 Marine Dr  Orlando, FL 32832",
    "location": "Gilchrist"
  },
  {
    "name": "Trump Auto Promotions",
    "description": "Advertising-Promotional Products",
    "phone": "(407) 203-0854",
    "address": "7065 Westpointe Blvd Ste 319  Orlando, FL 32835",
    "location": "Gilchrist"
  },
  {
    "name": "Proforma Platinum Impressions",
    "description": "Advertising-Promotional Products",
    "phone": "(407) 877-9186",
    "address": "6982 Swinscoe Ln  Windermere, FL 34786",
    "location": "Gilchrist"
  },
  {
    "name": "Identity Defined",
    "description": "Advertising-Promotional Products",
    "phone": "(407) 447-9045",
    "address": "4210 L B Mcleod Rd Ste 101  Orlando, FL 32811",
    "location": "Gilchrist"
  },
  {
    "name": "Advertising Mania",
    "description": "Advertising-Promotional Products",
    "phone": "(407) 846-1655",
    "address": "1124 E Donegan Ave  Kissimmee, FL 34744",
    "location": "Gilchrist"
  },
  {
    "name": "Minuteman Press",
    "description": "Advertising-Promotional Products",
    "phone": "(407) 933-1546",
    "address": "2583 N Orange Blossom Trl  Kissimmee, FL 34744",
    "location": "Gilchrist"
  },
  {
    "name": "Alpha Specialties & Awards",
    "description": "Advertising-Promotional Products",
    "phone": "(407) 847-9002",
    "address": "305 W Bass St  Kissimmee, FL 34741",
    "location": "Gilchrist"
  },
  {
    "name": "LegitOnlineJobs",
    "description": "Advertising-Promotional Products",
    "phone": "(321) 300-9721",
    "address": "1701 W Wetherbee Rd  Orlando, FL 32837",
    "location": "Gilchrist"
  },
  {
    "name": "Marcus Marketing Solutions",
    "description": "Advertising-Promotional Products",
    "phone": "(321) 402-8532",
    "address": "5565 W Irlo Bronson Memorial Hwy  Kissimmee, FL 34746",
    "location": "Gilchrist"
  },
  {
    "name": "Elaine's Embroidery & Creative Apparel",
    "description": "Advertising-Promotional Products",
    "phone": "(407) 888-4799",
    "address": "10918 S Trail Cir  Orlando, FL 32837",
    "location": "Gilchrist"
  },
  {
    "name": "We Are Kymera",
    "description": "Advertising-Promotional Products",
    "phone": "(407) 374-1890",
    "address": "10219 General Dr  Orlando, FL 32824",
    "location": "Gilchrist"
  },
  {
    "name": "Barker Specialties of Florida, Inc.",
    "description": "Advertising-Promotional Products",
    "phone": "(407) 566-4000",
    "address": "215 Celebration Pl Ste 115  Kissimmee, FL 34747",
    "location": "Gilchrist"
  },
  {
    "name": "AMP Exposure, Inc.",
    "description": "Advertising-Promotional Products",
    "phone": "(407) 745-4135",
    "address": "7800 Southland Blvd Ste 150  Orlando, FL 32809",
    "location": "Gilchrist"
  },
  {
    "name": "W C I",
    "description": "Advertising-Promotional Products",
    "phone": "(407) 855-1613",
    "address": "7600 Southland Blvd Ste 107  Orlando, FL 32809",
    "location": "Gilchrist"
  },
  {
    "name": "AC Printing & Graphics",
    "description": "Advertising-Promotional Products",
    "phone": "(407) 856-4940",
    "address": "7566 Southland Blvd Ste 100  Orlando, FL 32809",
    "location": "Gilchrist"
  },
  {
    "name": "Minuteman Press Sand Lake",
    "description": "Advertising-Promotional Products",
    "phone": "(407) 355-3302",
    "address": "7751 Kingspointe Parkway, Suite 117  Orlando, FL 32819",
    "location": "Gilchrist"
  },
  {
    "name": "VisuAwe",
    "description": "Advertising-Promotional Products",
    "phone": "(407) 910-8765",
    "address": "7511 Mandarin Dr  Orlando, FL 32819",
    "location": "Gilchrist"
  },
  {
    "name": "COU Group Inc.",
    "description": "Advertising-Promotional Products",
    "phone": "(407) 219-2889",
    "address": "704 Mcdougall Ct  Orlando, FL 32809",
    "location": "Gilchrist"
  },
  {
    "name": "Printing USA",
    "description": "Advertising-Promotional Products",
    "phone": "(407) 857-7468",
    "address": "4732 S Orange Blossom Trl  Orlando, FL 32839",
    "location": "Gilchrist"
  },
  {
    "name": "Signature Promotions",
    "description": "Advertising-Promotional Products",
    "phone": "(407) 518-9413",
    "address": "408 Marlberry Leaf Ave  Kissimmee, FL 34758",
    "location": "Gilchrist"
  },
  {
    "name": "Clientele Communications",
    "description": "Advertising-Promotional Products",
    "phone": "(407) 456-6186",
    "address": "300 Crystal River Dr  Kissimmee, FL 34759",
    "location": "Gilchrist"
  },
  {
    "name": "Embroidery Solutions",
    "description": "Advertising-Promotional Products",
    "phone": "(407) 438-8188",
    "address": "6457 Hazeltine National Dr Ste 120  Orlando, FL 32822",
    "location": "Gilchrist"
  },
  {
    "name": "Bongi Designs",
    "description": "Advertising-Promotional Products",
    "phone": "(407) 680-1051",
    "address": "5956 Bent Pine Dr  Orlando, FL 32822",
    "location": "Gilchrist"
  },
  {
    "name": "WrapsForLess.com",
    "description": "Advertising-Promotional Products",
    "phone": "(407) 447-9045",
    "address": "4210 L B Mcleod Rd Ste 101  Orlando, FL 32811",
    "location": "Gilchrist"
  },
  {
    "name": "YourLogoGifts.com",
    "description": "Advertising-Promotional Products",
    "phone": "(407) 832-6446",
    "address": "5916 Caravan Court Resort Shoppe  Orlando, FL 32819",
    "location": "Gilchrist"
  },
  {
    "name": "ALB Group at I Grow",
    "description": "Advertising-Promotional Products",
    "phone": "(407) 683-5485",
    "address": "5221 Millenia Blvd  Orlando, FL 32839",
    "location": "Gilchrist"
  },
  {
    "name": "ProLogo Branding",
    "description": "Advertising-Promotional Products",
    "phone": "(407) 730-9831",
    "address": "5508 Commerce Dr  Orlando, FL 32839",
    "location": "Gilchrist"
  },
  {
    "name": "DeadBall Entertainment",
    "description": "Advertising-Promotional Products",
    "phone": "(321) 624-4869",
    "address": "1893 Castleton Dr  Saint Cloud, FL 34771",
    "location": "Gilchrist"
  },
  {
    "name": "By Afro Marketing Agency",
    "description": "Advertising-Promotional Products",
    "phone": "(786) 416-4592",
    "address": "9588 Silver Buttonwood St  Orlando, FL 32832",
    "location": "Gilchrist"
  },
  {
    "name": "Better Graphics",
    "description": "Advertising-Promotional Products",
    "phone": "(407) 613-2813",
    "address": "10524 Moss Park Rd Ste 204-359  Orlando, FL 32832",
    "location": "Gilchrist"
  },
  {
    "name": "Global Gold Resources",
    "description": "Advertising-Promotional Products",
    "phone": "(407) 271-0298",
    "address": "5076 Savannah River Way Apt 118  Orlando, FL 32839",
    "location": "Gilchrist"
  },
  {
    "name": "Cash Cube Money Machine Store",
    "description": "Advertising-Promotional Products",
    "phone": "(407) 418-8200",
    "address": "5833 S Goldenrod Rd  Orlando, FL 32822",
    "location": "Gilchrist"
  },
  {
    "name": "Promotion Store Â®",
    "description": "Advertising-Promotional Products",
    "phone": "(407) 418-8200",
    "address": "5833 S Goldenrod Rd  Orlando, FL 32822",
    "location": "Gilchrist"
  },
  {
    "name": "Noles Direct",
    "description": "Advertising-Promotional Products",
    "phone": "(407) 426-8387",
    "address": "4210 L B Mcleod Rd  Orlando, FL 32811",
    "location": "Gilchrist"
  },
  {
    "name": "Kreyolbiz.com",
    "description": "Advertising-Promotional Products",
    "phone": "(407) 391-9435",
    "address": "2710 S Orange Blossom Trl Suite 1/2  Orlando, FL 32805",
    "location": "Gilchrist"
  },
  {
    "name": "KJM Group LLC",
    "description": "Advertising-Promotional Products",
    "phone": "(570) 309-0157",
    "address": "1924 Conway Rd Apt 2  Orlando, FL 32812",
    "location": "Gilchrist"
  },
  {
    "name": "Halo Branded Solutions",
    "description": "Advertising-Promotional Products",
    "phone": "(407) 425-9521",
    "address": "4201 Vineland Rd Ste I-9  Orlando, FL 32811",
    "location": "Gilchrist"
  },
  {
    "name": "Vea Creative",
    "description": "Signs",
    "phone": "(407) 847-8323",
    "address": "2450 Smith St Ste P  Kissimmee, FL 34744",
    "location": "Gilchrist"
  },
  {
    "name": "Sign Station",
    "description": "Advertising Specialties",
    "phone": "(407) 943-7309",
    "address": "1138 E Donegan Ave  Kissimmee, FL 34744",
    "location": "Gilchrist"
  },
  {
    "name": "Wide Advertising",
    "description": "Advertising Agencies",
    "phone": "(407) 518-9712",
    "address": "1700 Kelley Ave  Kissimmee, FL 34744",
    "location": "Gilchrist"
  },
  {
    "name": "Sikorsky Sign & Display",
    "description": "Advertising Specialties",
    "phone": "(407) 933-2946",
    "address": "312 E Jackson St  Kissimmee, FL 34744",
    "location": "Gilchrist"
  },
  {
    "name": "Aladdin Signs & Lighting Inc",
    "description": "Signs",
    "phone": "(407) 932-1789",
    "address": "1500 Damon Ave  Kissimmee, FL 34744",
    "location": "Gilchrist"
  },
  {
    "name": "Combo Signs",
    "description": "Signs",
    "phone": "(407) 535-2509",
    "address": "1123 E Vine St  Kissimmee, FL 34744",
    "location": "Gilchrist"
  },
  {
    "name": "Shape CD Inc",
    "description": "Advertising Specialties",
    "phone": "(407) 518-0444",
    "address": "2642 Michigan Ave  Kissimmee, FL 34744",
    "location": "Gilchrist"
  },
  {
    "name": "Vital Signs Pshysicians",
    "description": "Advertising Specialties",
    "phone": "(407) 944-4458",
    "address": "1320 N Main St Ste A  Kissimmee, FL 34744",
    "location": "Gilchrist"
  },
  {
    "name": "Creative Sign Works",
    "description": "Signs",
    "phone": "(407) 847-4949",
    "address": "805 Parkway Plaza Blvd Ste A  Kissimmee, FL 34744",
    "location": "Gilchrist"
  },
  {
    "name": "Bbg Design",
    "description": "Advertising Specialties",
    "phone": "(407) 870-0012",
    "address": "1011 N Main St  Kissimmee, FL 34744",
    "location": "Gilchrist"
  },
  {
    "name": "Aardvark Signs & Property Services",
    "description": "Signs",
    "phone": "(407) 348-7446",
    "address": "304 W Oak St  Kissimmee, FL 34741",
    "location": "Gilchrist"
  },
  {
    "name": "MANUEL HERRERA SERVICES, INC.",
    "description": "Advertising Specialties",
    "phone": "(407) 722-6644",
    "address": "824 Whalebone Bay Dr  Kissimmee, FL 34741",
    "location": "Gilchrist"
  },
  {
    "name": "Kissimmee Signs",
    "description": "Signs",
    "phone": "(407) 847-2825",
    "address": "627 N Main St  Kissimmee, FL 34744",
    "location": "Gilchrist"
  },
  {
    "name": "PIP Social",
    "description": "Internet Marketing & Advertising",
    "phone": "(407) 847-7324",
    "address": "927 W Oak St  Kissimmee, FL 34741",
    "location": "Gilchrist"
  },
  {
    "name": "The Sign King Inc",
    "description": "Signs",
    "phone": "(407) 944-4520",
    "address": "418 Broadway  Kissimmee, FL 34741",
    "location": "Gilchrist"
  },
  {
    "name": "DEALERPOSTER.ORG",
    "description": "New Car Dealers",
    "phone": "(855) 762-0900",
    "address": "PO Box 453212  Kissimmee, FL 34745",
    "location": "Gilchrist"
  },
  {
    "name": "national interbnational mortgu deed trust locators",
    "description": "Advertising Agencies",
    "phone": "(407) 201-3789",
    "address": "117 Church St  Kissimmee, FL 34741",
    "location": "Gilchrist"
  },
  {
    "name": "SoFriendly",
    "description": "Computer Software & Services",
    "phone": "(407) 706-5219",
    "address": "111 E Monument Ave Unit 401  Kissimmee, FL 34741",
    "location": "Gilchrist"
  },
  {
    "name": "Fusion Signs",
    "description": "Signs",
    "phone": "(407) 350-3605",
    "address": "724 N John Young Pkwy  Kissimmee, FL 34741",
    "location": "Gilchrist"
  },
  {
    "name": "The Logos Graphics Signs & Printing",
    "description": "Signs",
    "phone": "(407) 847-7419",
    "address": "28 Broadway Ste 215  Kissimmee, FL 34741",
    "location": "Gilchrist"
  },
  {
    "name": "FASTSIGNS",
    "description": "Signs",
    "phone": "(407) 287-6840",
    "address": "1902 W Vine St  Kissimmee, FL 34741",
    "location": "Gilchrist"
  },
  {
    "name": "The Osceola Sentinel",
    "description": "Advertising Specialties",
    "phone": "(407) 931-5901",
    "address": "804 Emmett St  Kissimmee, FL 34741",
    "location": "Gilchrist"
  },
  {
    "name": "Latino Broadcasting Organization",
    "description": "Advertising Specialties",
    "phone": "(407) 343-0957",
    "address": "907 Emmett St  Kissimmee, FL 34741",
    "location": "Gilchrist"
  },
  {
    "name": "57 Clicks",
    "description": "Internet Marketing & Advertising",
    "phone": "(321) 750-9787",
    "address": "902 Montecito Ct Apt 202  Kissimmee, FL 34741",
    "location": "Gilchrist"
  },
  {
    "name": "Vital Signs Physicians",
    "description": "Advertising Specialties",
    "phone": "(407) 846-0202",
    "address": "1504 Village Oak Ln  Kissimmee, FL 34746",
    "location": "Gilchrist"
  },
  {
    "name": "Nia Riddle",
    "description": "Marketing Programs & Services",
    "phone": "(407) 283-7805",
    "address": "3518 W Bind St.  Kissimmee, FL 34741",
    "location": "Gilchrist"
  },
  {
    "name": "Sales Bait - Print, Promotion, Marketing",
    "description": "Marketing Programs & Services",
    "phone": "(321) 356-5471",
    "address": "We ship EVERYWHERE  Longwood, FL 32750",
    "location": "Gilchrist"
  },
  {
    "name": "Sunrise Printing & Signs",
    "description": "Printing Services",
    "phone": "(321) 284-3803",
    "address": "1220 Dyer Blvd  Kissimmee, FL 34741",
    "location": "Gilchrist"
  },
  {
    "name": "The Vacation Home Guy",
    "description": "Property Maintenance",
    "phone": "(407) 385-8022",
    "address": "1101 Miranda Ln Ste 131  Kissimmee, FL 34741",
    "location": "Gilchrist"
  },
  {
    "name": "Amazing T's",
    "description": "Screen Printing",
    "phone": "(407) 931-1269",
    "address": "2209 Clay St  Kissimmee, FL 34741",
    "location": "Gilchrist"
  },
  {
    "name": "Wizzao Distribution Corp",
    "description": "Advertising Specialties",
    "phone": "(407) 415-0426",
    "address": "107 Mistywood Ct  Kissimmee, FL 34743",
    "location": "Gilchrist"
  },
  {
    "name": "Dabbs Advertising",
    "description": "Advertising Agencies",
    "phone": "(407) 240-7096",
    "address": "2714 Lone Feather Dr  Orlando, FL 32837",
    "location": "Gilchrist"
  },
  {
    "name": "Creative Imaging Limited",
    "description": "Lithographers",
    "phone": "(813) 546-3558",
    "address": "1618 Hookbill Ct  Orlando, FL 32837",
    "location": "Gilchrist"
  },
  {
    "name": "Ad Services & Consulting Inc",
    "description": "Advertising Agencies",
    "phone": "(407) 851-5529",
    "address": "1835 Derby Glen Dr  Orlando, FL 32837",
    "location": "Gilchrist"
  },
  {
    "name": "Tom Goetschius Seminar",
    "description": "Advertising Agencies",
    "phone": "(407) 826-0736",
    "address": "3636 Molona Dr  Orlando, FL 32837",
    "location": "Gilchrist"
  },
  {
    "name": "Ann Lockhart",
    "description": "Advertising Agencies",
    "phone": "(407) 530-5946",
    "address": "1955 S John Young Pkwy  Kissimmee, FL 34741",
    "location": "Gilchrist"
  },
  {
    "name": "Capital Business Strategies",
    "description": "Advertising Specialties",
    "phone": "(407) 953-6069",
    "address": "267 Gardenia Rd  Kissimmee, FL 34743",
    "location": "Gilchrist"
  },
  {
    "name": "Constituent Works Corp",
    "description": "Advertising Agencies",
    "phone": "(407) 483-8818",
    "address": "1174 Jade East Ln  Kissimmee, FL 34744",
    "location": "Gilchrist"
  },
  {
    "name": "Clement N G",
    "description": "Advertising Agencies",
    "phone": "(407) 507-3124",
    "address": "2757 Club Cortile Cir  Kissimmee, FL 34746",
    "location": "Gilchrist"
  },
  {
    "name": "Leda Group Inc",
    "description": "Advertising Specialties",
    "phone": "(407) 466-4114",
    "address": "3674 Ocita Dr  Orlando, FL 32837",
    "location": "Gilchrist"
  },
  {
    "name": "Hubner & Prado Corp",
    "description": "Advertising Agencies",
    "phone": "(407) 851-6060",
    "address": "1537 Nestlewood Trl  Orlando, FL 32837",
    "location": "Gilchrist"
  },
  {
    "name": "Figment Signs & Vehicle Graphics",
    "description": "Advertising Specialties",
    "phone": "(321) 299-3831",
    "address": "3956 W Town Center Blvd  Orlando, FL 32837",
    "location": "Gilchrist"
  },
  {
    "name": "GSI Group Kissimmee Print-Sign",
    "description": "Signs",
    "phone": "(407) 935-1876",
    "address": "3344 S Orange Blossom Trl  Kissimmee, FL 34746",
    "location": "Gilchrist"
  },
  {
    "name": "Joe Martin Event Management",
    "description": "Advertising Agencies",
    "phone": "(407) 847-9048",
    "address": "2645 Ellen Ave  Kissimmee, FL 34744",
    "location": "Gilchrist"
  },
  {
    "name": "Fuera De Serie",
    "description": "Advertising Agencies",
    "phone": "(407) 507-5804",
    "address": "2949 Vineland Rd  Kissimmee, FL 34746",
    "location": "Gilchrist"
  },
  {
    "name": "Total Business & Marketing Solutions",
    "description": "Marketing Programs & Services",
    "phone": "(407) 584-7703",
    "address": "4924 W Irlo Bronson Memorial Hwy  Kissimmee, FL 34746",
    "location": "Gilchrist"
  },
  {
    "name": "All Express Signs",
    "description": "Signs",
    "phone": "(407) 507-2635",
    "address": "2930 Vineland Rd  Kissimmee, FL 34746",
    "location": "Gilchrist"
  },
  {
    "name": "Carlson Co",
    "description": "Advertising Agencies",
    "phone": "(407) 397-1040",
    "address": "5034 W Irlo Bronson Memorial Hwy  Kissimmee, FL 34746",
    "location": "Gilchrist"
  },
  {
    "name": "High 5 Signs Inc",
    "description": "Advertising Specialties",
    "phone": "(407) 572-8947",
    "address": "4540 Old Tampa Hwy  Kissimmee, FL 34746",
    "location": "Gilchrist"
  },
  {
    "name": "Dcw Productions",
    "description": "Advertising Specialties",
    "phone": "(407) 847-9608",
    "address": "2365 Eagle Trace Dr  Kissimmee, FL 34746",
    "location": "Gilchrist"
  },
  {
    "name": "Boone Sign Co",
    "description": "Signs",
    "phone": "(407) 344-9068",
    "address": "2740 Lake Vista Dr  Kissimmee, FL 34744",
    "location": "Gilchrist"
  },
  {
    "name": "Affordable Advertising Kempf",
    "description": "Advertising Agencies",
    "phone": "(407) 239-1105",
    "address": "5300 W Irlo Bronson Memorial Hwy  Kissimmee, FL 34746",
    "location": "Gilchrist"
  },
  {
    "name": "Fyrone Digital Solutions",
    "description": "Advertising Agencies",
    "phone": "(407) 580-9962",
    "address": "1801 Snaresbrook Way  Orlando, FL 32837",
    "location": "Gilchrist"
  },
  {
    "name": "EASY MONEY MARKETING",
    "description": "Advertising Agencies",
    "phone": "(407) 443-2938",
    "address": "2226 Bay Leaf Dr  Orlando, FL 32837",
    "location": "Gilchrist"
  },
  {
    "name": "MC Laser Pro",
    "description": "Signs",
    "phone": "(407) 859-0201",
    "address": "11753 S Orange Blossom Trl  Orlando, FL 32837",
    "location": "Gilchrist"
  },
  {
    "name": "Avanti International Enterprises Inc",
    "description": "Advertising Specialties",
    "phone": "(407) 590-9251",
    "address": "11743 Cuxham Dr  Orlando, FL 32837",
    "location": "Gilchrist"
  },
  {
    "name": "AC Signs",
    "description": "Signs",
    "phone": "(407) 857-5564",
    "address": "11609 S Orange Blossom Trl Ste 205  Orlando, FL 32837",
    "location": "Gilchrist"
  },
  {
    "name": "Johnston Ave Inc",
    "description": "Advertising Agencies",
    "phone": "(407) 401-2888",
    "address": "2259 J Lawson Blvd  Orlando, FL 32824",
    "location": "Gilchrist"
  },
  {
    "name": "Ultrabrite Led Signs",
    "description": "Signs",
    "phone": "(407) 349-7446",
    "address": "1460 Gemini Blvd Ste 3  Orlando, FL 32837",
    "location": "Gilchrist"
  },
  {
    "name": "Studio Signs",
    "description": "Signs",
    "phone": "(407) 447-0783",
    "address": "1462 Gemini Blvd  Orlando, FL 32837",
    "location": "Gilchrist"
  },
  {
    "name": "Standout Displays",
    "description": "Display Designers & Producers",
    "phone": "(407) 757-0615",
    "address": "1600 Central Florida Pkwy  Orlando, FL 32837",
    "location": "Gilchrist"
  },
  {
    "name": "Online Business Listings - BeListed.Org",
    "description": "Internet Marketing & Advertising",
    "phone": "(321) 710-3855",
    "address": "2077 Central Florida Pkwy # 13  Orlando, FL 32837",
    "location": "Gilchrist"
  },
  {
    "name": "Custom signs & Embroidery LLC",
    "description": "Advertising Specialties",
    "phone": "(407) 396-9868",
    "address": "5405 W Irlo Bronson Memorial Hwy  Kissimmee, FL 34746",
    "location": "Gilchrist"
  },
  {
    "name": "Khan & Sons T's",
    "description": "Signs",
    "phone": "(407) 396-9868",
    "address": "5405 W Irlo Bronson Memorial Hwy  Kissimmee, FL 34746",
    "location": "Gilchrist"
  },
  {
    "name": "Uni International Company",
    "description": "Advertising Agencies",
    "phone": "(407) 390-1825",
    "address": "5407 W Irlo Bronson Memorial Hwy  Kissimmee, FL 34746",
    "location": "Gilchrist"
  },
  {
    "name": "Don Signs Inc",
    "description": "Signs",
    "phone": "(407) 344-9444",
    "address": "5250 Btc Pl  Kissimmee, FL 34758",
    "location": "Gilchrist"
  },
  {
    "name": "Valpak",
    "description": "Advertising Agencies",
    "phone": "(407) 973-7357",
    "address": "111 Acadia Ter  Kissimmee, FL 34747",
    "location": "Gilchrist"
  },
  {
    "name": "Tripp Dickinson Promotions",
    "description": "Advertising Agencies",
    "phone": "(407) 222-6692",
    "address": "3091 Mandolin Dr  Kissimmee, FL 34744",
    "location": "Gilchrist"
  },
  {
    "name": "Larson Design Associates Inc",
    "description": "Designers-Industrial & Commercial",
    "phone": "(407) 566-1736",
    "address": "223 Celebration Blvd  Kissimmee, FL 34747",
    "location": "Gilchrist"
  },
  {
    "name": "CloudBurst Consulting",
    "description": "Interactive Media",
    "phone": "(407) 557-2380",
    "address": "52 Riley Rd # 401  Kissimmee, FL 34747",
    "location": "Gilchrist"
  },
  {
    "name": "Vantage Advertising Trade Show",
    "description": "Advertising Agencies",
    "phone": "(315) 350-3058",
    "address": "6000 W Osceola Pkwy  Kissimmee, FL 34746",
    "location": "Gilchrist"
  },
  {
    "name": "Empire Marketing & Design",
    "description": "Advertising Agencies",
    "phone": "(407) 744-2317",
    "address": "5524 Sycamore Canyon Dr  Kissimmee, FL 34758",
    "location": "Gilchrist"
  },
  {
    "name": "Imarmedia INC",
    "description": "Internet Consultants",
    "phone": "(407) 803-5397",
    "address": "10501 S Orange Ave Ste 112  Orlando, FL 32824",
    "location": "Gilchrist"
  },
  {
    "name": "Magnetic Mobile Media",
    "description": "Internet Marketing & Advertising",
    "phone": "(407) 504-7186",
    "address": "11400 Banner Ct Apt 1204  Orlando, FL 32821",
    "location": "Gilchrist"
  },
  {
    "name": "Carol Channers Party Animals",
    "description": "Advertising Specialties",
    "phone": "(407) 922-9545",
    "address": "412 Montana Ave  Saint Cloud, FL 34769",
    "location": "Gilchrist"
  },
  {
    "name": "Alfa Romeo Distributors",
    "description": "Advertising Specialties",
    "phone": "(407) 856-5000",
    "address": "1500 Tradeport Dr Ste B  Orlando, FL 32824",
    "location": "Gilchrist"
  },
  {
    "name": "Oca Marketing Services",
    "description": "Marketing Consultants",
    "phone": "(407) 248-8629",
    "address": "10335 Orangewood Blvd  Orlando, FL 32821",
    "location": "Gilchrist"
  },
  {
    "name": "Marketing Nutz",
    "description": "Advertising Agencies",
    "phone": "(813) 404-7145",
    "address": "6555 Sanger Rd  Orlando, FL 32827",
    "location": "Gilchrist"
  },
  {
    "name": "Signs Depot",
    "description": "Signs",
    "phone": "(407) 757-0788",
    "address": "9251 S Orange Blossom Trl Ste 9  Orlando, FL 32837",
    "location": "Gilchrist"
  },
  {
    "name": "Wood Wonders",
    "description": "Signs",
    "phone": "(407) 477-7725",
    "address": "8200 Vineland Ave  Orlando, FL 32821",
    "location": "Gilchrist"
  },
  {
    "name": "Visit Orlando",
    "description": "Marketing Programs & Services",
    "phone": "(407) 363-5800",
    "address": "6277 Sea Harbor Dr Ste 400  Orlando, FL 32821",
    "location": "Gilchrist"
  },
  {
    "name": "Ackerman McQueen",
    "description": "Advertising Agencies",
    "phone": "(407) 827-5355",
    "address": "1675 E Buena Vista Dr  Orlando, FL 32830",
    "location": "Gilchrist"
  },
  {
    "name": "AMC Promotional Products",
    "description": "Advertising Specialties",
    "phone": "(877) 241-1160",
    "address": "10401 Post Office Blvd W  Orlando, FL 32862",
    "location": "Gilchrist"
  },
  {
    "name": "Seychelle Media",
    "description": "Advertising Specialties",
    "phone": "(407) 377-7753",
    "address": "6675 Westwood Blvd Ste 200  Orlando, FL 32821",
    "location": "Gilchrist"
  },
  {
    "name": "Sign Producers Inc",
    "description": "Signs",
    "phone": "(407) 855-9964",
    "address": "436 W Landstreet Rd  Orlando, FL 32824",
    "location": "Gilchrist"
  },
  {
    "name": "Sign Producers",
    "description": "Signs",
    "phone": "(407) 855-8864",
    "address": "555 W Landstreet Rd  Orlando, FL 32824",
    "location": "Gilchrist"
  },
  {
    "name": "Advertising and Classified",
    "description": "Advertising Specialties",
    "phone": "(407) 891-0662",
    "address": "1102 Pennsylvania Ave  Saint Cloud, FL 34769",
    "location": "Gilchrist"
  },
  {
    "name": "One Day Masterpieces",
    "description": "Signs",
    "phone": "(407) 857-9987",
    "address": "2101 Premier Row  Orlando, FL 32809",
    "location": "Gilchrist"
  },
  {
    "name": "Express Signs And Graphics Of Orlando",
    "description": "Signs",
    "phone": "(407) 240-0911",
    "address": "7101 Presidents Dr Ste 199  Orlando, FL 32809",
    "location": "Gilchrist"
  },
  {
    "name": "Red Monkey Marketing",
    "description": "Marketing Consultants",
    "phone": "(407) 990-1975",
    "address": "610 Sycamore St Ste 150  Kissimmee, FL 34747",
    "location": "Gilchrist"
  },
  {
    "name": "Intercon Global Inc",
    "description": "Advertising Agencies",
    "phone": "(407) 908-0009",
    "address": "715 Celebration Ave  Kissimmee, FL 34747",
    "location": "Gilchrist"
  },
  {
    "name": "Rm2 Project Inc",
    "description": "Advertising Agencies",
    "phone": "(800) 301-5420",
    "address": "927 Greenlawn St  Kissimmee, FL 34747",
    "location": "Gilchrist"
  },
  {
    "name": "Exiance",
    "description": "Advertising Agencies",
    "phone": "(407) 566-8823",
    "address": "1119 Celebration Ave  Kissimmee, FL 34747",
    "location": "Gilchrist"
  },
  {
    "name": "HI Signs",
    "description": "Signs",
    "phone": "(407) 870-8291",
    "address": "1021 Americana Ct  Kissimmee, FL 34758",
    "location": "Gilchrist"
  },
  {
    "name": "Channel Intelligence, Inc.",
    "description": "Internet Marketing & Advertising",
    "phone": "(866) 559-2300",
    "address": "1180 Celebration Blvd Ste 101  Kissimmee, FL 34747",
    "location": "Gilchrist"
  },
  {
    "name": "Payless Neon Signs",
    "description": "Signs",
    "phone": "(407) 518-1740",
    "address": "4160 Bald Eagle Dr  Kissimmee, FL 34746",
    "location": "Gilchrist"
  },
  {
    "name": "Ralph's Transfer Co Inc",
    "description": "Advertising Agencies",
    "phone": "(407) 377-6966",
    "address": "8420 Boggy Creek Rd  Orlando, FL 32824",
    "location": "Gilchrist"
  },
  {
    "name": "29 Web Design",
    "description": "Internet Marketing & Advertising",
    "phone": "(407) 583-3888",
    "address": "7701 Aviano Ave  Orlando, FL 32819",
    "location": "Gilchrist"
  },
  {
    "name": "Bee Idea Advertising",
    "description": "Advertising Agencies",
    "phone": "(407) 351-3976",
    "address": "7250 S Kirkman Rd  Orlando, FL 32819",
    "location": "Gilchrist"
  },
  {
    "name": "N W Sign Industries Inc",
    "description": "Signs",
    "phone": "(800) 359-1151",
    "address": "1255 La Quinta Dr  Orlando, FL 32809",
    "location": "Gilchrist"
  },
  {
    "name": "Global Time Shares",
    "description": "Advertising Agencies",
    "phone": "(407) 581-3749",
    "address": "8421 S Orange Blossom Trl  Orlando, FL 32809",
    "location": "Gilchrist"
  },
  {
    "name": "Aarrow Sign Spinners",
    "description": "Advertising Specialties",
    "phone": "(407) 233-4372",
    "address": "8421 S Orange Blossom Trl  Orlando, FL 32809",
    "location": "Gilchrist"
  },
  {
    "name": "Geniusdv",
    "description": "Advertising Agencies",
    "phone": "(407) 286-7862",
    "address": "7350 Futures Dr  Orlando, FL 32819",
    "location": "Gilchrist"
  },
  {
    "name": "Petty Graphics & Signs",
    "description": "Advertising Specialties",
    "phone": "(708) 427-1412",
    "address": "7362 Futures Dr  Orlando, FL 32819",
    "location": "Gilchrist"
  },
  {
    "name": "Hendersigns",
    "description": "Signs",
    "phone": "(407) 850-2636",
    "address": "8811 S Orange Ave  Orlando, FL 32824",
    "location": "Gilchrist"
  },
  {
    "name": "Co Interior De Signs",
    "description": "Advertising Specialties",
    "phone": "(407) 286-4004",
    "address": "8751 Commodity Cir  Orlando, FL 32819",
    "location": "Gilchrist"
  },
  {
    "name": "Brandcoders",
    "description": "Marketing Programs & Services",
    "phone": "(407) 992-8877",
    "address": "8600 Commodity Cir Ste 126  Orlando, FL 32819",
    "location": "Gilchrist"
  },
  {
    "name": "BMP Advertising",
    "description": "Television Stations & Broadcast Companies",
    "phone": "(866) 996-2673",
    "address": "1650 Sand Lake Rd Ste 301  Orlando, FL 32809",
    "location": "Gilchrist"
  },
  {
    "name": "Transfirstmedia",
    "description": "Advertising Agencies",
    "phone": "(407) 716-8800",
    "address": "9101 International Dr  Orlando, FL 32819",
    "location": "Gilchrist"
  },
  {
    "name": "Revenue Performance",
    "description": "Internet Service Providers (ISP)",
    "phone": "(407) 909-9036",
    "address": "10831 Woodchase Cir  Orlando, FL 32836",
    "location": "Gilchrist"
  },
  {
    "name": "Getwowbrows.com",
    "description": "Advertising Specialties",
    "phone": "(413) 438-2769",
    "address": "7300 Sandlake Commons Blvd Ste 220  Orlando, FL 32819",
    "location": "Gilchrist"
  },
  {
    "name": "Safeguard System Inc",
    "description": "Advertising Specialties",
    "phone": "(407) 877-2299",
    "address": "119 E 13th St  Saint Cloud, FL 34769",
    "location": "Gilchrist"
  },
  {
    "name": "Orange Peel Gazette",
    "description": "Print Advertising",
    "phone": "(407) 892-5556",
    "address": "145 E 13th St  Saint Cloud, FL 34769",
    "location": "Gilchrist"
  },
  {
    "name": "Harland",
    "description": "Advertising Agencies",
    "phone": "(407) 240-4227",
    "address": "8010 Sunport Dr Ste 103  Orlando, FL 32809",
    "location": "Gilchrist"
  },
  {
    "name": "Cotts Management & Cleaning",
    "description": "Advertising Agencies",
    "phone": "(407) 498-2405",
    "address": "4958 Parkview Dr  Saint Cloud, FL 34771",
    "location": "Gilchrist"
  },
  {
    "name": "ADS Plus Ink",
    "description": "Advertising Agencies",
    "phone": "(407) 370-9141",
    "address": "7450 Sandlake Commons Blvd  Orlando, FL 32819",
    "location": "Gilchrist"
  },
  {
    "name": "Valassis Inc",
    "description": "Advertising Agencies",
    "phone": "(407) 240-8200",
    "address": "7651 Southland Blvd  Orlando, FL 32809",
    "location": "Gilchrist"
  },
  {
    "name": "Signal Outdoor Advertising",
    "description": "Transit Advertising",
    "phone": "(407) 856-7079",
    "address": "7616 Southland Blvd Ste 114  Orlando, FL 32809",
    "location": "Gilchrist"
  },
  {
    "name": "DragonFire Industries Inc.",
    "description": "Truck Painting & Lettering",
    "phone": "(407) 999-2215",
    "address": "7559 Currency Dr  Orlando, FL 32809",
    "location": "Gilchrist"
  },
  {
    "name": "Quantum Leap Advertising",
    "description": "Advertising Agencies",
    "phone": "(407) 396-6300",
    "address": "7901 Kingspointe Pkwy Ste 17  Orlando, FL 32819",
    "location": "Gilchrist"
  },
  {
    "name": "Airtime Promotions",
    "description": "Advertising Agencies",
    "phone": "(407) 857-2787",
    "address": "5001 W Sand Lake Rd  Orlando, FL 32819",
    "location": "Gilchrist"
  },
  {
    "name": "Muzak On Hold",
    "description": "Advertising Agencies",
    "phone": "(407) 859-1179",
    "address": "8000 S Orange Ave  Orlando, FL 32809",
    "location": "Gilchrist"
  },
  {
    "name": "Advertising Mania Inc",
    "description": "Advertising Agencies",
    "phone": "(407) 846-1655",
    "address": "1050 Dean St  Saint Cloud, FL 34771",
    "location": "Gilchrist"
  },
  {
    "name": "Spectrum Sign Services",
    "description": "Truck Painting & Lettering",
    "phone": "(407) 264-0208",
    "address": "6618 Kingspointe Pkwy  Orlando, FL 32819",
    "location": "Gilchrist"
  },
  {
    "name": "HALO Branded Solutions",
    "description": "Advertising Specialties",
    "phone": "(407) 425-9521",
    "address": "2053 Premier Row  Orlando, FL 32809",
    "location": "Gilchrist"
  },
  {
    "name": "NAS Recruitment Communications",
    "description": "Advertising Agencies",
    "phone": "(407) 226-1133",
    "address": "7682 Municipal Dr  Orlando, FL 32819",
    "location": "Gilchrist"
  },
  {
    "name": "Charles R Harris JR",
    "description": "Advertising Agencies",
    "phone": "(239) 214-3704",
    "address": "7726 Winegard Rd  Pine Castle, FL 32809",
    "location": "Gilchrist"
  },
  {
    "name": "FlexMark Corporation",
    "description": "Advertising Agencies",
    "phone": "(407) 876-2999",
    "address": "9702 Camberley Cir  Orlando, FL 32836",
    "location": "Gilchrist"
  },
  {
    "name": "Advertising Mania 2",
    "description": "Advertising Specialties",
    "phone": "(407) 498-0505",
    "address": "1420 S Narcoossee Rd  Saint Cloud, FL 34771",
    "location": "Gilchrist"
  },
  {
    "name": "Global Advertising",
    "description": "Transit Advertising",
    "phone": "(407) 203-5812",
    "address": "1707 Orlando Central Pkwy Ste 430  Orlando, FL 32809",
    "location": "Gilchrist"
  },
  {
    "name": "Ccs Presentations",
    "description": "Advertising Agencies",
    "phone": "(407) 996-0079",
    "address": "6881 Kingspointe Pkwy  Orlando, FL 32819",
    "location": "Gilchrist"
  },
  {
    "name": "Market Loyal",
    "description": "Marketing Consultants",
    "phone": "(407) 583-2504",
    "address": "5950 Lakehurst Dr Ste 279  Orlando, FL 32819",
    "location": "Gilchrist"
  },
  {
    "name": "Federal Media Alliance",
    "description": "Advertising Agencies",
    "phone": "(407) 888-8064",
    "address": "6503 Pinecastle Blvd  Orlando, FL 32809",
    "location": "Gilchrist"
  },
  {
    "name": "Fine d-Zign Signs",
    "description": "Signs",
    "phone": "(407) 624-3796",
    "address": "2008D Jaffa Road,  Saint Cloud, FL 34771",
    "location": "Gilchrist"
  },
  {
    "name": "American Ad Specialties",
    "description": "Advertising Specialties",
    "phone": "(407) 649-7784",
    "address": "7075 Kingspointe Pkwy  Orlando, FL 32819",
    "location": "Gilchrist"
  },
  {
    "name": "Sign & Vehicle Wraps, Inc.",
    "description": "Signs",
    "phone": "(407) 859-8631",
    "address": "1011 W Lancaster Rd Ste 7  Orlando, FL 32809",
    "location": "Gilchrist"
  },
  {
    "name": "Two Graphic Factory",
    "description": "Signs",
    "phone": "(407) 556-4889",
    "address": "955 W Lancaster Rd  Orlando, FL 32809",
    "location": "Gilchrist"
  },
  {
    "name": "Guidetrack Business Svc Inc",
    "description": "Advertising Agencies",
    "phone": "(407) 888-8155",
    "address": "6220 S Orange Blossom Trl Ste 194  Orlando, FL 32809",
    "location": "Gilchrist"
  },
  {
    "name": "Platinum Studio s",
    "description": "Publicity Service",
    "phone": "(407) 730-5140",
    "address": "6220 S Orange Blossom Trl  Orlando, FL 32809",
    "location": "Gilchrist"
  },
  {
    "name": "Omar_Gutierrez",
    "description": "Advertising Specialties",
    "phone": "(407) 965-7253",
    "address": "3479 Prairie Fox Ln  Orlando, FL 32812",
    "location": "Gilchrist"
  },
  {
    "name": "LLc Title First Name C",
    "description": "Advertising Agencies",
    "phone": "(407) 203-1854",
    "address": "7081 Grand National Dr  Orlando, FL 32819",
    "location": "Gilchrist"
  },
  {
    "name": "Visual Signs",
    "description": "Signs",
    "phone": "(407) 693-0200",
    "address": "7081 Grand National Dr Ste 102  Orlando, FL 32819",
    "location": "Gilchrist"
  },
  {
    "name": "Kempf; Affordable Advertising",
    "description": "Marketing Consultants",
    "phone": "(407) 390-0690",
    "address": "7208 W Sand Lake Rd Ste 305  Orlando, FL 32819",
    "location": "Gilchrist"
  },
  {
    "name": "Multimedia Inc",
    "description": "Direct Mail Advertising",
    "phone": "(407) 903-5000",
    "address": "7061 Grand National Dr Ste 127  Orlando, FL 32819",
    "location": "Gilchrist"
  },
  {
    "name": "Wow Signs & Printing Inc.",
    "description": "Advertising Specialties",
    "phone": "(407) 351-3976",
    "address": "7061 Grand National Dr Ste 139  Orlando, FL 32819",
    "location": "Gilchrist"
  },
  {
    "name": "Riegl USA Inc",
    "description": "Advertising Agencies",
    "phone": "(407) 248-9927",
    "address": "7035 Grand National Dr  Orlando, FL 32819",
    "location": "Gilchrist"
  },
  {
    "name": "Altour of America",
    "description": "Advertising Agencies",
    "phone": "(407) 226-0700",
    "address": "5876 Precision Dr  Orlando, FL 32819",
    "location": "Gilchrist"
  },
  {
    "name": "Shackboost",
    "description": "Advertising Agencies",
    "phone": "(978) 480-0943",
    "address": "7345 W Sand Lake Rd Ste 210  Orlando, FL 32819",
    "location": "Gilchrist"
  },
  {
    "name": "Ebo Consulting Group",
    "description": "Communications Services",
    "phone": "(800) 403-8223",
    "address": "7557 W Sand Lake Rd Suite 189  Orlando, FL 32819",
    "location": "Gilchrist"
  },
  {
    "name": "Inked Write Media",
    "description": "Copy Writers",
    "phone": "(321) 895-4113",
    "address": "1901 Lee Wood Ct  Saint Cloud, FL 34772",
    "location": "Gilchrist"
  },
  {
    "name": "Sign Factory",
    "description": "Signs",
    "phone": "(407) 859-7499",
    "address": "6208 S Orange Ave  Edgewood, FL 32809",
    "location": "Gilchrist"
  },
  {
    "name": "CXM Consult",
    "description": "Advertising Specialties",
    "phone": "(407) 731-2628",
    "address": "6208 S Orange Ave  Orlando, FL 32809",
    "location": "Gilchrist"
  },
  {
    "name": "OP Digital Marketing",
    "description": "Marketing Consultants",
    "phone": "(407) 394-6155",
    "address": "2106 W Oak Ridge Rd Apt B  Orlando, FL 32809",
    "location": "Gilchrist"
  },
  {
    "name": "Graph-It Signs & Web Design",
    "description": "Signs",
    "phone": "(407) 855-1539",
    "address": "1017 W Oak Ridge Rd  Orlando, FL 32809",
    "location": "Gilchrist"
  },
  {
    "name": "Absolute Exhibits, Inc.",
    "description": "Trade Shows, Expositions & Fairs",
    "phone": "(407) 563-2595",
    "address": "7297 S Conway Rd #900  Orlando, FL 32812",
    "location": "Gilchrist"
  },
  {
    "name": "E & W Affordable Signs",
    "description": "Signs",
    "phone": "(407) 438-4874",
    "address": "6028 S Orange Ave  Orlando, FL 32809",
    "location": "Gilchrist"
  },
  {
    "name": "Burke's Signs",
    "description": "Signs",
    "phone": "(407) 892-7630",
    "address": "1225 Twelve Oaks Rd  Saint Cloud, FL 34771",
    "location": "Gilchrist"
  },
  {
    "name": "Myorlandodirectory.Com",
    "description": "Directory & Guide Advertising",
    "phone": "(407) 351-2200",
    "address": "7575 Dr Phillips Blvd  Orlando, FL 32819",
    "location": "Gilchrist"
  },
  {
    "name": "Central Florida Monthly",
    "description": "Advertising Agencies",
    "phone": "(407) 259-2363",
    "address": "10016 Wellness Way  Orlando, FL 32832",
    "location": "Gilchrist"
  },
  {
    "name": "Kennedy Marketing LLC",
    "description": "Marketing Programs & Services",
    "phone": "(321) 446-8263",
    "address": "8118 Chianti Dr.  Orlando, FL 32836",
    "location": "Gilchrist"
  },
  {
    "name": "UPN",
    "description": "Advertising Agencies",
    "phone": "(407) 363-5500",
    "address": "7512 Dr Phillips Blvd Ste 500  Orlando, FL 32819",
    "location": "Gilchrist"
  },
  {
    "name": "Brinson, Ashley",
    "description": "Advertising Agencies",
    "phone": "(407) 567-9132",
    "address": "927 Hoffner Ave  Orlando, FL 32809",
    "location": "Gilchrist"
  },
  {
    "name": "High Tech",
    "description": "Advertising Specialties",
    "phone": "(407) 352-5966",
    "address": "4967 International Dr  Orlando, FL 32819",
    "location": "Gilchrist"
  },
  {
    "name": "Bruce Sereta Illustration",
    "description": "Print Advertising",
    "phone": "(407) 217-6565",
    "address": "7913 Lost Cove Ct  Orlando, FL 32819",
    "location": "Gilchrist"
  },
  {
    "name": "Cars Media Group Inc",
    "description": "Media Brokers",
    "phone": "(407) 286-3533",
    "address": "5516 Commerce Dr  Edgewood, FL 32839",
    "location": "Gilchrist"
  },
  {
    "name": "Allure Advertising",
    "description": "Product Design, Development & Marketing",
    "phone": "(407) 719-4567",
    "address": "5517 Hansel Ave Ste B  Orlando, FL 32809",
    "location": "Gilchrist"
  },
  {
    "name": "THE Agency",
    "description": "Advertising Agencies",
    "phone": "(321) 356-4934",
    "address": "5517 Hansel Ave Ste B  Orlando, FL 32809",
    "location": "Gilchrist"
  },
  {
    "name": "Signs Now",
    "description": "Signs",
    "phone": "(407) 856-3635",
    "address": "12612 Kirby Smith Rd  Orlando, FL 32832",
    "location": "Gilchrist"
  },
  {
    "name": "Reach The Top Marketing, LLC",
    "description": "Advertising Agencies",
    "phone": "(407) 476-8266",
    "address": "4978 Millenia Blvd Apt 203  Orlando, FL 32839",
    "location": "Gilchrist"
  },
  {
    "name": "Illuminate Seo & Webservices",
    "description": "Advertising Agencies",
    "phone": "(800) 836-0786",
    "address": "4150 Eastgate Dr  Orlando, FL 32839",
    "location": "Gilchrist"
  },
  {
    "name": "Different Perspective Productions",
    "description": "Advertising Agencies",
    "phone": "(407) 226-9774",
    "address": "5728 Major Blvd  Orlando, FL 32819",
    "location": "Gilchrist"
  },
  {
    "name": "Marbo America Inc",
    "description": "Distributing Service-Circular, Sample, Etc",
    "phone": "(407) 857-1330",
    "address": "5210-B South Orange Ave  Orlando, FL 32809",
    "location": "Gilchrist"
  },
  {
    "name": "Blenzabi Web Design Seo",
    "description": "Web Site Design & Services",
    "phone": "(951) 461-1400",
    "address": "10524 Moss Park Rd  Orlando, FL 32832",
    "location": "Gilchrist"
  },
  {
    "name": "All the way up Advertising & Promotions",
    "description": "Outdoor Advertising",
    "phone": "(585) 448-6804",
    "address": "5969 Lee Vista Blvd  Orlando, FL 32822",
    "location": "Gilchrist"
  },
  {
    "name": "Squid Insurance Marketing",
    "description": "Advertising Specialties",
    "phone": "(407) 237-0844",
    "address": "4700 Millenia Blvd  Orlando, FL 32839",
    "location": "Gilchrist"
  },
  {
    "name": "Agencythe",
    "description": "Advertising Agencies",
    "phone": "(407) 985-3088",
    "address": "5025 S Orange Ave  Orlando, FL 32809",
    "location": "Gilchrist"
  },
  {
    "name": "Dream Factory Productions",
    "description": "Advertising Agencies",
    "phone": "(407) 224-5227",
    "address": "1000 Universal Studios Plz  Orlando, FL 32819",
    "location": "Gilchrist"
  },
  {
    "name": "Carlton Co Inc",
    "description": "Advertising Agencies",
    "phone": "(407) 256-6072",
    "address": "620 Gatlin Ave  Orlando, FL 32806",
    "location": "Gilchrist"
  },
  {
    "name": "Outdoor Images Of Central Florida Inc",
    "description": "Signs",
    "phone": "(407) 825-9944",
    "address": "4601 Forrestal Ave # 2  Orlando, FL 32806",
    "location": "Gilchrist"
  },
  {
    "name": "Synect",
    "description": "Advertising Agencies",
    "phone": "(407) 985-2547",
    "address": "5752 S Semoran Blvd  Orlando, FL 32822",
    "location": "Gilchrist"
  },
  {
    "name": "American Homes Beautification",
    "description": "Advertising Agencies",
    "phone": "(407) 957-4283",
    "address": "3725 Packard Ave  Saint Cloud, FL 34772",
    "location": "Gilchrist"
  },
  {
    "name": "Jamtam",
    "description": "Advertising Agencies",
    "phone": "(407) 787-3719",
    "address": "1596 Heritage Crossing Ct  Reunion, FL 34747",
    "location": "Gilchrist"
  },
  {
    "name": "Entrende",
    "description": "Advertising Agencies",
    "phone": "(407) 282-5566",
    "address": "7480 Narcoossee Rd Ste G  Orlando, FL 32822",
    "location": "Gilchrist"
  },
  {
    "name": "Quickie Signs Inc",
    "description": "Signs",
    "phone": "(407) 423-3123",
    "address": "1009 Honey Girl Ln  Orlando, FL 32839",
    "location": "Gilchrist"
  },
  {
    "name": "Nationwide Newspapers Advertising",
    "description": "Advertising Agencies",
    "phone": "(407) 909-1644",
    "address": "5955 Masters Blvd  Orlando, FL 32819",
    "location": "Gilchrist"
  },
  {
    "name": "Just Yard Signs",
    "description": "Signs",
    "phone": "(407) 401-9835",
    "address": "4880 Distribution Ct  Orlando, FL 32822",
    "location": "Gilchrist"
  },
  {
    "name": "The Wooldridge Group",
    "description": "Advertising Agencies",
    "phone": "(407) 648-5200",
    "address": "5367 Conroy Rd  Orlando, FL 32811",
    "location": "Gilchrist"
  },
  {
    "name": "MundoFOX Orlando",
    "description": "Television Program Producers & Distributors",
    "phone": "(407) 982-2268",
    "address": "4307 Vineland Rd Ste H1/h2  orlando, FL 32811",
    "location": "Gilchrist"
  },
  {
    "name": "Graphic Color Design Inc",
    "description": "Computer Graphics",
    "phone": "(407) 420-7989",
    "address": "4701 Distribution Ct Ste 6  Orlando, FL 32822",
    "location": "Gilchrist"
  },
  {
    "name": "Valpak of Greater Orlando",
    "description": "Advertising Agencies",
    "phone": "(407) 420-4818",
    "address": "4305 Vineland Rd Ste G-16  Orlando, FL 32811",
    "location": "Gilchrist"
  },
  {
    "name": "Fresh Ink",
    "description": "Advertising Specialties",
    "phone": "(407) 412-5905",
    "address": "4729 Patch Rd  Orlando, FL 32822",
    "location": "Gilchrist"
  },
  {
    "name": "Impact Signs",
    "description": "Advertising Specialties",
    "phone": "(407) 599-0399",
    "address": "4303 Vineland Rd  Orlando, FL 32811",
    "location": "Gilchrist"
  },
  {
    "name": "M & S Signs",
    "description": "Signs",
    "phone": "(407) 857-6911",
    "address": "102 Drennen Rd  Orlando, FL 32806",
    "location": "Gilchrist"
  },
  {
    "name": "Taylor Made Signs",
    "description": "Signs",
    "phone": "(407) 816-0063",
    "address": "137 Drennen Rd  Orlando, FL 32806",
    "location": "Gilchrist"
  },
  {
    "name": "Personal Touch Mailing Service",
    "description": "Direct Marketing Services",
    "phone": "(407) 857-9090",
    "address": "129 Drennen Rd  Orlando, FL 32806",
    "location": "Gilchrist"
  },
  {
    "name": "SignExpress",
    "description": "Signs",
    "phone": "(407) 617-1936",
    "address": "65 Drennen Rd  Orlando, FL 32806",
    "location": "Gilchrist"
  },
  {
    "name": "Vince Balistreri Signs",
    "description": "Signs",
    "phone": "(407) 857-8334",
    "address": "55 Drennen Rd  Orlando, FL 32806",
    "location": "Gilchrist"
  },
  {
    "name": "Yapor",
    "description": "Advertising Agencies",
    "phone": "(407) 909-8000",
    "address": "8555 Bowden Way  Windermere, FL 34786",
    "location": "Gilchrist"
  },
  {
    "name": "Public Promotion Innovations Inc",
    "description": "Advertising Agencies",
    "phone": "(407) 930-0982",
    "address": "6650 Hoffner Ave  Orlando, FL 32822",
    "location": "Gilchrist"
  },
  {
    "name": "Carpe Diem Sales & Marketing",
    "description": "Marketing Consultants",
    "phone": "(407) 682-1400",
    "address": "4560 36th St  Orlando, FL 32811",
    "location": "Gilchrist"
  },
  {
    "name": "Graphic Systems Inc",
    "description": "Signs",
    "phone": "(407) 648-5353",
    "address": "4507 36th St  Orlando, FL 32811",
    "location": "Gilchrist"
  },
  {
    "name": "Dreamway Trading",
    "description": "Advertising Agencies",
    "phone": "(407) 302-9114",
    "address": "6735 Conroy Rd  Orlando, FL 32835",
    "location": "Gilchrist"
  },
  {
    "name": "Wraps For Less",
    "description": "Advertising Agencies",
    "phone": "(407) 447-9045",
    "address": "4490 35th St  Orlando, FL 32811",
    "location": "Gilchrist"
  },
  {
    "name": "Delivery Signs",
    "description": "Signs",
    "phone": "(321) 206-5288",
    "address": "4602 35th St  Orlando, FL 32811",
    "location": "Gilchrist"
  },
  {
    "name": "Design Shop Inc",
    "description": "Designers-Industrial & Commercial",
    "phone": "(407) 251-1800",
    "address": "4654 35th St  Orlando, FL 32811",
    "location": "Gilchrist"
  },
  {
    "name": "Credit Upgrade Services",
    "description": "Advertising Agencies",
    "phone": "(407) 745-9007",
    "address": "5815 Saint Charles Prado  Orlando, FL 32822",
    "location": "Gilchrist"
  },
  {
    "name": "Manic Images",
    "description": "Signs",
    "phone": "(407) 282-6561",
    "address": "3851 Gatlin Ridge Dr  Orlando, FL 32812",
    "location": "Gilchrist"
  },
  {
    "name": "Artgraphic Signs",
    "description": "Signs",
    "phone": "(407) 292-6162",
    "address": "4561 SW 34th St  Orlando, FL 32811",
    "location": "Gilchrist"
  },
  {
    "name": "MakeSense Advertising",
    "description": "Directory & Guide Advertising",
    "phone": "(407) 255-2515",
    "address": "5027 Commander Dr  Orlando, FL 32822",
    "location": "Gilchrist"
  },
  {
    "name": "Mactech",
    "description": "Advertising Agencies",
    "phone": "(407) 891-1882",
    "address": "6168 Waterfield Way  Saint Cloud, FL 34771",
    "location": "Gilchrist"
  },
  {
    "name": "Faro Design",
    "description": "Graphic Designers",
    "phone": "(321) 800-9308",
    "address": "3306 Maggie Blvd Ste A  Orlando, FL 32811",
    "location": "Gilchrist"
  },
  {
    "name": "watergraphics",
    "description": "Marketing Programs & Services",
    "phone": "(407) 913-6379",
    "address": "5036 Dr Phillips Blvd  Orlando, FL 32819",
    "location": "Gilchrist"
  },
  {
    "name": "Think Agency",
    "description": "Advertising Agencies",
    "phone": "(407) 875-1999",
    "address": "5036 Dr Phillips Blvd  Orlando, FL 32819",
    "location": "Gilchrist"
  },
  {
    "name": "Aha Specialties",
    "description": "Advertising Specialties",
    "phone": "(407) 569-0576",
    "address": "4677 L B Mcleod Rd  Orlando, FL 32811",
    "location": "Gilchrist"
  },
  {
    "name": "Nimlok Orlando",
    "description": "Advertising Agencies",
    "phone": "(407) 440-2952",
    "address": "4605 L B Mcleod Rd  Orlando, FL 32811",
    "location": "Gilchrist"
  },
  {
    "name": "Boone Sign Erection and Service Inc",
    "description": "Signs-Maintenance & Repair",
    "phone": "(407) 423-4043",
    "address": "28 W Michigan St  Orlando, FL 32806",
    "location": "Gilchrist"
  },
  {
    "name": "LIVE Productions Group, Inc.",
    "description": "Meeting & Event Planning Services",
    "phone": "(323) 515-9363",
    "address": "2800 S Brown Ave  Orlando, FL 32806",
    "location": "Gilchrist"
  },
  {
    "name": "L J Signs & Awnings Inc",
    "description": "Awnings & Canopies",
    "phone": "(407) 650-9939",
    "address": "1333 W Michigan St  Orlando, FL 32805",
    "location": "Gilchrist"
  },
  {
    "name": "Prodigy Launch",
    "description": "Advertising Agencies",
    "phone": "(540) 404-1572",
    "address": "10631 Village Lake Rd  Windermere, FL 34786",
    "location": "Gilchrist"
  },
  {
    "name": "Salt 1 to 1",
    "description": "Advertising Agencies",
    "phone": "(407) 751-4423",
    "address": "11221 John Wycliffe Blvd  Orlando, FL 32832",
    "location": "Gilchrist"
  },
  {
    "name": "United Multi Service Group",
    "description": "Advertising Agencies",
    "phone": "(407) 377-1078",
    "address": "2211 E Michigan St  Orlando, FL 32806",
    "location": "Gilchrist"
  },
  {
    "name": "Sign Time",
    "description": "Signs",
    "phone": "(407) 316-0093",
    "address": "2307 S Orange Ave  Orlando, FL 32806",
    "location": "Gilchrist"
  },
  {
    "name": "The SEO Zone",
    "description": "Internet Marketing & Advertising",
    "phone": "(407) 616-8015",
    "address": "Orlando 32806  Orlando, FL 32806",
    "location": "Gilchrist"
  },
  {
    "name": "TodaysLocalBusiness.com",
    "description": "Internet Marketing & Advertising",
    "phone": "(386) 337-2816",
    "address": "9311 Woodbreeze Blvd  Windermere, FL 34786",
    "location": "Gilchrist"
  },
  {
    "name": "Vital Signs Of Orlando",
    "description": "Advertising Specialties",
    "phone": "(407) 985-1264",
    "address": "2111 S Division Ave  Orlando, FL 32805",
    "location": "Gilchrist"
  },
  {
    "name": "TAG Digital Marketing",
    "description": "Marketing Programs & Services",
    "phone": "(407) 398-6629",
    "address": "4705 S Apopka Vineland Rd Ste 130  Orlando, FL 32819",
    "location": "Gilchrist"
  },
  {
    "name": "Alan D Kennedy & Associates",
    "description": "Advertising Agencies",
    "phone": "(407) 876-2128",
    "address": "9807 Walzer Ct  Windermere, FL 34786",
    "location": "Gilchrist"
  },
  {
    "name": "Aox Leads",
    "description": "Advertising Agencies",
    "phone": "(854) 269-5323",
    "address": "7651 Ashley Park Ct  Orlando, FL 32835",
    "location": "Gilchrist"
  },
  {
    "name": "Prince Michael",
    "description": "Advertising Agencies",
    "phone": "(407) 347-7887",
    "address": "7749 Jailene Dr  Windermere, FL 34786",
    "location": "Gilchrist"
  },
  {
    "name": "Creative Signs Inc",
    "description": "Advertising Specialties",
    "phone": "(407) 293-9393",
    "address": "2301 S Hiawassee Rd  Orlando, FL 32835",
    "location": "Gilchrist"
  },
  {
    "name": "CRM Marketing Inc",
    "description": "Product Design, Development & Marketing",
    "phone": "(407) 381-8422",
    "address": "13025 Fernway Rd  Orlando, FL 32832",
    "location": "Gilchrist"
  },
  {
    "name": "Brand 201",
    "description": "Advertising Specialties",
    "phone": "(678) 612-5683",
    "address": "9556 Elm Forest Ln  Orlando, FL 32829",
    "location": "Gilchrist"
  },
  {
    "name": "Enjoy Taste",
    "description": "Interactive Media",
    "phone": "(407) 610-2374",
    "address": "3245 S Chickasaw Trl  Orlando, FL 32829",
    "location": "Gilchrist"
  },
  {
    "name": "Rcp Advertising & Marketing Inc",
    "description": "Advertising Agencies",
    "phone": "(407) 578-5955",
    "address": "7849 Saint Andrews Cir  Orlando, FL 32835",
    "location": "Gilchrist"
  },
  {
    "name": "Best Read Guide",
    "description": "Directory & Guide Advertising",
    "phone": "(407) 654-0220",
    "address": "33 Main St  Windermere, FL 34786",
    "location": "Gilchrist"
  },
  {
    "name": "GSK Consulting",
    "description": "Directory & Guide Advertising",
    "phone": "(813) 431-1278",
    "address": "1713 Westover Reserve Blvd  Windermere, FL 34786",
    "location": "Gilchrist"
  },
  {
    "name": "Equity Source Consultants Inc",
    "description": "Advertising Agencies",
    "phone": "(407) 522-9664",
    "address": "1902 Reed Hill Dr  Windermere, FL 34786",
    "location": "Gilchrist"
  },
  {
    "name": "HUSH Media Networks",
    "description": "Advertising Agencies",
    "phone": "(800) 214-8036",
    "address": "PO Box 1804  Davenport, FL 33836",
    "location": "Gilchrist"
  },
  {
    "name": "LED Truck Advertising",
    "description": "Advertising Agencies",
    "phone": "(407) 577-4175",
    "address": "400 Callawalk Ct  Davenport, FL 33896",
    "location": "Gilchrist"
  },
  {
    "name": "Damatex Group Inc.",
    "description": "Advertising Agencies",
    "phone": "(407) 396-4900",
    "address": "1505 Legends Blvd  Champions Gate, FL 33896",
    "location": "Gilchrist"
  },
  {
    "name": "Lumen Consulting Svc",
    "description": "Advertising Agencies",
    "phone": "(863) 424-6177",
    "address": "640 Loma Bonita Dr  Davenport, FL 33837",
    "location": "Gilchrist"
  },
  {
    "name": "Capstone Advertising, Inc.",
    "description": "Advertising Specialties",
    "phone": "(863) 225-3670",
    "address": "752 Lady Diana Dr  Davenport, FL 33837",
    "location": "Gilchrist"
  },
  {
    "name": "Sewing Studio Fabric Superstore",
    "description": "Quilting Machines",
    "phone": "(407) 910-2761",
    "address": "9605 S Us Highway 17/92  Maitland, FL 32751",
    "location": "Gilchrist"
  },
  {
    "name": "Chilton Signs LP",
    "description": "Signs",
    "phone": "(863) 438-0880",
    "address": "2584 Sand Hill Point Cir  Davenport, FL 33837",
    "location": "Gilchrist"
  }
]