[
  {
    "name": "American Image Marketing",
    "description": "Advertising-Promotional Products",
    "phone": "(386) 492-5945",
    "address": " 705 Samms Ave - Port Orange, FL 32129",
    "location": "Hamilton"
  },
  {
    "name": "Premiums Promotions and Imports",
    "description": "Advertising-Promotional Products",
    "phone": "(386) 258-1900",
    "address": " 952 Big Tree Rd - South Daytona, FL 32119",
    "location": "Hamilton"
  },
  {
    "name": "Inform Print & Promotions",
    "description": "Advertising-Promotional Products",
    "phone": "(386) 252-5766",
    "address": " 1209 S Ridgewood Ave - Daytona Beach, FL 32114",
    "location": "Hamilton"
  },
  {
    "name": "Premiums Promotions & Imports",
    "description": "Advertising-Promotional Products",
    "phone": "(386) 258-1900",
    "address": " 2441 Bellevue Ave - Daytona Beach, FL 32114",
    "location": "Hamilton"
  },
  {
    "name": "V.I.P. Printing & Promotional Product",
    "description": "Advertising-Promotional Products",
    "phone": "(386) 258-3326",
    "address": " 133 W. Intl. Speedway Blvd - Daytona Beach, FL 32114",
    "location": "Hamilton"
  },
  {
    "name": "Barlow Advertising Specialties",
    "description": "Advertising-Promotional Products",
    "phone": "(386) 423-1320",
    "address": " 1792 Persimmon Cir - Edgewater, FL 32132",
    "location": "Hamilton"
  },
  {
    "name": "Corporate Image S of Dayton",
    "description": "Advertising-Promotional Products",
    "phone": "(386) 274-7100",
    "address": " 1648 Taylor Rd Unit 453 - Port Orange, FL 32128",
    "location": "Hamilton"
  },
  {
    "name": "Lithocraft Inc",
    "description": "Advertising-Promotional Products",
    "phone": "(386) 761-3584",
    "address": " 4460 S Ridgewood Ave - Port Orange, FL 32127",
    "location": "Hamilton"
  },
  {
    "name": "CRAVE Marketing & Social Media Solutions - $99 Website*",
    "description": "Advertising-Promotional Products",
    "phone": "(386) 746-7578",
    "address": " US Hwy 1 - South Daytona, FL 32119",
    "location": "Hamilton"
  },
  {
    "name": "Ubik Promotional, LLC",
    "description": "Advertising-Promotional Products",
    "phone": "(386) 868-4243",
    "address": " 1220 Woodbridge Cir S - Daytona Beach, FL 32119",
    "location": "Hamilton"
  },
  {
    "name": "Wishworks Media",
    "description": "Advertising-Promotional Products",
    "phone": "(386) 308-3986",
    "address": " 669 Beville Rd Fl 32119 - South Daytona, FL 32119",
    "location": "Hamilton"
  },
  {
    "name": "Alan & Bob McGarity Advertising",
    "description": "Advertising-Promotional Products",
    "phone": "(386) 252-6655",
    "address": " 401 Skyview Ln - Daytona Beach, FL 32114",
    "location": "Hamilton"
  },
  {
    "name": "Speedway Press",
    "description": "Advertising-Promotional Products",
    "phone": "(386) 255-1565",
    "address": " 705 W International Speedway Blvd - Daytona Beach, FL 32114",
    "location": "Hamilton"
  },
  {
    "name": "Mad Macs Custom",
    "description": "Advertising-Promotional Products",
    "phone": "(386) 202-4185",
    "address": " 636 Lenox Ave - Daytona Beach, FL 32118",
    "location": "Hamilton"
  },
  {
    "name": "Coastline Advertising Specialties",
    "description": "Advertising-Promotional Products",
    "phone": "(386) 238-7703",
    "address": " 370 N Nova Rd - Daytona Beach, FL 32114",
    "location": "Hamilton"
  },
  {
    "name": "Colorcards2go Inc.",
    "description": "Advertising-Promotional Products",
    "phone": "(386) 271-2278",
    "address": " 1808 Concept Ct - Daytona Beach, FL 32114",
    "location": "Hamilton"
  },
  {
    "name": "Revenue Cycle Resources- RCR|HUB",
    "description": "Directory & Guide Advertising",
    "phone": "(407) 421-4940",
    "address": " 538 Canal St - New Smyrna Beach, FL 32168",
    "location": "Hamilton"
  },
  {
    "name": "Sign of the Times",
    "description": "Signs",
    "phone": "(386) 423-5512",
    "address": " 511 Canal St - New Smyrna Beach, FL 32168",
    "location": "Hamilton"
  },
  {
    "name": "Shok Idea Group",
    "description": "Advertising Agencies",
    "phone": "(386) 957-3939",
    "address": " 434 Canal St - New Smyrna Beach, FL 32168",
    "location": "Hamilton"
  },
  {
    "name": "Image Today Graphics",
    "description": "Advertising Agencies",
    "phone": "(386) 428-5556",
    "address": " 516 Magnolia St - New Smyrna Beach, FL 32168",
    "location": "Hamilton"
  },
  {
    "name": "Gerson Art And Sign",
    "description": "Signs",
    "phone": "(386) 426-6302",
    "address": " 1102 N Dixie Fwy - New Smyrna Beach, FL 32168",
    "location": "Hamilton"
  },
  {
    "name": "Smyrna Sign",
    "description": "Signs",
    "phone": "(386) 426-2920",
    "address": " 1980 E Gateway Dr - New Smyrna Beach, FL 32168",
    "location": "Hamilton"
  },
  {
    "name": "Richard Overman Consulting Inc",
    "description": "Advertising Agencies",
    "phone": "(386) 478-1584",
    "address": " 1204 S Riverside Dr - Edgewater, FL 32132",
    "location": "Hamilton"
  },
  {
    "name": "Image Makers Advertising",
    "description": "Advertising Specialties",
    "phone": "(386) 236-1200",
    "address": " 140 Beach St - Ponce Inlet, FL 32127",
    "location": "Hamilton"
  },
  {
    "name": "Aces Up Signs",
    "description": "Signs",
    "phone": "(386) 690-0737",
    "address": " 1856 Hibiscus Dr - Edgewater, FL 32141",
    "location": "Hamilton"
  },
  {
    "name": "Klien-Yaney Med Ia",
    "description": "Advertising Agencies",
    "phone": "(386) 402-7068",
    "address": " 1851 Guava Dr - Edgewater, FL 32141",
    "location": "Hamilton"
  },
  {
    "name": "Fins Up Digital Media",
    "description": "Internet Marketing & Advertising",
    "phone": "(386) 848-6921",
    "address": " 2022 Umbrella Tree Dr - Edgewater, FL 32141",
    "location": "Hamilton"
  },
  {
    "name": "B & C Signs",
    "description": "Signs-Erectors & Hangers",
    "phone": "(386) 426-2373",
    "address": " 2225 Guava Dr - Edgewater, FL 32141",
    "location": "Hamilton"
  },
  {
    "name": "Dawn Kolet Volusia Savings",
    "description": "Advertising Agencies",
    "phone": "(386) 405-6706",
    "address": " 362 N Airport Rd - New Smyrna Beach, FL 32168",
    "location": "Hamilton"
  },
  {
    "name": "Captree Advertising",
    "description": "Advertising Agencies",
    "phone": "(386) 871-2080",
    "address": " 555 Maribella Ct - New Smyrna Beach, FL 32168",
    "location": "Hamilton"
  },
  {
    "name": "Ford Robert & Janice",
    "description": "Advertising Specialties",
    "phone": "(386) 427-9934",
    "address": " 511 27th St - Edgewater, FL 32141",
    "location": "Hamilton"
  },
  {
    "name": "Anello Enterprises",
    "description": "Advertising Agencies",
    "phone": "(386) 761-4511",
    "address": " 5540 W Bayshore Dr - Port Orange, FL 32127",
    "location": "Hamilton"
  },
  {
    "name": "Independent Sign & Lighting",
    "description": "Advertising Specialties",
    "phone": "(386) 451-6857",
    "address": " 1 Main St - Port Orange, FL 32127",
    "location": "Hamilton"
  },
  {
    "name": "Belden & Associates Inc",
    "description": "Advertising Agencies",
    "phone": "(386) 756-0302",
    "address": " 5825 Southport Dr - Port Orange, FL 32127",
    "location": "Hamilton"
  },
  {
    "name": "Resorts Solutions of America",
    "description": "Internet Marketing & Advertising",
    "phone": "(386) 317-5969",
    "address": " 5243 S Nova Rd - Port Orange, FL 32127",
    "location": "Hamilton"
  },
  {
    "name": "Pando Design",
    "description": "Advertising Agencies",
    "phone": "(386) 898-2703",
    "address": " 6145 Sanctuary Garden Blvd - Port Orange, FL 32128",
    "location": "Hamilton"
  },
  {
    "name": "Gameday R Media Network",
    "description": "Advertising Agencies",
    "phone": "(386) 492-2916",
    "address": " 5889 S Williamson Blvd - Port Orange, FL 32128",
    "location": "Hamilton"
  },
  {
    "name": "King Direct Marketing Inc",
    "description": "Marketing Consultants",
    "phone": "(386) 788-8925",
    "address": " 1916 Bay Lake Way - Port Orange, FL 32128",
    "location": "Hamilton"
  },
  {
    "name": "Dolphin Signs",
    "description": "Signs",
    "phone": "(386) 788-3035",
    "address": " 5027 S Ridgewood Ave - Port Orange, FL 32127",
    "location": "Hamilton"
  },
  {
    "name": "Hometown News",
    "description": "Print Advertising",
    "phone": "(386) 322-5900",
    "address": " 2400 S Ridgewood Ave Ste 22 - South Daytona, FL 32119",
    "location": "Hamilton"
  },
  {
    "name": "Valpak",
    "description": "Advertising Agencies",
    "phone": "(386) 226-4889",
    "address": " 3817 S Nova Rd - Port Orange, FL 32127",
    "location": "Hamilton"
  },
  {
    "name": "Car People Marketing Inc",
    "description": "Marketing Consultants",
    "phone": "(386) 761-3131",
    "address": " 3818 S Nova Rd Suite C - Port Orange, FL 32127",
    "location": "Hamilton"
  },
  {
    "name": "DSC Sales Inc",
    "description": "Advertising Agencies",
    "phone": "(386) 761-6642",
    "address": " 413 Oak Pl - Port Orange, FL 32127",
    "location": "Hamilton"
  },
  {
    "name": "Waverly Media LLC",
    "description": "Advertising Agencies",
    "phone": "(386) 322-3600",
    "address": " 4188 Dairy Ct - Port Orange, FL 32127",
    "location": "Hamilton"
  },
  {
    "name": "Valor Signs",
    "description": "Signs",
    "phone": "(386) 281-5164",
    "address": " 707 Samms Ave Ste D - Port Orange, FL 32129",
    "location": "Hamilton"
  },
  {
    "name": "Benedict Advertising & Marketing",
    "description": "Advertising Agencies",
    "phone": "(386) 255-1222",
    "address": " 59 Dunlawton Ave - Port Orange, FL 32127",
    "location": "Hamilton"
  },
  {
    "name": "Turnkey Enterprises Inc",
    "description": "Advertising Agencies",
    "phone": "(386) 304-8303",
    "address": " 5338 Georgia Peach Ave - Port Orange, FL 32128",
    "location": "Hamilton"
  },
  {
    "name": "I Spotted Youcom Inc",
    "description": "Advertising Agencies",
    "phone": "(386) 788-5502",
    "address": " 4606 Clyde Morris Blvd - Port Orange, FL 32129",
    "location": "Hamilton"
  },
  {
    "name": "New Vision Videos LLC",
    "description": "Commercials-Radio & Television",
    "phone": "(386) 788-1596",
    "address": " 3280 S Atlantic Ave - Daytona Beach, FL 32118",
    "location": "Hamilton"
  },
  {
    "name": "Affordable Display Products Inc",
    "description": "Display Designers & Producers",
    "phone": "(407) 862-0656",
    "address": " 400 Venture Dr - South Daytona, FL 32119",
    "location": "Hamilton"
  },
  {
    "name": "Torq Design",
    "description": "Advertising Agencies",
    "phone": "(386) 763-5558",
    "address": " 2990 S Atlantic Ave - Daytona Beach, FL 32118",
    "location": "Hamilton"
  },
  {
    "name": "SHAKLEE Authorized Distributor",
    "description": "Advertising Agencies",
    "phone": "(386) 236-9911",
    "address": " 2001 Kenilworth Ave - South Daytona, FL 32119",
    "location": "Hamilton"
  },
  {
    "name": "Signosaurus of Daytona In",
    "description": "Signs",
    "phone": "(386) 322-5222",
    "address": " 2127 S Ridgewood Ave - South Daytona, FL 32119",
    "location": "Hamilton"
  },
  {
    "name": "The Brichard Group",
    "description": "Internet Marketing & Advertising",
    "phone": "(253) 237-4774",
    "address": " 1600 Big Tree Rd - South Daytona, FL 32119",
    "location": "Hamilton"
  },
  {
    "name": "Blazin Creationz",
    "description": "Advertising Specialties",
    "phone": "(877) 470-2952",
    "address": " 1841 S Ridgewood Ave - South Daytona, FL 32119",
    "location": "Hamilton"
  },
  {
    "name": "Missing Link Communications INC",
    "description": "Advertising Agencies",
    "phone": "(386) 297-6500",
    "address": " 1840 S Palmetto Ave - South Daytona, FL 32119",
    "location": "Hamilton"
  },
  {
    "name": "A L C H Advertising & Mail Inc",
    "description": "Advertising Agencies",
    "phone": "(386) 322-3737",
    "address": " 6 Cormorant Cir - Daytona Beach, FL 32119",
    "location": "Hamilton"
  },
  {
    "name": "Sunshine Multimedia Solutions",
    "description": "Interactive Media",
    "phone": "(386) 866-0070",
    "address": " 1301 Beville Road Suite 7 - Daytona Beach, FL 32119",
    "location": "Hamilton"
  },
  {
    "name": "Kaltek International Inc",
    "description": "Advertising Agencies",
    "phone": "(386) 756-5535",
    "address": " 1335 Beville Rd - Daytona Beach, FL 32119",
    "location": "Hamilton"
  },
  {
    "name": "Gano Signs & Graphics",
    "description": "Signs",
    "phone": "(386) 238-8653",
    "address": " 2410 S Atlantic Ave - Daytona Beach, FL 32118",
    "location": "Hamilton"
  },
  {
    "name": "King Direct Marketing",
    "description": "Direct Mail Advertising",
    "phone": "(386) 788-8925",
    "address": " 1184 Pelican Bay Dr - Daytona Beach, FL 32119",
    "location": "Hamilton"
  },
  {
    "name": "Fair-Way Sign Corporation",
    "description": "Signs",
    "phone": "(386) 253-2300",
    "address": " 418 Fremont Ave Bldg C - Daytona Beach, FL 32114",
    "location": "Hamilton"
  },
  {
    "name": "Springboard Marketing Group",
    "description": "Advertising Agencies",
    "phone": "(386) 947-4360",
    "address": " 1575 Aviation Center Pkwy - Daytona Beach, FL 32114",
    "location": "Hamilton"
  },
  {
    "name": "Florida Marketing & Pr",
    "description": "Advertising Agencies",
    "phone": "(386) 479-5544",
    "address": " 100 Marina Point Dr - Daytona Beach, FL 32114",
    "location": "Hamilton"
  },
  {
    "name": "Zgraph Design & Marketing",
    "description": "Marketing Programs & Services",
    "phone": "(386) 255-5556",
    "address": " 125 Basin St Ste 203 - Daytona Beach, FL 32114",
    "location": "Hamilton"
  },
  {
    "name": "Click Geeks",
    "description": "Advertising Agencies",
    "phone": "(800) 988-7579",
    "address": " 250 S Beach St Ste 20A - Daytona Beach, FL 32114",
    "location": "Hamilton"
  },
  {
    "name": "Dream Light Digital",
    "description": "Advertising Agencies",
    "phone": "(386) 212-4646",
    "address": " 140 S Beach St - Daytona Beach, FL 32114",
    "location": "Hamilton"
  },
  {
    "name": "Image Makers Advertising Inc",
    "description": "Advertising Agencies",
    "phone": "(386) 236-1200",
    "address": " 140 S Beach St Ste 202 - Daytona Beach, FL 32114",
    "location": "Hamilton"
  },
  {
    "name": "Valpak of Volusia",
    "description": "Advertising Agencies",
    "phone": "(800) 550-5025",
    "address": " 119 S Palmetto Ave Ste 201 - Daytona Beach, FL 32114",
    "location": "Hamilton"
  },
  {
    "name": "Web Daytona",
    "description": "Internet Marketing & Advertising",
    "phone": "(386) 405-4281",
    "address": " 115 S Palmetto Ave - Daytona Beach, FL 32114",
    "location": "Hamilton"
  },
  {
    "name": "MP Marketing",
    "description": "Advertising Agencies",
    "phone": "(386) 268-4536",
    "address": " 214 N Beach St - Daytona Beach, FL 32114",
    "location": "Hamilton"
  },
  {
    "name": "RAM Promotions",
    "description": "Advertising Specialties",
    "phone": "(386) 677-2075",
    "address": " 221 Fentress Blvd - Daytona Beach, FL 32114",
    "location": "Hamilton"
  },
  {
    "name": "Federal Sign",
    "description": "Signs",
    "phone": "(386) 255-1901",
    "address": " 300 Fentress Blvd - Daytona Beach, FL 32114",
    "location": "Hamilton"
  },
  {
    "name": "Coastline Signs & Leds",
    "description": "Signs",
    "phone": "(386) 238-6200",
    "address": " 532 N Segrave St - Daytona Beach, FL 32114",
    "location": "Hamilton"
  },
  {
    "name": "Lamar Advertising Co",
    "description": "Transit Advertising",
    "phone": "(386) 258-0206",
    "address": " 475 Fentress Blvd Ste L - Daytona Beach, FL 32114",
    "location": "Hamilton"
  },
  {
    "name": "Hawkeye Brothers Sign & Graphics",
    "description": "Signs",
    "phone": "(386) 492-3883",
    "address": " 480 Fentress Blvd Ste A - Daytona Beach, FL 32114",
    "location": "Hamilton"
  },
  {
    "name": "Brochure Displays, Inc.",
    "description": "Advertising Agencies",
    "phone": "(386) 271-5500",
    "address": " 1808 Concept Ct - Daytona Beach, FL 32114",
    "location": "Hamilton"
  },
  {
    "name": "Artyst Tyrant - Affordable Premium Website Design and Graphic Design",
    "description": "Marketing Programs & Services",
    "phone": "(386) 366-0431",
    "address": " 125 Powell Blvd Apt 12102 - Daytona Beach, FL 32114",
    "location": "Hamilton"
  },
  {
    "name": "Mesio Public Relations",
    "description": "Marketing Programs & Services",
    "phone": "(386) 226-9963",
    "address": " Po Box 265791 - Daytona Beach, FL 32126",
    "location": "Hamilton"
  },
  {
    "name": "Southeastern Lighting Solutions",
    "description": "Signs",
    "phone": "(386) 238-1711",
    "address": " 821 Fentress Ct - Daytona Beach, FL 32117",
    "location": "Hamilton"
  },
  {
    "name": "R.T.P Marketing - Rock The Pavement Marketing",
    "description": "Internet Marketing & Advertising",
    "phone": "(386) 400-3986",
    "address": " 3072 Courtland Blvd - Deltona, FL 32738",
    "location": "Hamilton"
  },
  {
    "name": "Nationwide Small Business Resources",
    "description": "Web Site Design & Services",
    "phone": "(386) 516-3550",
    "address": " 2048 Howland Blvd - Deltona, FL 32738",
    "location": "Hamilton"
  }
]