[
  {
    "name": "Blue Ray Promotions",
    "description": "Advertising-Promotional Products",
    "phone": "(321) 432-9524",
    "address": " 310 Brunson Blvd Ste 103 - Cocoa, FL 32922",
    "location": "Hendry"
  },
  {
    "name": "Karin Konnects",
    "description": "Advertising-Promotional Products",
    "phone": "(321) 474-0925",
    "address": " 420 Catamaran Dr Apt 88 - Merritt Island, FL 32952",
    "location": "Hendry"
  },
  {
    "name": "Porter World Trade",
    "description": "Advertising-Promotional Products",
    "phone": "(321) 783-1649",
    "address": " 1325 N Atlantic Ave - Cocoa Beach, FL 32931",
    "location": "Hendry"
  },
  {
    "name": "Price Promotional Products",
    "description": "Advertising-Promotional Products",
    "phone": "(321) 253-0774",
    "address": " 2825 Business Center Blvd Ste A1R - Melbourne, FL 32940",
    "location": "Hendry"
  },
  {
    "name": "Sun Ray Studios",
    "description": "Advertising-Promotional Products",
    "phone": "(321) 632-6666",
    "address": " 1743 Huntington Ln - Rockledge, FL 32955",
    "location": "Hendry"
  },
  {
    "name": "Pike Products, Inc. Space Shirts",
    "description": "Advertising-Promotional Products",
    "phone": "(321) 453-7453",
    "address": " 6116 N Courtenay Pkwy - Merritt Island, FL 32953",
    "location": "Hendry"
  },
  {
    "name": "Riverside Signs",
    "description": "Signs",
    "phone": "(321) 978-5092",
    "address": " 1050 N Cocoa Blvd - Cocoa, FL 32922",
    "location": "Hendry"
  },
  {
    "name": "Herb Rollins Equipment",
    "description": "Signs",
    "phone": "(321) 632-5032",
    "address": " 141 Clearlake Rd - Cocoa, FL 32922",
    "location": "Hendry"
  },
  {
    "name": "Signs To Go",
    "description": "Magnets-Retail",
    "phone": "(321) 632-0669",
    "address": " 1491 N Cocoa Blvd - Cocoa, FL 32922",
    "location": "Hendry"
  },
  {
    "name": "765 Media LLC",
    "description": "Print Advertising",
    "phone": "(321) 735-9842",
    "address": " 252 Brevard Ave - Cocoa, FL 32922",
    "location": "Hendry"
  },
  {
    "name": "3 E Consultants Inc",
    "description": "Advertising Agencies",
    "phone": "(321) 631-4442",
    "address": " 319 River Edge Blvd Ste 208 - Cocoa, FL 32922",
    "location": "Hendry"
  },
  {
    "name": "Wolf Jessee Paquin Communications",
    "description": "Advertising Agencies",
    "phone": "(321) 633-8281",
    "address": " 1970 Michigan Ave - Cocoa, FL 32922",
    "location": "Hendry"
  },
  {
    "name": "Johnasia Anderson",
    "description": "Advertising Agencies",
    "phone": "(321) 208-7865",
    "address": " 2845 W King St - Cocoa, FL 32926",
    "location": "Hendry"
  },
  {
    "name": "Safari Media Direct",
    "description": "Advertising Specialties",
    "phone": "(321) 877-3863",
    "address": " 3670 N Highway 1 - Cocoa, FL 32926",
    "location": "Hendry"
  },
  {
    "name": "Florida Digital Media",
    "description": "Web Site Design & Services",
    "phone": "(321) 757-2788",
    "address": " 222 Teal Drive - Cocoa, FL 32926",
    "location": "Hendry"
  },
  {
    "name": "Firehouse Graphics & Signs",
    "description": "Signs",
    "phone": "(321) 454-9600",
    "address": " 285 N Courtenay Pkwy - Merritt Island, FL 32953",
    "location": "Hendry"
  },
  {
    "name": "Gabrielli Marketing",
    "description": "Internet Marketing & Advertising",
    "phone": "(321) 996-0027",
    "address": " 881 Barton Blvd - Rockledge, FL 32955",
    "location": "Hendry"
  },
  {
    "name": "Berry Signs",
    "description": "Signs",
    "phone": "(321) 631-6150",
    "address": " 1740 Huntington Ln - Rockledge, FL 32955",
    "location": "Hendry"
  },
  {
    "name": "Woodsigns.com",
    "description": "Signs",
    "phone": "(321) 632-9038",
    "address": " 414 Richard Rd - Rockledge, FL 32955",
    "location": "Hendry"
  },
  {
    "name": "Brandt Ronat & Company",
    "description": "Advertising Agencies",
    "phone": "(321) 453-3101",
    "address": " 60 McLeod St - Merritt Island, FL 32953",
    "location": "Hendry"
  },
  {
    "name": "Lickity-Split Signs & Banners",
    "description": "Signs",
    "phone": "(321) 459-0024",
    "address": " 691 N Courtenay Pkwy - Merritt Island, FL 32953",
    "location": "Hendry"
  },
  {
    "name": "The Timeless CEO",
    "description": "Directory & Guide Advertising",
    "phone": "(321) 408-7612",
    "address": " 1175 N Courtenay Pkwy Ste 4A - Merritt Island, FL 32953",
    "location": "Hendry"
  },
  {
    "name": "Sign Lords",
    "description": "Signs",
    "phone": "(321) 877-2809",
    "address": " 131 N Courtenay Pkwy - Merritt Island, FL 32953",
    "location": "Hendry"
  },
  {
    "name": "Moetto Mobile Marketing",
    "description": "Coupon Advertising",
    "phone": "(321) 345-6630",
    "address": " 915 N Courtenay Pkwy - Merritt Island, FL 32953",
    "location": "Hendry"
  },
  {
    "name": "Thrifty Nickel Want ADS",
    "description": "Advertising Agencies",
    "phone": "(321) 459-0092",
    "address": " 240 S Courtenay Pkwy - Merritt Island, FL 32952",
    "location": "Hendry"
  },
  {
    "name": "Omni Digial Art",
    "description": "Advertising Specialties",
    "phone": "(321) 806-4128",
    "address": " 76 E Merritt Island Cswy Ste 207 - Merritt Island, FL 32952",
    "location": "Hendry"
  },
  {
    "name": "Dragonfly Web Solutions LLC",
    "description": "Business & Trade Organizations",
    "phone": "(321) 505-9212",
    "address": " PO Box 560894 - Rockledge, FL 32956",
    "location": "Hendry"
  },
  {
    "name": "Jahnke Robert",
    "description": "Signs",
    "phone": "(321) 452-3038",
    "address": " 403 4th St - Merritt Island, FL 32953",
    "location": "Hendry"
  },
  {
    "name": "Allegra Design Print Mail",
    "description": "Printing Services",
    "phone": "(321) 632-7272",
    "address": " 2040 Murrell Rd - Rockledge, FL 32955",
    "location": "Hendry"
  },
  {
    "name": "Near My BNB",
    "description": "Advertising Agencies",
    "phone": "(321) 243-6589",
    "address": " 120 Venetian Way Ste 21 - Merritt Island, FL 32953",
    "location": "Hendry"
  },
  {
    "name": "Digital Spark Marketing",
    "description": "Advertising Agencies",
    "phone": "(607) 725-8240",
    "address": " 213 Sykes Point Ln - Merritt Island, FL 32953",
    "location": "Hendry"
  },
  {
    "name": "John Ohara Consulting",
    "description": "Advertising Agencies",
    "phone": "(321) 633-6917",
    "address": " 872 Croton Rd - Rockledge, FL 32955",
    "location": "Hendry"
  },
  {
    "name": "Wolf Enterprises",
    "description": "Advertising Specialties",
    "phone": "(321) 449-1211",
    "address": " 2060 Leeward Ln - Merritt Island, FL 32953",
    "location": "Hendry"
  },
  {
    "name": "Mc Consulting Agency",
    "description": "Advertising Agencies",
    "phone": "(321) 635-9906",
    "address": " 1237 Sleepy Hollow Ln - Rockledge, FL 32955",
    "location": "Hendry"
  },
  {
    "name": "Monoceros, Inc.",
    "description": "Advertising Specialties",
    "phone": "(407) 218-5860",
    "address": " 3810 Murrell Rd # 271 - Rockledge, FL 32955",
    "location": "Hendry"
  },
  {
    "name": "TJC Advertising",
    "description": "Signs",
    "phone": "(321) 459-1771",
    "address": " 2095 Mona Ct - Merritt Island, FL 32952",
    "location": "Hendry"
  },
  {
    "name": "MegaPostcard",
    "description": "Coupon Advertising",
    "phone": "(412) 398-0814",
    "address": " 4934 Oaklefe Ct - Rockledge, FL 32955",
    "location": "Hendry"
  },
  {
    "name": "A1a Sign Wave Co",
    "description": "Signs",
    "phone": "(321) 799-1774",
    "address": " 106 N Orlando Ave - Cocoa Beach, FL 32931",
    "location": "Hendry"
  },
  {
    "name": "SPACE COAST COUPONS Inc.",
    "description": "Coupon Advertising",
    "phone": "(321) 268-7667",
    "address": " 8501 Astronaut Blvd - Cape Canaveral, FL 32920",
    "location": "Hendry"
  },
  {
    "name": "Geshelli Labs",
    "description": "Advertising Agencies",
    "phone": "(321) 312-0155",
    "address": " 5575 Schenck Ave - Rockledge, FL 32955",
    "location": "Hendry"
  },
  {
    "name": "LocaliQ",
    "description": "Advertising Agencies",
    "phone": "(877) 525-6084",
    "address": " 1005 Viera Blvd Unit 101 - Viera, FL 32955",
    "location": "Hendry"
  },
  {
    "name": "Superior Advertising & Marketing",
    "description": "Advertising Agencies",
    "phone": "(321) 784-9321",
    "address": " 339 Jack Dr - Cocoa Beach, FL 32931",
    "location": "Hendry"
  },
  {
    "name": "Paleofun Inc",
    "description": "Display Designers & Producers",
    "phone": "(321) 783-1447",
    "address": " 250 W Cocoa Beach Cswy - Cocoa Beach, FL 32931",
    "location": "Hendry"
  },
  {
    "name": "Gautreaux Consultants Inc",
    "description": "Advertising Agencies",
    "phone": "(321) 799-2795",
    "address": " 200 Saint Lucie Ln Apt 408 - Cocoa Beach, FL 32931",
    "location": "Hendry"
  },
  {
    "name": "Dentalfone",
    "description": "Web Site Design & Services",
    "phone": "(855) 385-3663",
    "address": " 3000 North Atlantic Avenue - Cocoa Beach, FL 32931",
    "location": "Hendry"
  },
  {
    "name": "SPACE COAST SMS Inc. TEXT MESSAGE MARKETING",
    "description": "Coupon Advertising",
    "phone": "(321) 438-7325",
    "address": " 8501 Astronaut Blvd - Cape Canaveral, FL 32920",
    "location": "Hendry"
  },
  {
    "name": "GYB Marketing Inc",
    "description": "Marketing Programs & Services",
    "phone": "(321) 392-3132",
    "address": " 8501 Astronaut Blvd Ste 5 - Cape Canaveral, FL 32920",
    "location": "Hendry"
  },
  {
    "name": "PressureWashingBrevard",
    "description": "Print Advertising",
    "phone": "(321) 458-2736",
    "address": " 308 Johnson Ave - Cape Canaveral, FL 32920",
    "location": "Hendry"
  },
  {
    "name": "Colossal Signs",
    "description": "Signs",
    "phone": "(321) 613-3822",
    "address": " 82 S Orlando Ave - Cocoa Beach, FL 32931",
    "location": "Hendry"
  },
  {
    "name": "A1a Sign Wave Company",
    "description": "Signs",
    "phone": "(321) 799-1774",
    "address": " 11 Harbor Cir - Cocoa Beach, FL 32931",
    "location": "Hendry"
  },
  {
    "name": "Think Different Designs",
    "description": "Web Site Design & Services",
    "phone": "(321) 421-9086",
    "address": " 3758 Hollisten Cir - Melbourne, FL 32940",
    "location": "Hendry"
  },
  {
    "name": "Super Media Girl",
    "description": "Speakers, Lectures & Seminars",
    "phone": "(321) 258-5097",
    "address": " 3500 Funston Cir - Melbourne, FL 32940",
    "location": "Hendry"
  },
  {
    "name": "Zephyr Studio",
    "description": "Marketing Programs & Services",
    "phone": "(321) 848-6909",
    "address": " 6208 Erik Ct - Melbourne, FL 32940",
    "location": "Hendry"
  },
  {
    "name": "Yellow Page Directory Service Inc",
    "description": "Directory & Guide Advertising",
    "phone": "(321) 254-6012",
    "address": " 640 Classic Ct - Melbourne, FL 32940",
    "location": "Hendry"
  },
  {
    "name": "Treefrog Data Solutions",
    "description": "Advertising Specialties",
    "phone": "(321) 784-6004",
    "address": " 1010 S Brevard Ave - Cocoa Beach, FL 32931",
    "location": "Hendry"
  },
  {
    "name": "Opus Advertising",
    "description": "Advertising Agencies",
    "phone": "(321) 799-0098",
    "address": " 2210 S Atlantic Ave - Cocoa Beach, FL 32931",
    "location": "Hendry"
  },
  {
    "name": "All Media Graphics",
    "description": "Editorial & Publication Services",
    "phone": "(321) 698-1550",
    "address": " 7777 N Wickham Rd Ste 12-124 - Melbourne, FL 32940",
    "location": "Hendry"
  },
  {
    "name": "FASTSIGNS",
    "description": "Signs",
    "phone": "(321) 610-7684",
    "address": " 7640 N Wickham Rd - Melbourne, FL 32940",
    "location": "Hendry"
  },
  {
    "name": "Time to Sign Inc",
    "description": "Advertising Specialties",
    "phone": "(321) 726-9466",
    "address": " 7215 Waelti Dr - Melbourne, FL 32940",
    "location": "Hendry"
  },
  {
    "name": "Sign Access",
    "description": "Signs-Maintenance & Repair",
    "phone": "(321) 752-9040",
    "address": " 7205 Waelti Dr - Melbourne, FL 32940",
    "location": "Hendry"
  },
  {
    "name": "Senior Scene Magazine",
    "description": "Advertising Agencies",
    "phone": "(321) 777-1114",
    "address": " 712 Spanish Cove Dr - Melbourne, FL 32940",
    "location": "Hendry"
  },
  {
    "name": "Global Concepts Media Agency LLC",
    "description": "Advertising Agencies",
    "phone": "(417) 425-7678",
    "address": " 431 Vizcaya Ct - Melbourne, FL 32940",
    "location": "Hendry"
  },
  {
    "name": "Invision Multimedia",
    "description": "Internet Marketing & Advertising",
    "phone": "(321) 253-1000",
    "address": " 6300 N Wickham Rd - Melbourne, FL 32940",
    "location": "Hendry"
  },
  {
    "name": "Signspot",
    "description": "Signs",
    "phone": "(321) 383-0077",
    "address": " 4424 S Hopkins Ave - Titusville, FL 32780",
    "location": "Hendry"
  },
  {
    "name": "Brevard Discount Connection",
    "description": "Advertising Agencies",
    "phone": "(321) 482-4542",
    "address": " 4144 Fenrose Cir - Melbourne, FL 32940",
    "location": "Hendry"
  },
  {
    "name": "Ad Astra Technology Inc",
    "description": "Advertising Agencies",
    "phone": "(321) 222-7872",
    "address": " 308 Cheney Hwy - Titusville, FL 32780",
    "location": "Hendry"
  },
  {
    "name": "Sign Man Inc",
    "description": "Advertising Specialties",
    "phone": "(321) 259-1703",
    "address": " 4580 N Us Highway 1 - Melbourne, FL 32935",
    "location": "Hendry"
  },
  {
    "name": "Alive Advertising",
    "description": "Advertising Specialties",
    "phone": "(321) 613-8650",
    "address": " 1341 Cheney Hwy - Titusville, FL 32780",
    "location": "Hendry"
  },
  {
    "name": "Front Page Solution",
    "description": "Internet Marketing & Advertising",
    "phone": "(321) 505-7932",
    "address": " 4100 N Wickham Rd Ste 107A-198 - Melbourne, FL 32935",
    "location": "Hendry"
  },
  {
    "name": "Dennis Kyle Laser Consultant",
    "description": "Advertising Agencies",
    "phone": "(321) 863-4172",
    "address": " 3525 Bull Run Ct - Melbourne, FL 32934",
    "location": "Hendry"
  },
  {
    "name": "Coastal Media & Business Marketing",
    "description": "Advertising Agencies",
    "phone": "(321) 508-5145",
    "address": " 105 SE 2nd St - Satellite Beach, FL 32937",
    "location": "Hendry"
  },
  {
    "name": "Sky Advertising",
    "description": "Advertising Agencies",
    "phone": "(321) 777-0140",
    "address": " 664 S Patrick Dr - Satellite Beach, FL 32937",
    "location": "Hendry"
  },
  {
    "name": "Mtn Advertising",
    "description": "Advertising Agencies",
    "phone": "(321) 779-1010",
    "address": " 1355 S Patrick Dr - Satellite Beach, FL 32937",
    "location": "Hendry"
  },
  {
    "name": "Pace Media",
    "description": "Advertising Agencies",
    "phone": "(321) 610-3299",
    "address": " 1413 S Patrick Dr - Satellite Beach, FL 32937",
    "location": "Hendry"
  }
]