[
  {
    "dataYpid": "920560",
    "name": "Dmb Supply Inc",
    "description": "Advertising Agencies",
    "phone": "(352) 489-9100",
    "address": " 1250 E Overdrive Cir - Hernando, FL 34442",
    "location": "Holmes"
  },
  {
    "dataYpid": "469362747",
    "name": "The French Designs Factory",
    "description": "Advertising Agencies",
    "phone": "(407) 844-9758",
    "address": " 5702 N Claremont Dr - Citrus Springs, FL 34434",
    "location": "Holmes"
  },
  {
    "dataYpid": "18092246",
    "name": "AAA Rent A Sign Inc",
    "description": "Advertising Specialties",
    "phone": "(352) 489-2000",
    "address": " 7018 N Lecanto Hwy - Hernando, FL 34442",
    "location": "Holmes"
  },
  {
    "dataYpid": "28701963",
    "name": "Cindy Bixler",
    "description": "Direct Mail Advertising",
    "phone": "(352) 613-6136",
    "address": " 2600 W Gardenia Dr - Citrus Springs, FL 34434",
    "location": "Holmes"
  },
  {
    "dataYpid": "559322762",
    "name": "Miatacorral.com",
    "description": "Internet Marketing & Advertising",
    "phone": "(352) 201-7014",
    "address": " 8463 N Carl G Rose Hwy - Hernando, FL 34442",
    "location": "Holmes"
  },
  {
    "dataYpid": "506467281",
    "name": "Sarah Reins Photography",
    "description": "Portrait Photographers",
    "phone": "(352) 601-2013",
    "address": " 4512 N Ronald Ter - Beverly Hills, FL 34465",
    "location": "Holmes"
  },
  {
    "dataYpid": "550037158",
    "name": "Extreme Decalz",
    "description": "Digital Printing & Imaging",
    "phone": "(352) 400-0364",
    "address": " 2412 W Lawrence Ct - Citrus Springs, FL 34434",
    "location": "Holmes"
  },
  {
    "dataYpid": "476120101",
    "name": "Frank and SIGN design",
    "description": "Decals",
    "phone": "(352) 212-7173",
    "address": " w fern pl - Homosassa, FL 34448",
    "location": "Holmes"
  },
  {
    "dataYpid": "526502942",
    "name": "Adversion Yaratıcı Reklam Ajansı",
    "description": "Advertising Agencies",
    "phone": "(212) 931-0863",
    "address": " Katipmustadaçelebi Mh Anadolu Sk 2/2 - Istanbul, AL 34433",
    "location": "Holmes"
  },
  {
    "dataYpid": "482732787",
    "name": "Citrus County Life",
    "description": "Advertising Agencies",
    "phone": "(352) 341-4769",
    "address": " 305 S Salisbury Ter - Lecanto, FL 34461",
    "location": "Holmes"
  },
  {
    "dataYpid": "16547441",
    "name": "Hajar Associates",
    "description": "Advertising Agencies",
    "phone": "(352) 563-5264",
    "address": " 10385 N Dauphine Ter - Dunnellon, FL 34433",
    "location": "Holmes"
  },
  {
    "dataYpid": "28709711",
    "name": "Carlsson Management Enterprise",
    "description": "Advertising Agencies",
    "phone": "(352) 344-0444",
    "address": " 793 N Lafayette Way - Inverness, FL 34453",
    "location": "Holmes"
  },
  {
    "dataYpid": "10914501",
    "name": "Affordable Placemat Advertising",
    "description": "Advertising Agencies",
    "phone": "(352) 746-9454",
    "address": " 1020 N Ottawa Ave - Lecanto, FL 34461",
    "location": "Holmes"
  },
  {
    "dataYpid": "464305053",
    "name": "Southernstars Marketing",
    "description": "Advertising Agencies",
    "phone": "(352) 746-1332",
    "address": " 2608 W Express Ln - Lecanto, FL 34461",
    "location": "Holmes"
  },
  {
    "dataYpid": "497349785",
    "name": "Wilson Advertising",
    "description": "Advertising Agencies",
    "phone": "(352) 465-5151",
    "address": " 8991 SW 209th Cir - Dunnellon, FL 34431",
    "location": "Holmes"
  },
  {
    "dataYpid": "552219878",
    "name": "Earnest Mail Consulting Corporation",
    "description": "Advertising Agencies",
    "phone": "(352) 344-9490",
    "address": " 19120 E Pennsylvania Ave - Dunnellon, FL 34432",
    "location": "Holmes"
  },
  {
    "dataYpid": "9143450",
    "name": "Central Florida Directories",
    "description": "Advertising Agencies",
    "phone": "(352) 861-6368",
    "address": " 10975 SW 152nd Pl - Dunnellon, FL 34432",
    "location": "Holmes"
  },
  {
    "dataYpid": "535833314",
    "name": "Stevenslabs",
    "description": "Advertising Agencies",
    "phone": "(352) 658-3245",
    "address": " 11928 N Williams St - Dunnellon, FL 34432",
    "location": "Holmes"
  },
  {
    "dataYpid": "498977988",
    "name": "SM Content Creation",
    "description": "Copy Writers",
    "phone": "(352) 419-7030",
    "address": " 5263 W Yuma LN - Beverly Hills, FL 34465",
    "location": "Holmes"
  },
  {
    "dataYpid": "11897196",
    "name": "Sandpiper Sign & Screen Printing",
    "description": "Screen Printing",
    "phone": "(352) 746-1351",
    "address": " 4184 W Gulf To Lake Hwy - Lecanto, FL 34461",
    "location": "Holmes"
  },
  {
    "dataYpid": "461592442",
    "name": "Rebecasplace",
    "description": "Internet Marketing & Advertising",
    "phone": "(352) 322-0904",
    "address": " 8857 SW 200th Cir - Dunnellon, FL 34431",
    "location": "Holmes"
  },
  {
    "dataYpid": "545883281",
    "name": "Crazy Dave's Customs",
    "description": "Automobile Customizing",
    "phone": "(352) 464-1416",
    "address": " 3255 N Carl G Rose Hwy - Hernando, FL 34442",
    "location": "Holmes"
  },
  {
    "dataYpid": "502862022",
    "name": "Suncoast Media Pros",
    "description": "Advertising-Broadcast & Film",
    "phone": "(352) 400-4242",
    "address": " 1631 W Gulf to Lake Hwy - Lecanto, FL 34461",
    "location": "Holmes"
  },
  {
    "dataYpid": "508230346",
    "name": "Southern Pride Design",
    "description": "T-Shirts",
    "phone": "(352) 423-3080",
    "address": " 3351 E Gulf to Lake Hwy - Inverness, FL 34453",
    "location": "Holmes"
  },
  {
    "dataYpid": "6745220",
    "name": "Sign Jungle",
    "description": "Signs",
    "phone": "(352) 344-2100",
    "address": " 2780 N Florida Ave - Hernando, FL 34442",
    "location": "Holmes"
  },
  {
    "dataYpid": "1338719",
    "name": "Curt Bond Signs",
    "description": "Signs",
    "phone": "(352) 489-2114",
    "address": " 11943 N Williams St Ste E - Dunnellon, FL 34432",
    "location": "Holmes"
  },
  {
    "dataYpid": "15140588",
    "name": "Vital Signs By Kymi Hum",
    "description": "Signs",
    "phone": "(352) 563-6331",
    "address": " 5237 W Disney Ln - Dunnellon, FL 34433",
    "location": "Holmes"
  },
  {
    "dataYpid": "465686260",
    "name": "Maja Signs & Designs",
    "description": "Signs",
    "phone": "(352) 341-1181",
    "address": " 1101 N Paul Dr - Inverness, FL 34453",
    "location": "Holmes"
  },
  {
    "dataYpid": "7720605",
    "name": "Imageworks",
    "description": "Signs",
    "phone": "(352) 637-6360",
    "address": " 2590 E Center St - Inverness, FL 34453",
    "location": "Holmes"
  },
  {
    "dataYpid": "762855",
    "name": "Top Dog",
    "description": "Signs",
    "phone": "(352) 527-2551",
    "address": " 41 S Scarboro Ave - Lecanto, FL 34461",
    "location": "Holmes"
  },
  {
    "dataYpid": "10694854",
    "name": "Sign Express Inc",
    "description": "Signs",
    "phone": "(352) 527-7446",
    "address": " 2017 W Gulf To Lake Hwy - Lecanto, FL 34461",
    "location": "Holmes"
  },
  {
    "dataYpid": "562593753",
    "name": "Atlantic.net",
    "description": "Internet Marketing & Advertising",
    "phone": "(562) 903-9550",
    "address": " 4250 W Malaluka Cir - Citrus Springs, FL 34433",
    "location": "Holmes"
  },
  {
    "dataYpid": "513801985",
    "name": "Morgantowns.com",
    "description": "Internet Marketing & Advertising",
    "phone": "(304) 594-3700",
    "address": " 2286 N Brentwood Cir - Lecanto, FL 34461",
    "location": "Holmes"
  },
  {
    "dataYpid": "526079053",
    "name": "Gospel-Family.net",
    "description": "Internet Marketing & Advertising",
    "phone": "(386) 208-4967",
    "address": " 797 S Rowe Ter - Lecanto, FL 34461",
    "location": "Holmes"
  },
  {
    "dataYpid": "504766201",
    "name": "PostingDiva, Inc.",
    "description": "Internet Marketing & Advertising",
    "phone": "(352) 792-5412",
    "address": " 13405 SW 100th St - Dunnellon, FL 34432",
    "location": "Holmes"
  },
  {
    "dataYpid": "481484953",
    "name": "Adams Fun Sign Factory",
    "description": "Signs",
    "phone": "(352) 513-5131",
    "address": " 2263 N Overlook Path - Hernando, FL 34442",
    "location": "Holmes"
  },
  {
    "dataYpid": "543853486",
    "name": "Bill Hart Signs",
    "description": "Signs",
    "phone": "(352) 560-3099",
    "address": " 2675 N Canterbury Lake Dr - Hernando, FL 34442",
    "location": "Holmes"
  },
  {
    "dataYpid": "456711489",
    "name": "Kompella Rama",
    "description": "Signs",
    "phone": "(352) 270-8574",
    "address": " 3391 W Cedarbrook Ct - Lecanto, FL 34461",
    "location": "Holmes"
  },
  {
    "dataYpid": "467756624",
    "name": "Advertising Specialties",
    "description": "Advertising Specialties",
    "phone": "(352) 746-9962",
    "address": " 4985 N Pink Poppy Dr - Beverly Hills, FL 34465",
    "location": "Holmes"
  },
  {
    "dataYpid": "503982649",
    "name": "Coastal Trophy & Sign Co",
    "description": "Signs",
    "phone": "(352) 563-0295",
    "address": " 4813 N Sacramento Ave - Beverly Hills, FL 34465",
    "location": "Holmes"
  },
  {
    "dataYpid": "464490570",
    "name": "Signs and Design Maja",
    "description": "Advertising Specialties",
    "phone": "(352) 341-1181",
    "address": " 3685 E Forest Dr - Inverness, FL 34453",
    "location": "Holmes"
  },
  {
    "dataYpid": "456071818",
    "name": "Gulf Trophies",
    "description": "Trophies, Plaques & Medals",
    "phone": "(352) 249-3111",
    "address": " 3764 W Gulf To Lake Hwy - Lecanto, FL 34461",
    "location": "Holmes"
  },
  {
    "dataYpid": "10498240",
    "name": "ADS On Anything",
    "description": "Advertising Agencies",
    "phone": "(352) 341-3400",
    "address": " 8831 E Sandpiper Dr - Inverness, FL 34450",
    "location": "Holmes"
  },
  {
    "dataYpid": "576562142",
    "name": "Joseph Pelham",
    "description": "Advertising Agencies",
    "phone": "(404) 913-1308",
    "address": " 3831 S Lake Ter - Homosassa, FL 34448",
    "location": "Holmes"
  },
  {
    "dataYpid": "9724987",
    "name": "Sapp Cable Advertising",
    "description": "Advertising Agencies",
    "phone": "(352) 861-7202",
    "address": " 8968 SW 100th St - Ocala, FL 34481",
    "location": "Holmes"
  },
  {
    "dataYpid": "450795053",
    "name": "Charles Mint Studios LLC",
    "description": "Advertising Agencies",
    "phone": "(888) 398-3503",
    "address": " 725 NE 12th St - Crystal River, FL 34428",
    "location": "Holmes"
  },
  {
    "dataYpid": "468341037",
    "name": "Instant World Marketing Inc",
    "description": "Advertising Agencies",
    "phone": "(786) 566-9650",
    "address": " 987 N Suncoast Blvd Ste 414 - Crystal River, FL 34429",
    "location": "Holmes"
  },
  {
    "dataYpid": "475610449",
    "name": "Planet Worldwide Productions",
    "description": "Advertising Agencies",
    "phone": "(352) 547-0004",
    "address": " 11068 SW 109th St - Dunnellon, FL 34432",
    "location": "Holmes"
  },
  {
    "dataYpid": "23316803",
    "name": "Boomtown Media",
    "description": "Advertising Agencies",
    "phone": "(352) 489-0099",
    "address": " 7620 S Us Highway 41 - Dunnellon, FL 34432",
    "location": "Holmes"
  },
  {
    "dataYpid": "475564357",
    "name": "Merge Right Marketing",
    "description": "Advertising Agencies",
    "phone": "(352) 575-1102",
    "address": " 11100 SW 93rd Court Rd - Ocala, FL 34481",
    "location": "Holmes"
  },
  {
    "dataYpid": "496394644",
    "name": "Douglife Marketing Agency",
    "description": "Web Site Design & Services",
    "phone": "(352) 419-1880",
    "address": " 308 S Osceola Ave - Inverness, FL 34452",
    "location": "Holmes"
  },
  {
    "dataYpid": "476102517",
    "name": "Ryan Markland Signs",
    "description": "Signs-Maintenance & Repair",
    "phone": "(352) 344-4000",
    "address": " 3808 S Florida Ave - Inverness, FL 34450",
    "location": "Holmes"
  },
  {
    "dataYpid": "526972414",
    "name": "Ultra Graphics & Window Tint",
    "description": "Automobile Accessories",
    "phone": "(352) 228-4582",
    "address": " 1650 S Suncoast Blvd - Homosassa, FL 34448",
    "location": "Holmes"
  },
  {
    "dataYpid": "576555466",
    "name": "Jay Berry Signs",
    "description": "Signs",
    "phone": "(352) 230-5030",
    "address": " 11100 SW 93rd Court Rd - Ocala, FL 34481",
    "location": "Holmes"
  },
  {
    "dataYpid": "2372420",
    "name": "Crystal River Signs",
    "description": "Signs",
    "phone": "(352) 795-4617",
    "address": " 708 SE 9th Cir - Crystal River, FL 34429",
    "location": "Holmes"
  },
  {
    "dataYpid": "2792960",
    "name": "Mac 1 Signs",
    "description": "Signs",
    "phone": "(352) 628-3246",
    "address": " 7068 W Grover Cleveland Blvd - Homosassa, FL 34446",
    "location": "Holmes"
  },
  {
    "dataYpid": "571904840",
    "name": "Practice42",
    "description": "Internet Marketing & Advertising",
    "phone": "(850) 933-5072",
    "address": " 6752 W Gulf To Lake Hwy Ste 328 - Crystal River, FL 34429",
    "location": "Holmes"
  },
  {
    "dataYpid": "508751545",
    "name": "Productiveideas.com",
    "description": "Internet Marketing & Advertising",
    "phone": "(352) 257-0896",
    "address": " 249 NE 4th St - Crystal River, FL 34429",
    "location": "Holmes"
  },
  {
    "dataYpid": "28934502",
    "name": "Holly's Signs Graphics & lettering",
    "description": "Truck Painting & Lettering",
    "phone": "(352) 208-0922",
    "address": " 20110 SW 75th St - Dunnellon, FL 34431",
    "location": "Holmes"
  },
  {
    "dataYpid": "221105",
    "name": "Commercial Text Messaging",
    "description": "Advertising Specialties",
    "phone": "(727) 457-3986",
    "address": " 1287 S Palm Ave - Homosassa, FL 34448",
    "location": "Holmes"
  },
  {
    "dataYpid": "531745410",
    "name": "LN Signs",
    "description": "Signs",
    "phone": "(352) 304-7355",
    "address": " 5685 SW 140th Ave - Ocala, FL 34481",
    "location": "Holmes"
  },
  {
    "dataYpid": "18562376",
    "name": "Rogers Signs",
    "description": "Signs",
    "phone": "(352) 795-7541",
    "address": " 878 N Rock Crusher Rd - Crystal River, FL 34429",
    "location": "Holmes"
  },
  {
    "dataYpid": "506001983",
    "name": "CBS Outdoor",
    "description": "Signs",
    "phone": "(352) 341-1162",
    "address": " 115 N Apopka Ave - Inverness, FL 34450",
    "location": "Holmes"
  },
  {
    "dataYpid": "458888391",
    "name": "All-Brite Signs",
    "description": "Signs",
    "phone": "(352) 628-4910",
    "address": " 3376 W Pennington Ct - Lecanto, FL 34461",
    "location": "Holmes"
  },
  {
    "dataYpid": "541152619",
    "name": "Tropical Instan",
    "description": "Signs",
    "phone": "(352) 795-7446",
    "address": " 1612 S Suncoast Blvd - Homosassa, FL 34448",
    "location": "Holmes"
  },
  {
    "dataYpid": "464223268",
    "name": "White Mountain Signs",
    "description": "Signs",
    "phone": "(352) 228-0597",
    "address": " 7465 W. Arabis Lance - Homosassa, FL 34448",
    "location": "Holmes"
  },
  {
    "dataYpid": "453405368",
    "name": "Advantage Direct Mail",
    "description": "Direct Mail Advertising",
    "phone": "(352) 726-2026",
    "address": " 1011 S Us Highway 41 - Inverness, FL 34450",
    "location": "Holmes"
  },
  {
    "dataYpid": "453761757",
    "name": "Citrus Marketing & Design",
    "description": "Internet Marketing & Advertising",
    "phone": "(352) 212-7409",
    "address": " PO Box 1481 - Inverness, FL 34451",
    "location": "Holmes"
  },
  {
    "dataYpid": "553124080",
    "name": "Local SEO City Pages",
    "description": "Internet Marketing & Advertising",
    "phone": "(407) 906-6951",
    "address": " 1033 Lowell Ter. - Inverness, FL 34452",
    "location": "Holmes"
  },
  {
    "dataYpid": "21111937",
    "name": "Falon Rogers Signs",
    "description": "Signs",
    "phone": "(352) 503-6830",
    "address": " 5080 N Alexa Ter - Crystal River, FL 34428",
    "location": "Holmes"
  },
  {
    "dataYpid": "527777818",
    "name": "FGE Prints",
    "description": "Digital Printing & Imaging",
    "phone": "(352) 794-3880",
    "address": " 854 NE 5th St - Crystal River, FL 34429",
    "location": "Holmes"
  },
  {
    "dataYpid": "9689599",
    "name": "Excel Printing Inc",
    "description": "Digital Printing & Imaging",
    "phone": "(352) 795-6221",
    "address": " 687 NE 5th St - Crystal River, FL 34429",
    "location": "Holmes"
  },
  {
    "dataYpid": "505359186",
    "name": "Sign M",
    "description": "Advertising Specialties",
    "phone": "(352) 228-4730",
    "address": " 1398 SE Hub St - Crystal River, FL 34429",
    "location": "Holmes"
  },
  {
    "dataYpid": "556453138",
    "name": "Signsfast",
    "description": "Signs",
    "phone": "(352) 419-4566",
    "address": " 625 S Us Highway 41 - Inverness, FL 34450",
    "location": "Holmes"
  },
  {
    "dataYpid": "481016831",
    "name": "DecalTime.com",
    "description": "Die Cutting",
    "phone": "(727) 408-4758",
    "address": " 1841 NW 17th St - crystal river, FL 34428",
    "location": "Holmes"
  },
  {
    "dataYpid": "29257272",
    "name": "Srs Signs & Graphics",
    "description": "Advertising Specialties",
    "phone": "(352) 489-7503",
    "address": " 16242 SW 55th St - Ocala, FL 34481",
    "location": "Holmes"
  },
  {
    "dataYpid": "562886768",
    "name": "Leigh Printing",
    "description": "Printing Services-Commercial",
    "phone": "(352) 857-8009",
    "address": " 8810 SW Highway 200 Unit 121 - Ocala, FL 34481",
    "location": "Holmes"
  },
  {
    "dataYpid": "546674348",
    "name": "Serviamigos.net",
    "description": "Advertising Agencies",
    "phone": "(352) 239-8140",
    "address": " 5101 SW 60th Street Rd Apt 4107 - Ocala, FL 34474",
    "location": "Holmes"
  },
  {
    "dataYpid": "561157482",
    "name": "Loyalty Social Marketing",
    "description": "Advertising Agencies",
    "phone": "(407) 334-6334",
    "address": " 10444 SW 62nd Ct - Ocala, FL 34476",
    "location": "Holmes"
  },
  {
    "dataYpid": "453333738",
    "name": "Mackler Inc",
    "description": "Direct Mail Advertising",
    "phone": "(352) 628-2155",
    "address": " 7975 W Grover Cleveland Blvd - Homosassa, FL 34446",
    "location": "Holmes"
  },
  {
    "dataYpid": "559148388",
    "name": "Chrisrath.com",
    "description": "Internet Marketing & Advertising",
    "phone": "(727) 851-3404",
    "address": " 7519 W Autumn St - Homosassa, FL 34446",
    "location": "Holmes"
  },
  {
    "dataYpid": "535147291",
    "name": "HPSK Enterprises",
    "description": "Internet Marketing & Advertising",
    "phone": "(508) 523-5445",
    "address": " 8022 W Grove St - Homosassa, FL 34446",
    "location": "Holmes"
  },
  {
    "dataYpid": "499129249",
    "name": "Virtualoffice2U.com",
    "description": "Internet Marketing & Advertising",
    "phone": "(985) 788-7452",
    "address": " 8975 W Halls River Rd - Homosassa, FL 34448",
    "location": "Holmes"
  },
  {
    "dataYpid": "575618456",
    "name": "David Trimble",
    "description": "Internet Marketing & Advertising",
    "phone": "(561) 665-7811",
    "address": " 4286 S Purslane Dr - Homosassa, FL 34448",
    "location": "Holmes"
  },
  {
    "dataYpid": "17412552",
    "name": "Sign Upindra",
    "description": "Advertising Specialties",
    "phone": "(352) 245-6188",
    "address": " 14431 SW 46th Ct - Ocala, FL 34473",
    "location": "Holmes"
  }
]