[
  {
    "name": "Business Equipment Sales & Service",
    "description": "Advertising Agencies",
    "phone": "(386) 775-4124",
    "address": " 555 Werley Trl - Orange City, FL 32763",
    "location": "Jackson"
  },
  {
    "name": "AdWise Creative",
    "description": "Advertising Agencies",
    "phone": "(407) 734-3638",
    "address": " 1740 Cypress Ave - Orange City, FL 32763",
    "location": "Jackson"
  },
  {
    "name": "J D Hill Inc",
    "description": "Advertising Agencies",
    "phone": "(386) 775-2398",
    "address": " 157 Brassington Dr - Debary, FL 32713",
    "location": "Jackson"
  },
  {
    "name": "Catalog Solutions",
    "description": "Advertising Agencies",
    "phone": "(386) 775-1070",
    "address": " 609 N Charles Richard Beall Blvd Ste 101 - Debary, FL 32713",
    "location": "Jackson"
  },
  {
    "name": "Inplas Performance Solutions",
    "description": "Advertising Agencies",
    "phone": "(814) 460-2605",
    "address": " 4 Pine Meadow Ct - Debary, FL 32713",
    "location": "Jackson"
  },
  {
    "name": "Word of Mouth",
    "description": "Advertising Agencies",
    "phone": "(386) 532-3295",
    "address": " 1090 S Cooper Dr - Deltona, FL 32725",
    "location": "Jackson"
  },
  {
    "name": "Custom Graphic Designs",
    "description": "Advertising Agencies",
    "phone": "(386) 229-3832",
    "address": " 4462 Highway 17 - DeLand, FL 32720",
    "location": "Jackson"
  },
  {
    "name": "Dari",
    "description": "Advertising Agencies",
    "phone": "(407) 330-3167",
    "address": " PO Box 4363 - Deltona, FL 32725",
    "location": "Jackson"
  },
  {
    "name": "i4 Advertising Agency LLC",
    "description": "Advertising Agencies",
    "phone": "(407) 416-1515",
    "address": " 610 Deltona Blvd, Ste D - Deltona, FL 32725",
    "location": "Jackson"
  },
  {
    "name": "Robert Declara",
    "description": "Advertising Agencies",
    "phone": "(386) 668-1690",
    "address": " 203 Buena Vista St - Debary, FL 32713",
    "location": "Jackson"
  },
  {
    "name": "Pennysaver",
    "description": "Advertising Agencies",
    "phone": "(386) 736-2880",
    "address": " 245 S Woodland Blvd - Deland, FL 32720",
    "location": "Jackson"
  },
  {
    "name": "NCM Media Networks-Debary",
    "description": "Advertising Agencies",
    "phone": "(386) 668-6670",
    "address": " 50 Forest Eagle Ct - Debary, FL 32713",
    "location": "Jackson"
  },
  {
    "name": "A7 Advertising",
    "description": "Advertising Agencies",
    "phone": "(386) 453-1464",
    "address": " 603 Elkhorn Fern Ln - Deland, FL 32720",
    "location": "Jackson"
  },
  {
    "name": "Websoftware",
    "description": "Advertising Agencies",
    "phone": "(386) 336-4227",
    "address": " 1608 W Minnesota Ave - Deland, FL 32720",
    "location": "Jackson"
  },
  {
    "name": "Interactive Resources",
    "description": "Advertising Agencies",
    "phone": "(407) 830-4068",
    "address": " 605 Tradewinds Dr - Deltona, FL 32738",
    "location": "Jackson"
  },
  {
    "name": "Gill Associates",
    "description": "Advertising Agencies",
    "phone": "(386) 574-2781",
    "address": " 469 Glen Haven Dr - Deltona, FL 32738",
    "location": "Jackson"
  },
  {
    "name": "L J Productions",
    "description": "Advertising Agencies",
    "phone": "(407) 443-1684",
    "address": " 255 Rosedale Dr - Deltona, FL 32738",
    "location": "Jackson"
  },
  {
    "name": "Fenestra",
    "description": "Advertising Agencies",
    "phone": "(407) 436-2825",
    "address": " 134 Wilson Bay Ct - Sanford, FL 32771",
    "location": "Jackson"
  },
  {
    "name": "Backseat Advertising",
    "description": "Advertising Agencies",
    "phone": "(407) 915-7006",
    "address": " 485 Specialty Pt - Sanford, FL 32771",
    "location": "Jackson"
  },
  {
    "name": "Maritime Drive",
    "description": "Advertising Agencies",
    "phone": "(407) 862-7363",
    "address": " 130 Maritime Dr - Sanford, FL 32771",
    "location": "Jackson"
  },
  {
    "name": "Floor Rivers Media",
    "description": "Advertising Agencies",
    "phone": "(407) 733-6984",
    "address": " 2020 Washington Ave - Sanford, FL 32771",
    "location": "Jackson"
  },
  {
    "name": "Checkout Locals",
    "description": "Advertising Agencies",
    "phone": "(407) 777-4506",
    "address": " 1540 International Pkwy Suite 2000 - Lake Mary, FL 32746",
    "location": "Jackson"
  },
  {
    "name": "Mash & Lauter Marketing",
    "description": "Advertising Agencies",
    "phone": "(407) 205-8220",
    "address": " 1540 International Pkwy Ste 2000 - Lake Mary, FL 32746",
    "location": "Jackson"
  },
  {
    "name": "Epic Media",
    "description": "Advertising Agencies",
    "phone": "(407) 807-7287",
    "address": " 8718 Shimmering Pine Pl - Sanford, FL 32771",
    "location": "Jackson"
  },
  {
    "name": "N2Nsites",
    "description": "Advertising Agencies",
    "phone": "(407) 732-7288",
    "address": " 8674 Crested Eagle Pl - Sanford, FL 32771",
    "location": "Jackson"
  },
  {
    "name": "Delta Connection Academy Inc",
    "description": "Advertising Agencies",
    "phone": "(407) 430-4100",
    "address": " 2700 Flightline Ave - Sanford, FL 32773",
    "location": "Jackson"
  },
  {
    "name": "Adeo Media Group",
    "description": "Advertising Agencies",
    "phone": "(407) 833-9200",
    "address": " 737 Stirling Center Pl - Lake Mary, FL 32746",
    "location": "Jackson"
  },
  {
    "name": "Interprecision Technology Inc",
    "description": "Advertising Agencies",
    "phone": "(407) 322-6328",
    "address": " 837 Pickfair Ter - Lake Mary, FL 32746",
    "location": "Jackson"
  },
  {
    "name": "Gcs Enterprise Inc",
    "description": "Advertising Agencies",
    "phone": "(407) 562-1859",
    "address": " 801 International Pkwy - Lake Mary, FL 32746",
    "location": "Jackson"
  },
  {
    "name": "Evok Advertising",
    "description": "Advertising Agencies",
    "phone": "(407) 302-4416",
    "address": " 152 N 4th St - Lake Mary, FL 32746",
    "location": "Jackson"
  },
  {
    "name": "Proforma A&G Marketing Group",
    "description": "Advertising Agencies",
    "phone": "(386) 626-9200",
    "address": " 255 Primera Blvd Ste 160 - Lake Mary, FL 32746",
    "location": "Jackson"
  },
  {
    "name": "Stephenson and Associates",
    "description": "Advertising Agencies",
    "phone": "(407) 833-3728",
    "address": " 250 International Pkwy Ste 108 - Lake Mary, FL 32746",
    "location": "Jackson"
  },
  {
    "name": "Fast Lane Promotions",
    "description": "Advertising Agencies",
    "phone": "(407) 328-7653",
    "address": " 270 Waymont Ct Ste 120 - Lake Mary, FL 32746",
    "location": "Jackson"
  },
  {
    "name": "Advertising Specialty Institute",
    "description": "Advertising Agencies",
    "phone": "(407) 430-3698",
    "address": " 4300 W Lake Mary Blvd - Lake Mary, FL 32746",
    "location": "Jackson"
  },
  {
    "name": "Precisionplay Media",
    "description": "Advertising Agencies",
    "phone": "(407) 805-8800",
    "address": " 160 International Pkwy - Lake Mary, FL 32746",
    "location": "Jackson"
  },
  {
    "name": "Asche Corp",
    "description": "Advertising Agencies",
    "phone": "(321) 200-0770",
    "address": " 1325 S International Pkwy - Lake Mary, FL 32746",
    "location": "Jackson"
  },
  {
    "name": "Intersect Media Solutions",
    "description": "Advertising Agencies",
    "phone": "(866) 404-5913",
    "address": " 1025 Greenwood Blvd - Lake Mary, FL 32746",
    "location": "Jackson"
  },
  {
    "name": "Greenwood Ventures",
    "description": "Advertising Agencies",
    "phone": "(407) 585-8800",
    "address": " 1025 Greenwood Blvd - Lake Mary, FL 32746",
    "location": "Jackson"
  },
  {
    "name": "Halldale Media Inc",
    "description": "Advertising Agencies",
    "phone": "(407) 322-5605",
    "address": " 115 Timberlachen Cir - Lake Mary, FL 32746",
    "location": "Jackson"
  },
  {
    "name": "Noor Inc",
    "description": "Advertising Agencies",
    "phone": "(407) 321-2313",
    "address": " 298 Main Rd - Lake Mary, FL 32746",
    "location": "Jackson"
  },
  {
    "name": "Lake Emma Corp Park",
    "description": "Advertising Agencies",
    "phone": "(407) 804-1586",
    "address": " 3200 Lake Emma Rd - Lake Mary, FL 32746",
    "location": "Jackson"
  },
  {
    "name": "Captree Advertising",
    "description": "Advertising Agencies",
    "phone": "(386) 871-2080",
    "address": " 555 Maribella Ct - New Smyrna Beach, FL 32168",
    "location": "Jackson"
  },
  {
    "name": "Pro-Tech Printers Inc",
    "description": "Advertising Agencies",
    "phone": "(386) 774-6837",
    "address": " 1060 E Industrial Dr - Orange City, FL 32763",
    "location": "Jackson"
  },
  {
    "name": "On Wax Dup Signs & Print",
    "description": "Advertising Agencies",
    "phone": "(386) 873-2919",
    "address": " 1540 S Spring Garden Ave - Deland, FL 32720",
    "location": "Jackson"
  },
  {
    "name": "Office Creations Desktop Publishing & Oc Photo Gifts & Home Decor",
    "description": "Advertising Agencies",
    "phone": "(540) 220-3505",
    "address": " 224 Hammock Oak Cir - Debary, FL 32713",
    "location": "Jackson"
  },
  {
    "name": "Out of the Blue Marketing Inc.",
    "description": "Advertising Agencies",
    "phone": "(863) 703-2583",
    "address": " 320 S Woodland Blvd - Deland, FL 32720",
    "location": "Jackson"
  },
  {
    "name": "Community Outreach Involvement Inc.",
    "description": "Advertising Agencies",
    "phone": "(386) 753-5079",
    "address": " 314 Sunnyside Ln - Debary, FL 32713",
    "location": "Jackson"
  },
  {
    "name": "Snapt Inc",
    "description": "Advertising Agencies",
    "phone": "(386) 873-0173",
    "address": " 101 N Woodland Blvd Ste 500 - Deland, FL 32720",
    "location": "Jackson"
  },
  {
    "name": "The Logo Store",
    "description": "Advertising Agencies",
    "phone": "(386) 736-1342",
    "address": " 101 N Woodland Blvd - Deland, FL 32720",
    "location": "Jackson"
  },
  {
    "name": "A7 Multimedia",
    "description": "Advertising Agencies",
    "phone": "(386) 453-1464",
    "address": " 603 Elkhorn Fern Ln - DeLand, FL 32720",
    "location": "Jackson"
  },
  {
    "name": "Pretty Awesome Web Design",
    "description": "Advertising Agencies",
    "phone": "(407) 587-0025",
    "address": " 123 N Boulevard Ct - Deland, FL 32720",
    "location": "Jackson"
  },
  {
    "name": "R.T.P Marketing - Rock The Pavement Marketing",
    "description": "Advertising Agencies",
    "phone": "(386) 400-3986",
    "address": " 3072 Courtland Blvd - Deltona, FL 32738",
    "location": "Jackson"
  },
  {
    "name": "Relentless Media",
    "description": "Advertising Agencies",
    "phone": "(407) 252-3980",
    "address": " 1429 Dolgner Pl - Sanford, FL 32771",
    "location": "Jackson"
  },
  {
    "name": "Online Tactix, LLC",
    "description": "Advertising Agencies",
    "phone": "(888) 541-4447",
    "address": " 5224 W State Road 46 # 131 - Sanford, FL 32771",
    "location": "Jackson"
  },
  {
    "name": "Maus Media Group",
    "description": "Advertising Agencies",
    "phone": "(407) 302-5880",
    "address": " 1160 Rinehart Rd - Sanford, FL 32771",
    "location": "Jackson"
  },
  {
    "name": "Cyber Marketing",
    "description": "Advertising Agencies",
    "phone": "(407) 324-9100",
    "address": " 2380 W 25th St - Sanford, FL 32771",
    "location": "Jackson"
  },
  {
    "name": "Sandara Saints",
    "description": "Advertising Agencies",
    "phone": "(407) 878-1695",
    "address": " 103 Lindsey Way - Sanford, FL 32771",
    "location": "Jackson"
  },
  {
    "name": "Crank Communications",
    "description": "Advertising Agencies",
    "phone": "(407) 830-7312",
    "address": " 1135 Townpark Ave Ste 2125 - Lake Mary, FL 32746",
    "location": "Jackson"
  },
  {
    "name": "Levitation Studio Inc.",
    "description": "Advertising Agencies",
    "phone": "(888) 514-8814",
    "address": " 1540 International Pkwy - Lake Mary, FL 32746",
    "location": "Jackson"
  },
  {
    "name": "JLS Automotive Marketing Inc.",
    "description": "Advertising Agencies",
    "phone": "(321) 363-0624",
    "address": " 799 Sherbourne Cir - Lake Mary, FL 32746",
    "location": "Jackson"
  },
  {
    "name": "NG Production Films, Inc.",
    "description": "Advertising Agencies",
    "phone": "(877) 203-2895",
    "address": " 801 International Pkwy Ste 500 - Lake Mary, FL 32746",
    "location": "Jackson"
  },
  {
    "name": "Stephenson & Associates",
    "description": "Advertising Agencies",
    "phone": "(407) 833-3728",
    "address": " 255 Primera Blvd Ste 160 - Lake Mary, FL 32746",
    "location": "Jackson"
  },
  {
    "name": "Iceberg Advertising",
    "description": "Advertising Agencies",
    "phone": "(407) 486-8478",
    "address": " 3415 W Lake Mary Blvd - Lake Mary, FL 32746",
    "location": "Jackson"
  },
  {
    "name": "Marchand & Company - Marketing Media",
    "description": "Advertising Agencies",
    "phone": "(407) 444-2090",
    "address": " 4300 W Lake Mary Blvd - Lake Mary, FL 32746",
    "location": "Jackson"
  },
  {
    "name": "SearchOutsidethebox.com Inc",
    "description": "Advertising Agencies",
    "phone": "(407) 562-6143",
    "address": " 1521 Little Gem Loop - Sanford, FL 32773",
    "location": "Jackson"
  },
  {
    "name": "SearchOutsidethebox",
    "description": "Advertising Agencies",
    "phone": "(407) 562-6143",
    "address": " 905 Pine Way - Sanford, FL 32773",
    "location": "Jackson"
  },
  {
    "name": "Sun & Fun Media",
    "description": "Advertising Agencies",
    "phone": "(407) 328-0505",
    "address": " 1315 S International Pkwy Ste 1131 - Lake Mary, FL 32746",
    "location": "Jackson"
  },
  {
    "name": "Proforma Nextgen Printing Plus",
    "description": "Advertising Agencies",
    "phone": "(407) 804-9444",
    "address": " 425 Cardinal Oaks Ct - Lake Mary, FL 32746",
    "location": "Jackson"
  },
  {
    "name": "Progressive Communications",
    "description": "Advertising Agencies",
    "phone": "(407) 732-4036",
    "address": " 1001 Sand Pond Rd - Lake Mary, FL 32746",
    "location": "Jackson"
  },
  {
    "name": "King Direct Marketing Inc",
    "description": "Advertising Agencies",
    "phone": "(386) 788-8925",
    "address": " 1916 Bay Lake Way - Port Orange, FL 32128",
    "location": "Jackson"
  },
  {
    "name": "Imageworks",
    "description": "Signs",
    "phone": "(386) 775-0165",
    "address": " 306 N Volusia Ave - Orange City, FL 32763",
    "location": "Jackson"
  },
  {
    "name": "Copy Cat Copy Centers",
    "description": "Internet Marketing & Advertising",
    "phone": "(386) 218-6878",
    "address": " 475 N Volusia Ave - Orange City, FL 32763",
    "location": "Jackson"
  },
  {
    "name": "Lighthouse Mailing Services Inc",
    "description": "Mail & Shipping Services",
    "phone": "(386) 456-0369",
    "address": " 200 E Graves Ave - Orange City, FL 32763",
    "location": "Jackson"
  },
  {
    "name": "Great Impressions Signs & Printing",
    "description": "Signs",
    "phone": "(407) 647-5151",
    "address": " 205 Valencia Landing Dr - Orange City, FL 32763",
    "location": "Jackson"
  },
  {
    "name": "Babcock Business Systems",
    "description": "Copy Machines Service & Repair",
    "phone": "(386) 775-7516",
    "address": " 105 Cedar Ave - Orange City, FL 32763",
    "location": "Jackson"
  },
  {
    "name": "Direct Sales Marketing of Florida, Inc.",
    "description": "Direct Mail Advertising",
    "phone": "(386) 228-0458",
    "address": " 1477 S Leavitt Ave - Orange City, FL 32763",
    "location": "Jackson"
  },
  {
    "name": "Cannon Virtual Assistants",
    "description": "Internet Marketing & Advertising",
    "phone": "(386) 463-0700",
    "address": " 1452 9th ST - Orange City, FL 32763",
    "location": "Jackson"
  },
  {
    "name": "Pinnacle Services",
    "description": "Signs",
    "phone": "(386) 748-2420",
    "address": " 1645 State Road 472 - Deland, FL 32724",
    "location": "Jackson"
  },
  {
    "name": "BizCard Xpress",
    "description": "Business Cards",
    "phone": "(386) 218-5940",
    "address": " 1209 Saxon Blvd - Orange City, FL 32763",
    "location": "Jackson"
  },
  {
    "name": "The Pennysaver",
    "description": "Direct Mail Advertising",
    "phone": "(386) 736-3587",
    "address": " 1109 Saxon Blvd - Orange City, FL 32763",
    "location": "Jackson"
  },
  {
    "name": "Orlando Sentinel Advertising",
    "description": "Advertising Specialties",
    "phone": "(386) 851-7900",
    "address": " 2730 Enterprise Rd - Orange City, FL 32763",
    "location": "Jackson"
  },
  {
    "name": "Web Design Deland",
    "description": "Web Site Design & Services",
    "phone": "(386) 690-5581",
    "address": " 2170 Deerfoot Trl - Deland, FL 32720",
    "location": "Jackson"
  },
  {
    "name": "Lighthouse Mailing Service Inc",
    "description": "Mail & Shipping Services",
    "phone": "(386) 456-0369",
    "address": " 726 N Firwood Dr - Deltona, FL 32725",
    "location": "Jackson"
  },
  {
    "name": "Mobile Designs Inc",
    "description": "T-Shirts",
    "phone": "(386) 327-2159",
    "address": " 1607 S. State Road 15 A Suite 6 - Deland, FL 32720",
    "location": "Jackson"
  },
  {
    "name": "Mobile Designs Signs & Graphics",
    "description": "Truck Painting & Lettering",
    "phone": "(386) 734-3747",
    "address": " 1417 S Woodland Blvd - Deland, FL 32720",
    "location": "Jackson"
  },
  {
    "name": "Magic Brush Sign & Design",
    "description": "Advertising Specialties",
    "phone": "(386) 736-1142",
    "address": " 1190 Jackson Ranch Rd - Deland, FL 32724",
    "location": "Jackson"
  },
  {
    "name": "MBI Direct Mail, Inc.",
    "description": "Direct Mail Advertising",
    "phone": "(800) 359-4780",
    "address": " 710 W New Hampshire Ave - Deland, FL 32720",
    "location": "Jackson"
  },
  {
    "name": "Wide Fusion",
    "description": "Internet Marketing & Advertising",
    "phone": "(386) 259-9645",
    "address": " 1200 Deltona Blvd - Deltona, FL 32725",
    "location": "Jackson"
  },
  {
    "name": "Action Printers Of DeBary",
    "description": "Printers-Equipment & Supplies",
    "phone": "(386) 668-0404",
    "address": " 41 S Charles Richard Beall Blvd - Debary, FL 32713",
    "location": "Jackson"
  },
  {
    "name": "Plante Marketing",
    "description": "Coupon Advertising",
    "phone": "(386) 456-8225",
    "address": " 667 Jennings Ave - Lake Helen, FL 32744",
    "location": "Jackson"
  },
  {
    "name": "Technigrafix Signs",
    "description": "Decals",
    "phone": "(407) 257-6502",
    "address": " 783 E Fairbairn Dr - Deltona, FL 32725",
    "location": "Jackson"
  },
  {
    "name": "LookHowWeirdTheWarmIs.com",
    "description": "Internet Marketing & Advertising",
    "phone": "(386) 734-2691",
    "address": " 8 Villa Villar Ct - DeLand, FL 32724",
    "location": "Jackson"
  },
  {
    "name": "Perfection Printing",
    "description": "Signs",
    "phone": "(386) 738-3186",
    "address": " 329 S Woodland Blvd - Deland, FL 32720",
    "location": "Jackson"
  },
  {
    "name": "Signal Media",
    "description": "Internet Marketing & Advertising",
    "phone": "(407) 476-9358",
    "address": " 117 W. Howry Avenue, Ste 2 - DeLand, FL 32720",
    "location": "Jackson"
  },
  {
    "name": "West Volusia Tourism & Advertising Au",
    "description": "Advertising Specialties",
    "phone": "(386) 734-0162",
    "address": " 116 W New York Ave - Deland, FL 32720",
    "location": "Jackson"
  },
  {
    "name": "New York Ave",
    "description": "Internet Marketing & Advertising",
    "phone": "(386) 490-8900",
    "address": " 112 W Indiana Ave Ste 206 - Deland, FL 32720",
    "location": "Jackson"
  },
  {
    "name": "Express Printing Sign Co",
    "description": "Advertising Specialties",
    "phone": "(386) 734-8388",
    "address": " 869 W New York Ave - Deland, FL 32720",
    "location": "Jackson"
  },
  {
    "name": "Kitching Internet Management Solutions",
    "description": "Internet Marketing & Advertising",
    "phone": "(386) 562-6009",
    "address": " 906 E Church St - Deland, FL 32724",
    "location": "Jackson"
  },
  {
    "name": "Tinker Graphics & Marketing",
    "description": "Internet Marketing & Advertising",
    "phone": "(386) 734-3475",
    "address": " 112A W New York Ave - DeLand, FL 32720",
    "location": "Jackson"
  },
  {
    "name": "Signco Architectural Corp",
    "description": "Signs",
    "phone": "(386) 740-8344",
    "address": " 360 N Delaware Ave - Deland, FL 32720",
    "location": "Jackson"
  },
  {
    "name": "Am",
    "description": "Advertising Specialties",
    "phone": "(386) 574-9132",
    "address": " 1357 coronet dr - deltona, FL 32725",
    "location": "Jackson"
  },
  {
    "name": "Iguana Signs",
    "description": "Signs",
    "phone": "(386) 574-1211",
    "address": " 954 Saxon Blvd - Deltona, FL 32725",
    "location": "Jackson"
  },
  {
    "name": "Do It Right Entertainment",
    "description": "Disc Jockeys",
    "phone": "(386) 320-3872",
    "address": " 144 Ancona ave - Debary, FL 32713",
    "location": "Jackson"
  },
  {
    "name": "Empower Network",
    "description": "Internet Marketing & Advertising",
    "phone": "(407) 620-5585",
    "address": " Po Box 390874 - Deltona, FL 32739",
    "location": "Jackson"
  },
  {
    "name": "Nostressbuyersforyourhouse.com",
    "description": "Internet Marketing & Advertising",
    "phone": "(386) 855-8740",
    "address": " 3150 Tiburon Ln - Deltona, FL 32738",
    "location": "Jackson"
  },
  {
    "name": "Alchemy Sewing & Custom Embroidery",
    "description": "Embroidery",
    "phone": "(386) 734-4448",
    "address": " 1741 Langley Ave - Deland, FL 32724",
    "location": "Jackson"
  },
  {
    "name": "Graphic Source of Central Florida",
    "description": "Digital Printing & Imaging",
    "phone": "(386) 668-0288",
    "address": " 637 S Charles Richard Beall Blvd Ste 3 - Debary, FL 32713",
    "location": "Jackson"
  },
  {
    "name": "Johnson Marketing",
    "description": "Internet Marketing & Advertising",
    "phone": "(321) 209-5183",
    "address": " 3095 Tioga Ter - Deltona, FL 32738",
    "location": "Jackson"
  },
  {
    "name": "Quality QuickPrint",
    "description": "Printing Services",
    "phone": "(386) 736-1353",
    "address": " 1441 N Amelia Ave - Deland, FL 32724",
    "location": "Jackson"
  },
  {
    "name": "Nationwide Small Business Resources",
    "description": "Web Site Design & Services",
    "phone": "(386) 516-3550",
    "address": " 2048 Howland Blvd - Deltona, FL 32738",
    "location": "Jackson"
  },
  {
    "name": "White Sign Company, LLC",
    "description": "Signs",
    "phone": "(407) 878-3981",
    "address": " 909 S. Charles Richard Beall Blvd - Debary, FL 32713",
    "location": "Jackson"
  },
  {
    "name": "StartYourBrandNow.com",
    "description": "Internet Marketing & Advertising",
    "phone": "(386) 222-6484",
    "address": " 1702 N Woodland Blvd - Deland, FL 32724",
    "location": "Jackson"
  },
  {
    "name": "Morris Sign Company",
    "description": "Signs",
    "phone": "(386) 736-1600",
    "address": " 1380 Saratoga St - Deland, FL 32724",
    "location": "Jackson"
  },
  {
    "name": "Daniels Wholesale Sign",
    "description": "Signs",
    "phone": "(386) 738-7168",
    "address": " 1857 Patterson Ave - Deland, FL 32724",
    "location": "Jackson"
  },
  {
    "name": "Rider Now Magazine",
    "description": "Advertising Specialties",
    "phone": "(352) 598-6222",
    "address": " 324 Old Mill Rd - Deltona, FL 32725",
    "location": "Jackson"
  },
  {
    "name": "Sticky Style Designs",
    "description": "Decals",
    "phone": "(386) 320-6423",
    "address": " 2074 Old Train Rd - Deltona, FL 32738",
    "location": "Jackson"
  },
  {
    "name": "Dynamic Aspects Inc",
    "description": "Signs",
    "phone": "(407) 322-1923",
    "address": " 1490 Kastner Pl - Sanford, FL 32771",
    "location": "Jackson"
  },
  {
    "name": "Magic Sign",
    "description": "Signs",
    "phone": "(407) 324-4059",
    "address": " 4757 Orange Blvd - Sanford, FL 32771",
    "location": "Jackson"
  },
  {
    "name": "Total Image Signs & Graphics, Inc.",
    "description": "Signs",
    "phone": "(407) 688-4321",
    "address": " 1400 San Carlos Ave - Deltona, FL 32738",
    "location": "Jackson"
  },
  {
    "name": "Jii Sales Promotion",
    "description": "Advertising Specialties",
    "phone": "(386) 736-9869",
    "address": " 210 Sandy Bluff Trl - Deland, FL 32724",
    "location": "Jackson"
  },
  {
    "name": "BCXPromotional.com",
    "description": "Business Cards",
    "phone": "(407) 688-8902",
    "address": " 1744 Rinehart Rd - Sanford, FL 32771",
    "location": "Jackson"
  },
  {
    "name": "Creative Printing & Publishing",
    "description": "Marketing Programs & Services",
    "phone": "(407) 302-9147",
    "address": " 2300 Old Lake Mary Rd - Sanford, FL 32771",
    "location": "Jackson"
  },
  {
    "name": "Sanitizersubscription.com",
    "description": "Internet Marketing & Advertising",
    "phone": "(407) 943-4909",
    "address": " 201 N Maple Ave - Sanford, FL 32771",
    "location": "Jackson"
  },
  {
    "name": "Signs Just for You",
    "description": "Advertising Specialties",
    "phone": "(407) 878-4211",
    "address": " 4009 W State Road 46 - Sanford, FL 32771",
    "location": "Jackson"
  },
  {
    "name": "FASTSIGNS",
    "description": "Signs",
    "phone": "(407) 324-8338",
    "address": " 1265 Upsala Rd - Sanford, FL 32771",
    "location": "Jackson"
  },
  {
    "name": "Mychildwins.com",
    "description": "Internet Marketing & Advertising",
    "phone": "(386) 628-0295",
    "address": " 1264 Upsala Rd - Sanford, FL 32771",
    "location": "Jackson"
  },
  {
    "name": "Dealzkingzdepot.com",
    "description": "Internet Marketing & Advertising",
    "phone": "(386) 244-9500",
    "address": " 401 E 1st St - Sanford, FL 32771",
    "location": "Jackson"
  },
  {
    "name": "Diamonds Electric Sign & Repair",
    "description": "Signs",
    "phone": "(407) 657-6220",
    "address": " 324 Gordon St - Sanford, FL 32771",
    "location": "Jackson"
  },
  {
    "name": "Cornerstone Publishing & Multi-Media",
    "description": "Advertising Specialties",
    "phone": "(704) 284-3103",
    "address": " 5386 Glenlake Pl - Sanford, FL 32771",
    "location": "Jackson"
  },
  {
    "name": "Todd's Graphics To Go",
    "description": "Graphic Designers",
    "phone": "(407) 322-2923",
    "address": " 505 S French Ave - Sanford, FL 32771",
    "location": "Jackson"
  },
  {
    "name": "Sentry Sign Installers",
    "description": "Signs",
    "phone": "(407) 324-9386",
    "address": " 261 Specialty Pt - Sanford, FL 32771",
    "location": "Jackson"
  },
  {
    "name": "Signarama Lake Mary, FL",
    "description": "Signs",
    "phone": "(407) 462-3500",
    "address": " 3875 Saint Johns Pkwy - Sanford, FL 32771",
    "location": "Jackson"
  },
  {
    "name": "Onsite",
    "description": "Signs",
    "phone": "(904) 551-0504",
    "address": " 900 Central Park Dr - Sanford, FL 32771",
    "location": "Jackson"
  },
  {
    "name": "Onsight Inc",
    "description": "Paging & Signaling Equipment",
    "phone": "(407) 830-8861",
    "address": " 900 Central Park Dr - Sanford, FL 32771",
    "location": "Jackson"
  },
  {
    "name": "Pinnacle Sign Works",
    "description": "Signs",
    "phone": "(407) 322-7733",
    "address": " 3977 Saint Johns Pkwy - Sanford, FL 32771",
    "location": "Jackson"
  },
  {
    "name": "FedEx Office Print & Ship Center",
    "description": "Copying & Duplicating Service",
    "phone": "(407) 323-6964",
    "address": " 1637 Rinehart Rd - Sanford, FL 32771",
    "location": "Jackson"
  },
  {
    "name": "Logogram Inc",
    "description": "Marketing Consultants",
    "phone": "(407) 320-1117",
    "address": " 123 Commerce Way - Sanford, FL 32771",
    "location": "Jackson"
  },
  {
    "name": "Devsyntech, Inc.",
    "description": "Internet Marketing & Advertising",
    "phone": "(321) 444-7737",
    "address": " 1405 S Locust Ave - Sanford, FL 32771",
    "location": "Jackson"
  },
  {
    "name": "Liberty Advertising & Flag Co",
    "description": "Advertising Specialties",
    "phone": "(386) 985-2050",
    "address": " 1515 Arredondo Grant Rd - De Leon Springs, FL 32130",
    "location": "Jackson"
  },
  {
    "name": "AlphaGraphics",
    "description": "Printing Services",
    "phone": "(407) 330-0245",
    "address": " 1061 S Sun Dr Ste 1033 - Lake Mary, FL 32746",
    "location": "Jackson"
  },
  {
    "name": "Velocity Signs",
    "description": "Signs",
    "phone": "(407) 732-6877",
    "address": " 2200 S French Ave - Sanford, FL 32771",
    "location": "Jackson"
  },
  {
    "name": "Orlando SEO Consultant",
    "description": "Internet Products & Services",
    "phone": "(407) 314-6357",
    "address": " 365 Crest St - Sanford, FL 32771",
    "location": "Jackson"
  },
  {
    "name": "A Complete Sign Service",
    "description": "Signs",
    "phone": "(407) 328-7714",
    "address": " 2530 Sanford Ave - Sanford, FL 32773",
    "location": "Jackson"
  },
  {
    "name": "Absolute Pro Solutions",
    "description": "Signs",
    "phone": "(407) 732-4973",
    "address": " 1119 E 25th St - Sanford, FL 32771",
    "location": "Jackson"
  },
  {
    "name": "P5 Systems",
    "description": "Internet Marketing & Advertising",
    "phone": "(407) 362-1933",
    "address": " 223 Brightview Dr - Lake Mary, FL 32746",
    "location": "Jackson"
  },
  {
    "name": "W G M Signs",
    "description": "Advertising Specialties",
    "phone": "(321) 363-3763",
    "address": " 2360 Northumbria Dr - Sanford, FL 32771",
    "location": "Jackson"
  },
  {
    "name": "Apache Commander",
    "description": "Internet Marketing & Advertising",
    "phone": "(321) 262-6891",
    "address": " 2341 Church St - Sanford, FL 32771",
    "location": "Jackson"
  },
  {
    "name": "Image360 Sanford Graphics, Signs and Displays",
    "description": "Signs",
    "phone": "(407) 732-4608",
    "address": " 1169 W Airport Blvd - Sanford, FL 32773",
    "location": "Jackson"
  },
  {
    "name": "Tonic Enterprises",
    "description": "Web Site Design & Services",
    "phone": "(407) 917-7211",
    "address": " 1540 International Pkwy Ste 2000 - Lake Mary, FL 32746",
    "location": "Jackson"
  },
  {
    "name": "Promoted to Succeed",
    "description": "Advertising Specialties",
    "phone": "(407) 430-6044",
    "address": " 1540 International Pkwy - Lake Mary, FL 32746",
    "location": "Jackson"
  },
  {
    "name": "Marketleverage Interactive Advertising",
    "description": "Advertising Specialties",
    "phone": "(407) 268-7648",
    "address": " 1515 International Pkwy - Lake Mary, FL 32746",
    "location": "Jackson"
  },
  {
    "name": "Graphic Solutions",
    "description": "Computer Graphics",
    "phone": "(407) 323-5523",
    "address": " 370 Mohave Ter - Lake Mary, FL 32746",
    "location": "Jackson"
  },
  {
    "name": "Jayco Signs and Lighting",
    "description": "Signs",
    "phone": "(407) 915-7526",
    "address": " 3665 Naseem Ln - Sanford, FL 32771",
    "location": "Jackson"
  },
  {
    "name": "Affordable Discount Signs Inc.",
    "description": "Signs-Erectors & Hangers",
    "phone": "(407) 463-9334",
    "address": " 200 Woodmere Blvd - Sanford, FL 32773",
    "location": "Jackson"
  },
  {
    "name": "Casa Creacion",
    "description": "Direct Mail Advertising",
    "phone": "(407) 333-7117",
    "address": " 600 Rinehart Rd - Lake Mary, FL 32746",
    "location": "Jackson"
  },
  {
    "name": "Country Wide Enterprises",
    "description": "Internet Marketing & Advertising",
    "phone": "(407) 302-1777",
    "address": " 707 E Airport Blvd - Sanford, FL 32773",
    "location": "Jackson"
  },
  {
    "name": "Divine Imaging",
    "description": "Web Site Hosting",
    "phone": "(407) 314-4469",
    "address": " 126 Lake Ada Cir - Sanford, FL 32773",
    "location": "Jackson"
  },
  {
    "name": "Media 1",
    "description": "Signs",
    "phone": "(407) 331-6161",
    "address": " 501 Cornwall Rd - Sanford, FL 32773",
    "location": "Jackson"
  },
  {
    "name": "Traffic Signs Distribution",
    "description": "Signs",
    "phone": "(321) 332-1336",
    "address": " 3501 Sanford Ave - Sanford, FL 32773",
    "location": "Jackson"
  },
  {
    "name": "Radio Health LLC",
    "description": "Tile-Contractors & Dealers",
    "phone": "(407) 219-9494",
    "address": " 1035 Primera Blvd Ste 1041 - Lake Mary, FL 32746",
    "location": "Jackson"
  },
  {
    "name": "Design Studio Vega",
    "description": "Internet Marketing & Advertising",
    "phone": "(321) 578-9277",
    "address": " 1275 Glencrest Dr - Lake MAry, FL 32746",
    "location": "Jackson"
  },
  {
    "name": "One Source Branding & Media",
    "description": "Internet Marketing & Advertising",
    "phone": "(321) 441-3160",
    "address": " 187 E Crystal Lake Ave Unit 1005 - Lake Mary, FL 32746",
    "location": "Jackson"
  },
  {
    "name": "Save the Children Group",
    "description": "Advertising Specialties",
    "phone": "(321) 363-3755",
    "address": " 109 E Crystal Lake Ave - Lake Mary, FL 32746",
    "location": "Jackson"
  },
  {
    "name": "Signarama",
    "description": "Signs",
    "phone": "(407) 462-3500",
    "address": " 101 N Country Club Rd - Lake Mary, FL 32746",
    "location": "Jackson"
  },
  {
    "name": "Certnutri.com",
    "description": "Internet Marketing & Advertising",
    "phone": "(407) 781-8069",
    "address": " 255 Primera Blvd - Lake Mary, FL 32746",
    "location": "Jackson"
  },
  {
    "name": "Here To Help Marketing",
    "description": "Marketing Consultants",
    "phone": "(407) 391-5422",
    "address": " 255 Primera Blvd Suite 160 - Lake Mary, FL 32746",
    "location": "Jackson"
  },
  {
    "name": "Advertising Networks of Florida",
    "description": "Advertising-Shoppers Publications",
    "phone": "(866) 742-1373",
    "address": " 610 Crescent Executive Ct Ste 112 - Lake Mary, FL 32746",
    "location": "Jackson"
  },
  {
    "name": "Universal Signs And Graphics",
    "description": "Graphic Designers",
    "phone": "(407) 496-2034",
    "address": " 115 Exeter Ct - Sanford, FL 32773",
    "location": "Jackson"
  },
  {
    "name": "Essential Edge Marketing",
    "description": "Advertising Specialties",
    "phone": "(407) 252-9555",
    "address": " 4044 W Lake Mary Blvd - Lake Mary, FL 32746",
    "location": "Jackson"
  },
  {
    "name": "Everybody's Business Etc",
    "description": "Direct Mail Advertising",
    "phone": "(407) 323-2655",
    "address": " 205 Waymont Ct - Lake Mary, FL 32746",
    "location": "Jackson"
  },
  {
    "name": "Axel & Associates",
    "description": "Internet Marketing & Advertising",
    "phone": "(866) 328-4329",
    "address": " 175 Middle St Unit 1201 - Lake Mary, FL 32746",
    "location": "Jackson"
  },
  {
    "name": "Blue Skies Advertising Inc",
    "description": "Advertising Specialties",
    "phone": "(407) 687-2961",
    "address": " 204 Teakwood Ct - Lake Mary, FL 32746",
    "location": "Jackson"
  },
  {
    "name": "Collect-Us.com",
    "description": "Internet Marketing & Advertising",
    "phone": "(407) 328-7669",
    "address": " 559 S Country Club Rd - Lake Mary, FL 32746",
    "location": "Jackson"
  },
  {
    "name": "Philip Del Mare Inc",
    "description": "Signs",
    "phone": "(386) 428-1022",
    "address": " 391 County Road 415 - New Smyrna Beach, FL 32168",
    "location": "Jackson"
  },
  {
    "name": "Full Run",
    "description": "Product Design, Development & Marketing",
    "phone": "(386) 290-8087",
    "address": " 6544 Shahab Ln - Port Orange, FL 32128",
    "location": "Jackson"
  },
  {
    "name": "My-Home-Watch.com",
    "description": "Internet Marketing & Advertising",
    "phone": "(386) 682-3883",
    "address": " 100 Cessna Blvd - Port Orange, FL 32128",
    "location": "Jackson"
  },
  {
    "name": "Customwovenblankets.com",
    "description": "Internet Marketing & Advertising",
    "phone": "(386) 320-6448",
    "address": " 2610 Spruce Creek Blvd - Port Orange, FL 32128",
    "location": "Jackson"
  }
]
