[
  {
    "dataYpid": "474526715",
    "name": "Graphix Solutions",
    "description": "Advertising-Promotional Products",
    "phone": "(407) 234-7271",
    "address": " 2478 Lake Debra Dr - orlando, FL 32835",
    "location": "Lafayette"
  },
  {
    "dataYpid": "478340110",
    "name": "Trump Auto Promotions",
    "description": "Advertising-Promotional Products",
    "phone": "(407) 203-0854",
    "address": " 7065 Westpointe Blvd Ste 319 - Orlando, FL 32835",
    "location": "Lafayette"
  },
  {
    "dataYpid": "481921521",
    "name": "Coleman Design Service",
    "description": "Advertising-Promotional Products",
    "phone": "(407) 399-7378",
    "address": " P O Box 618174 - Orlando, FL 32861",
    "location": "Lafayette"
  },
  {
    "dataYpid": "472928876",
    "name": "Latitude Promotions",
    "description": "Advertising-Promotional Products",
    "phone": "(407) 248-1040",
    "address": " 7575 Dr Phillips Blvd - Orlando, FL 32819",
    "location": "Lafayette"
  },
  {
    "dataYpid": "5273491",
    "name": "Florida State Distributors Inc",
    "description": "Advertising-Promotional Products",
    "phone": "(407) 841-8344",
    "address": " 4601 SW 34th St - Orlando, FL 32811",
    "location": "Lafayette"
  },
  {
    "dataYpid": "503485150",
    "name": "Vision and Designs Central Florida Signs",
    "description": "Advertising-Promotional Products",
    "phone": "(305) 349-3597",
    "address": " 6644 Old Winter Garden Rd - Orlando, FL 32835",
    "location": "Lafayette"
  },
  {
    "dataYpid": "28662205",
    "name": "Gallant Inc",
    "description": "Advertising-Promotional Products",
    "phone": "(407) 856-4288",
    "address": " 775 S Kirkman Rd Ste 117 - Orlando, FL 32811",
    "location": "Lafayette"
  },
  {
    "dataYpid": "481168949",
    "name": "Global Promo",
    "description": "Advertising-Promotional Products",
    "phone": "(407) 513-9801",
    "address": " 4535 SW 34th St - Orlando, FL 32811",
    "location": "Lafayette"
  },
  {
    "dataYpid": "12610430",
    "name": "Area 51 Graphics",
    "description": "Advertising-Promotional Products",
    "phone": "(407) 428-1164",
    "address": " 4535 SW 34th St - Orlando, FL 32811",
    "location": "Lafayette"
  },
  {
    "dataYpid": "547448955",
    "name": "Wow Promotional Items",
    "description": "Advertising-Promotional Products",
    "phone": "(407) 394-8955",
    "address": " 4401 Vineland Rd - Orlando, FL 32811",
    "location": "Lafayette"
  },
  {
    "dataYpid": "551724321",
    "name": "Shuffled Ink",
    "description": "Advertising-Promotional Products",
    "phone": "(407) 298-3579",
    "address": " 3724 Vineland Rd Unit 3 - Orlando, FL 32811",
    "location": "Lafayette"
  },
  {
    "dataYpid": "4749985",
    "name": "Identity Defined",
    "description": "Advertising-Promotional Products",
    "phone": "(407) 447-9045",
    "address": " 4210 L B Mcleod Rd Ste 101 - Orlando, FL 32811",
    "location": "Lafayette"
  },
  {
    "dataYpid": "29096778",
    "name": "Bowled Over Promotions",
    "description": "Advertising-Promotional Products",
    "phone": "(407) 481-9192",
    "address": " 2504 Lauderdale Ct - Orlando, FL 32805",
    "location": "Lafayette"
  },
  {
    "dataYpid": "20564660",
    "name": "Miracle's Digital Promise",
    "description": "Advertising-Promotional Products",
    "phone": "(407) 968-5966",
    "address": " 3100 Old Winter Garden Rd - Ocoee, FL 34761",
    "location": "Lafayette"
  },
  {
    "dataYpid": "3617125",
    "name": "Vacation Ventures",
    "description": "Advertising-Promotional Products",
    "phone": "(407) 839-1012",
    "address": " 7075 Kingspointe Pkwy - Orlando, FL 32819",
    "location": "Lafayette"
  },
  {
    "dataYpid": "5957179",
    "name": "R Devie Art of Life",
    "description": "Advertising-Promotional Products",
    "phone": "(407) 248-1562",
    "address": " 7575 Kingspointe Pkwy - Orlando, FL 32819",
    "location": "Lafayette"
  },
  {
    "dataYpid": "454881422",
    "name": "Logos Promote",
    "description": "Advertising-Promotional Products",
    "phone": "(407) 447-5646",
    "address": " 3852 N John Young Pkwy - Orlando, FL 32804",
    "location": "Lafayette"
  },
  {
    "dataYpid": "503816291",
    "name": "Appreciation Promotion Services",
    "description": "Advertising-Promotional Products",
    "phone": "(407) 242-7584",
    "address": " 4572 S Orange Blossom Trl - Orlando, FL 32839",
    "location": "Lafayette"
  },
  {
    "dataYpid": "503757718",
    "name": "Jlp Promotions",
    "description": "Advertising-Promotional Products",
    "phone": "(407) 342-4968",
    "address": " 8024 Bright Ct - Orlando, FL 32836",
    "location": "Lafayette"
  },
  {
    "dataYpid": "562806355",
    "name": "A1 Balloon",
    "description": "Advertising-Promotional Products",
    "phone": "(407) 354-2300",
    "address": " 2773 N Apopka Vineland Rd - Orlando, FL 32818",
    "location": "Lafayette"
  },
  {
    "dataYpid": "517487642",
    "name": "Jasper Enterprises Inc",
    "description": "Advertising-Promotional Products",
    "phone": "(407) 250-4890",
    "address": " 4061 Forrestal Ave - Orlando, FL 32806",
    "location": "Lafayette"
  },
  {
    "dataYpid": "547486134",
    "name": "Betty's Promos Plus",
    "description": "Advertising-Promotional Products",
    "phone": "(321) 234-1212",
    "address": " 3546 S Orange Ave - Orlando, FL 32806",
    "location": "Lafayette"
  },
  {
    "dataYpid": "514758789",
    "name": "Global Media Products",
    "description": "Advertising-Promotional Products",
    "phone": "(800) 870-0704",
    "address": " 4508 S Lake Orlando Pkwy - Orlando, FL 32808",
    "location": "Lafayette"
  },
  {
    "dataYpid": "504559345",
    "name": "KB Smartwear Inc",
    "description": "Advertising-Promotional Products",
    "phone": "(407) 649-1685",
    "address": " 421 W Robinson St - Orlando, FL 32801",
    "location": "Lafayette"
  },
  {
    "dataYpid": "518225614",
    "name": "Soul Swag Supporting Rising Lotus",
    "description": "Advertising-Promotional Products",
    "phone": "(407) 988-3328",
    "address": " 9402 American Eagle Way - Orlando, FL 32837",
    "location": "Lafayette"
  },
  {
    "dataYpid": "503794254",
    "name": "Live Lead Corp.",
    "description": "Advertising-Promotional Products",
    "phone": "(800) 436-0516",
    "address": " 121 S Orange Ave Ste 1500 - Orlando, FL 32801",
    "location": "Lafayette"
  },
  {
    "dataYpid": "497522772",
    "name": "Palm Tree Promotions Inc",
    "description": "Advertising-Promotional Products",
    "phone": "(407) 979-4676",
    "address": " 25 Wall St # 10 - Orlando, FL 32801",
    "location": "Lafayette"
  },
  {
    "dataYpid": "459145664",
    "name": "Proforma Platinum Impressions",
    "description": "Advertising-Promotional Products",
    "phone": "(407) 877-9186",
    "address": " 6982 Swinscoe Ln - Windermere, FL 34786",
    "location": "Lafayette"
  },
  {
    "dataYpid": "566740778",
    "name": "Economical Quality Products",
    "description": "Advertising-Promotional Products",
    "phone": "(407) 497-1351",
    "address": " 738 Business Park Blvd - Winter Garden, FL 34787",
    "location": "Lafayette"
  },
  {
    "dataYpid": "480052117",
    "name": "D D Unlimited Inc",
    "description": "Advertising-Promotional Products",
    "phone": "(407) 704-8886",
    "address": " 524 Mid Florida Dr - Orlando, FL 32824",
    "location": "Lafayette"
  },
  {
    "dataYpid": "506370312",
    "name": "Biezoo",
    "description": "Advertising-Promotional Products",
    "phone": "(407) 445-6136",
    "address": " 2816 E Robinson St - Orlando, FL 32803",
    "location": "Lafayette"
  },
  {
    "dataYpid": "522956167",
    "name": "Phd",
    "description": "Advertising-Promotional Products",
    "phone": "(289) 892-6021",
    "address": " 995 W Kennedy Blvd - Orlando, FL 32810",
    "location": "Lafayette"
  },
  {
    "dataYpid": "464354390",
    "name": "Genesis Products & Service",
    "description": "Advertising-Promotional Products",
    "phone": "(407) 855-3909",
    "address": " 3956 W Town Center Blvd - Orlando, FL 32837",
    "location": "Lafayette"
  },
  {
    "dataYpid": "478341311",
    "name": "Price Chopper Wristbands",
    "description": "Advertising-Promotional Products",
    "phone": "(407) 679-1600",
    "address": " 6325 McCoy Rd - Orlando, FL 32822",
    "location": "Lafayette"
  },
  {
    "dataYpid": "503753580",
    "name": "Hft Vinyl Creations",
    "description": "Advertising-Promotional Products",
    "phone": "(407) 618-3182",
    "address": " 127 N Linden Dr - Orlando, FL 32807",
    "location": "Lafayette"
  },
  {
    "dataYpid": "9534240",
    "name": "Reliance Media Inc",
    "description": "Advertising-Promotional Products",
    "phone": "(407) 296-0095",
    "address": " 2395 Apopka Blvd Unit 200 - Apopka, FL 32703",
    "location": "Lafayette"
  },
  {
    "dataYpid": "459597429",
    "name": "Dbg Promotions Inc",
    "description": "Advertising-Promotional Products",
    "phone": "(407) 629-6655",
    "address": " 1021 Orange Ave - Winter Park, FL 32789",
    "location": "Lafayette"
  },
  {
    "dataYpid": "4931242",
    "name": "Creative CrossRoads",
    "description": "Advertising-Promotional Products",
    "phone": "(407) 679-1303",
    "address": " 2716 Eastern Pkwy - Winter Park, FL 32789",
    "location": "Lafayette"
  },
  {
    "dataYpid": "16568873",
    "name": "World Promotional Services",
    "description": "Advertising-Promotional Products",
    "phone": "(407) 645-1751",
    "address": " 1120 Turner Rd - Winter Park, FL 32789",
    "location": "Lafayette"
  },
  {
    "dataYpid": "495765857",
    "name": "Dickinson Promotions",
    "description": "Advertising-Promotional Products",
    "phone": "(407) 951-7183",
    "address": " 1701 Lee Rd Apt J340 - Winter Park, FL 32789",
    "location": "Lafayette"
  },
  {
    "dataYpid": "576754334",
    "name": "Fully Promoted",
    "description": "Advertising-Promotional Products",
    "phone": "(407) 794-3004",
    "address": " 941 W Morse Blvd - Winter Park, FL 32789",
    "location": "Lafayette"
  },
  {
    "dataYpid": "549693286",
    "name": "Fox Promotional Products",
    "description": "Advertising-Promotional Products",
    "phone": "(407) 398-5179",
    "address": " 311 N Knowles Ave Apt 203 - Winter Park, FL 32789",
    "location": "Lafayette"
  },
  {
    "dataYpid": "2283087",
    "name": "A Fox Promotions",
    "description": "Advertising-Promotional Products",
    "phone": "(407) 539-1969",
    "address": " 1131 Willa Vista Trl - Maitland, FL 32751",
    "location": "Lafayette"
  },
  {
    "dataYpid": "17346373",
    "name": "International Promotional",
    "description": "Advertising-Promotional Products",
    "phone": "(407) 786-4233",
    "address": " 925 Sunshine Ln - Altamonte Springs, FL 32714",
    "location": "Lafayette"
  },
  {
    "dataYpid": "483882796",
    "name": "Anchor Promotional Merchandise",
    "description": "Advertising-Promotional Products",
    "phone": "(407) 831-4233",
    "address": " 925 Sunshine Ln Ste 1040 - Altamonte Springs, FL 32714",
    "location": "Lafayette"
  },
  {
    "dataYpid": "22770188",
    "name": "DeHarris Advertising & Promotions",
    "description": "Advertising-Promotional Products",
    "phone": "(407) 202-2370",
    "address": " 934 S Central Ave - Apopka, FL 32703",
    "location": "Lafayette"
  },
  {
    "dataYpid": "506240721",
    "name": "Speciatly Incentives- Florida",
    "description": "Advertising-Promotional Products",
    "phone": "(904) 253-5128",
    "address": " 1316 Westmeath Ct - Apopka, FL 32703",
    "location": "Lafayette"
  },
  {
    "dataYpid": "503739571",
    "name": "We Need to Stop the Cyber Bullies",
    "description": "Advertising-Promotional Products",
    "phone": "(321) 200-4514",
    "address": " 245 Windsor Ct - Kissimmee, FL 34746",
    "location": "Lafayette"
  },
  {
    "dataYpid": "571486210",
    "name": "Seminole Promotional Products",
    "description": "Advertising-Promotional Products",
    "phone": "(689) 208-4851",
    "address": " 750 Northlake Blvd - Altamonte Springs, FL 32701",
    "location": "Lafayette"
  },
  {
    "dataYpid": "14907955",
    "name": "Proforma",
    "description": "Advertising-Promotional Products",
    "phone": "(877) 877-9155",
    "address": " 221 Eastpark Dr - Kissimmee, FL 34747",
    "location": "Lafayette"
  },
  {
    "dataYpid": "460351223",
    "name": "Promote In Style",
    "description": "Advertising-Promotional Products",
    "phone": "(407) 382-5959",
    "address": " 2200 N. Forsyth Rd. A03 - Orlando, FL 32807",
    "location": "Lafayette"
  },
  {
    "dataYpid": "461584068",
    "name": "SEO Web Designs",
    "description": "Advertising-Promotional Products",
    "phone": "(386) 734-9844",
    "address": " 6447 S Chickasaw Trl - Orlando, FL 32829",
    "location": "Lafayette"
  },
  {
    "dataYpid": "501740680",
    "name": "Untucked Apparel and Design",
    "description": "Advertising-Promotional Products",
    "phone": "(407) 380-1535",
    "address": " 10620 Godfrey Ln - Orlando, FL 32825",
    "location": "Lafayette"
  },
  {
    "dataYpid": "19711476",
    "name": "Intelligent Opportunities Grp",
    "description": "Advertising-Promotional Products",
    "phone": "(321) 206-0922",
    "address": " 1802 N Alafaya Trl - Orlando, FL 32826",
    "location": "Lafayette"
  },
  {
    "dataYpid": "573267993",
    "name": "Promotional Mix",
    "description": "Advertising-Promotional Products",
    "phone": "(786) 603-2878",
    "address": " 14120 Sanctuary Club Rd - Orlando, FL 32832",
    "location": "Lafayette"
  },
  {
    "dataYpid": "560415794",
    "name": "Thevideocards",
    "description": "Advertising-Promotional Products",
    "phone": "(321) 276-9899",
    "address": " 1969 S Alafaya Trl - Orlando, FL 32828",
    "location": "Lafayette"
  },
  {
    "dataYpid": "508771857",
    "name": "A & A Advertising Specialties",
    "description": "Advertising-Promotional Products",
    "phone": "(407) 381-5799",
    "address": " 2414 Teton Stone Run - Orlando, FL 32828",
    "location": "Lafayette"
  },
  {
    "dataYpid": "510953333",
    "name": "Wholesale Signs Fabrications",
    "description": "Advertising-Promotional Products",
    "phone": "(407) 978-6688",
    "address": " 2968 Michigan Ave - Kissimmee, FL 34744",
    "location": "Lafayette"
  },
  {
    "dataYpid": "572747527",
    "name": "Fox Merch",
    "description": "Advertising-Promotional Products",
    "phone": "(407) 615-2304",
    "address": " 931 S Semoran Blvd Ste 214 - Winter Park, FL 32792",
    "location": "Lafayette"
  },
  {
    "dataYpid": "28910804",
    "name": "JDK & Associates",
    "description": "Advertising-Promotional Products",
    "phone": "(888) 678-8801",
    "address": " 2785 Orchid Ln - Kissimmee, FL 34744",
    "location": "Lafayette"
  },
  {
    "dataYpid": "547702813",
    "name": "World Promotional Services, Inc",
    "description": "Advertising-Promotional Products",
    "phone": "(407) 461-6797",
    "address": " 2123 Chippewa Trl - Maitland, FL 32751",
    "location": "Lafayette"
  },
  {
    "dataYpid": "459236154",
    "name": "Pg Solutions",
    "description": "Advertising-Promotional Products",
    "phone": "(407) 677-1107",
    "address": " 682 Youngstown Pkwy - Altamonte Springs, FL 32714",
    "location": "Lafayette"
  },
  {
    "dataYpid": "8547672",
    "name": "Gizmos & Garments Inc",
    "description": "Advertising-Promotional Products",
    "phone": "(407) 343-0460",
    "address": " 385 E Donegan Ave - Kissimmee, FL 34744",
    "location": "Lafayette"
  },
  {
    "dataYpid": "3116916",
    "name": "D & D Promotional Products Inc",
    "description": "Advertising-Promotional Products",
    "phone": "(407) 677-1400",
    "address": " 7033 Stapoint Ct Ste D - Winter Park, FL 32792",
    "location": "Lafayette"
  },
  {
    "dataYpid": "549938270",
    "name": "Rudi Tuti's Specialties",
    "description": "Advertising-Promotional Products",
    "phone": "(407) 847-7950",
    "address": " 3501 W Vine St Ste 399 - Kissimmee, FL 34741",
    "location": "Lafayette"
  },
  {
    "dataYpid": "574236248",
    "name": "Harbot Promotional Solutions",
    "description": "Advertising-Promotional Products",
    "phone": "(407) 252-7796",
    "address": " 406 South St - Fern Park, FL 32730",
    "location": "Lafayette"
  },
  {
    "dataYpid": "474583299",
    "name": "Central Florida Travel",
    "description": "Advertising-Promotional Products",
    "phone": "(407) 494-0595",
    "address": " 4327 S Highway 27 PMB 184 - Clermont, FL 34711",
    "location": "Lafayette"
  },
  {
    "dataYpid": "528087368",
    "name": "Nazaire Massillon",
    "description": "Advertising-Promotional Products",
    "phone": "(321) 333-6883",
    "address": " 36 Silver Oak Cir - Kissimmee, FL 34743",
    "location": "Lafayette"
  },
  {
    "dataYpid": "510681703",
    "name": "Match-Up Promotions",
    "description": "Advertising-Promotional Products",
    "phone": "(800) 815-3093",
    "address": " 975 Florida Central Pkwy Ste 1900 - Longwood, FL 32750",
    "location": "Lafayette"
  },
  {
    "dataYpid": "14642471",
    "name": "Gallagher Promotional Products",
    "description": "Advertising-Promotional Products",
    "phone": "(407) 788-0818",
    "address": " 655 Florida Central Pkwy - Longwood, FL 32750",
    "location": "Lafayette"
  },
  {
    "dataYpid": "563091856",
    "name": "GPP Inc",
    "description": "Advertising-Promotional Products",
    "phone": "(407) 788-8631",
    "address": " 655 Florida Central Pkwy - Longwood, FL 32750",
    "location": "Lafayette"
  },
  {
    "dataYpid": "570426651",
    "name": "Label Seven Apparel",
    "description": "Advertising-Promotional Products",
    "phone": "(689) 208-8417",
    "address": " 1243 Commons Ct - Clermont, FL 34711",
    "location": "Lafayette"
  },
  {
    "dataYpid": "547296721",
    "name": "Soul Swag",
    "description": "Advertising-Promotional Products",
    "phone": "(407) 988-3328",
    "address": " 13842 Marine Dr - Orlando, FL 32832",
    "location": "Lafayette"
  },
  {
    "dataYpid": "546184192",
    "name": "AMC Promotional Products",
    "description": "Advertising-Promotional Products",
    "phone": "(877) 241-1160",
    "address": " 16255 Tudor Grove Dr - Orlando, FL 32828",
    "location": "Lafayette"
  },
  {
    "dataYpid": "465701151",
    "name": "Hayes James",
    "description": "Advertising-Promotional Products",
    "phone": "(407) 382-2144",
    "address": " 14331 Rockledge Grove Ct - Orlando, FL 32828",
    "location": "Lafayette"
  },
  {
    "dataYpid": "461835726",
    "name": "WrapsForLess.com",
    "description": "Advertising-Promotional Products",
    "phone": "(407) 447-9045",
    "address": " 4210 L B Mcleod Rd Ste 101 - Orlando, FL 32811",
    "location": "Lafayette"
  },
  {
    "dataYpid": "553854230",
    "name": "Tshirt Society Group",
    "description": "Advertising-Promotional Products",
    "phone": "(407) 404-1299",
    "address": " 979 Almond Tree Cir - Orlando, FL 32835",
    "location": "Lafayette"
  },
  {
    "dataYpid": "551022018",
    "name": "Sun Sizzling Services International",
    "description": "Advertising-Promotional Products",
    "phone": "(340) 201-4016",
    "address": " 973 S Kirkman Rd - Orlando, FL 32811",
    "location": "Lafayette"
  },
  {
    "dataYpid": "575310497",
    "name": "YourLogoGifts.com",
    "description": "Advertising-Promotional Products",
    "phone": "(407) 832-6446",
    "address": " 5916 Caravan Court Resort Shoppe - Orlando, FL 32819",
    "location": "Lafayette"
  },
  {
    "dataYpid": "514643141",
    "name": "ALB Group at I Grow",
    "description": "Advertising-Promotional Products",
    "phone": "(407) 683-5485",
    "address": " 5221 Millenia Blvd - Orlando, FL 32839",
    "location": "Lafayette"
  },
  {
    "dataYpid": "9183290",
    "name": "Noles Direct",
    "description": "Advertising-Promotional Products",
    "phone": "(407) 426-8387",
    "address": " 4210 L B Mcleod Rd - Orlando, FL 32811",
    "location": "Lafayette"
  },
  {
    "dataYpid": "453759334",
    "name": "Halo Branded Solutions",
    "description": "Advertising-Promotional Products",
    "phone": "(407) 425-9521",
    "address": " 4201 Vineland Rd Ste I-9 - Orlando, FL 32811",
    "location": "Lafayette"
  },
  {
    "dataYpid": "525201067",
    "name": "VisuAwe",
    "description": "Advertising-Promotional Products",
    "phone": "(407) 910-8765",
    "address": " 7511 Mandarin Dr - Orlando, FL 32819",
    "location": "Lafayette"
  },
  {
    "dataYpid": "495867994",
    "name": "Minuteman Press Sand Lake",
    "description": "Advertising-Promotional Products",
    "phone": "(407) 355-3302",
    "address": " 7751 Kingspointe Parkway, Suite 117 - Orlando, FL 32819",
    "location": "Lafayette"
  },
  {
    "dataYpid": "524346005",
    "name": "Global Gold Resources",
    "description": "Advertising-Promotional Products",
    "phone": "(407) 271-0298",
    "address": " 5076 Savannah River Way Apt 118 - Orlando, FL 32839",
    "location": "Lafayette"
  },
  {
    "dataYpid": "495868005",
    "name": "Minuteman Press",
    "description": "Advertising-Promotional Products",
    "phone": "(407) 654-3744",
    "address": " 2743 Old Winter Garden Rd - Ocoee, FL 34761",
    "location": "Lafayette"
  },
  {
    "dataYpid": "6405389",
    "name": "Momentum Marketing Solutions",
    "description": "Advertising-Promotional Products",
    "phone": "(407) 445-4760",
    "address": " 3231 Old Winter Garden Rd - Orlando, FL 32805",
    "location": "Lafayette"
  },
  {
    "dataYpid": "18370726",
    "name": "Printing USA",
    "description": "Advertising-Promotional Products",
    "phone": "(407) 857-7468",
    "address": " 4732 S Orange Blossom Trl - Orlando, FL 32839",
    "location": "Lafayette"
  },
  {
    "dataYpid": "514642729",
    "name": "Kreyolbiz.com",
    "description": "Advertising-Promotional Products",
    "phone": "(407) 391-9435",
    "address": " 2710 S Orange Blossom Trl Suite 1/2 - Orlando, FL 32805",
    "location": "Lafayette"
  },
  {
    "dataYpid": "573085382",
    "name": "Brand It T Shirts & More",
    "description": "Advertising-Promotional Products",
    "phone": "(407) 290-0044",
    "address": " 2120 W Pine St - Orlando, FL 32805",
    "location": "Lafayette"
  },
  {
    "dataYpid": "14659164",
    "name": "AC Printing & Graphics",
    "description": "Advertising-Promotional Products",
    "phone": "(407) 856-4940",
    "address": " 7566 Southland Blvd Ste 100 - Orlando, FL 32809",
    "location": "Lafayette"
  },
  {
    "dataYpid": "535471454",
    "name": "W C I",
    "description": "Advertising-Promotional Products",
    "phone": "(407) 855-1613",
    "address": " 7600 Southland Blvd Ste 107 - Orlando, FL 32809",
    "location": "Lafayette"
  },
  {
    "dataYpid": "535317942",
    "name": "AMP Exposure, Inc.",
    "description": "Advertising-Promotional Products",
    "phone": "(407) 745-4135",
    "address": " 7800 Southland Blvd Ste 150 - Orlando, FL 32809",
    "location": "Lafayette"
  },
  {
    "dataYpid": "502772587",
    "name": "Dymeanite Entertainment A",
    "description": "Advertising-Promotional Products",
    "phone": "(407) 930-3794",
    "address": " 5103 Silver Star Rd - Orlando, FL 32808",
    "location": "Lafayette"
  },
  {
    "dataYpid": "28626038",
    "name": "Appreciation Promotion Service",
    "description": "Advertising-Promotional Products",
    "phone": "(407) 242-7584",
    "address": " 58 S Orange Blossom Trl - Orlando, FL 32805",
    "location": "Lafayette"
  },
  {
    "dataYpid": "482623596",
    "name": "ProLogo Branding",
    "description": "Advertising-Promotional Products",
    "phone": "(407) 730-9831",
    "address": " 5508 Commerce Dr - Orlando, FL 32839",
    "location": "Lafayette"
  },
  {
    "dataYpid": "521950541",
    "name": "Arigenesismarketing",
    "description": "Advertising-Promotional Products",
    "phone": "(321) 314-1977",
    "address": " 619 W Concord St - Orlando, FL 32801",
    "location": "Lafayette"
  },
  {
    "dataYpid": "576576186",
    "name": "Design Your Pins",
    "description": "Advertising-Promotional Products",
    "phone": "(321) 701-2211",
    "address": " 255 S Orange Ave Ste 104-1330 - Orlando, FL 32801",
    "location": "Lafayette"
  },
  {
    "dataYpid": "537575497",
    "name": "321 Agency",
    "description": "Advertising-Promotional Products",
    "phone": "(407) 734-5215",
    "address": " 121 S Orange Ave Ste 980N - Orlando, FL 32801",
    "location": "Lafayette"
  },
  {
    "dataYpid": "503680221",
    "name": "Aura Advertising and Modeling Agency",
    "description": "Advertising-Promotional Products",
    "phone": "(321) 230-9751",
    "address": " 37 N Orange Ave Ste 500 - Orlando, FL 32801",
    "location": "Lafayette"
  },
  {
    "dataYpid": "14351010",
    "name": "Fann Emblem & Embroidery Co Inc",
    "description": "Advertising-Promotional Products",
    "phone": "(407) 422-7354",
    "address": " 1330 W Central Blvd - Orlando, FL 32805",
    "location": "Lafayette"
  },
  {
    "dataYpid": "495852686",
    "name": "Reaching Our Destiny, Inc",
    "description": "Advertising-Promotional Products",
    "phone": "(407) 603-5387",
    "address": " 13162 Social Ln - Winter Garden, FL 34787",
    "location": "Lafayette"
  },
  {
    "dataYpid": "468124683",
    "name": "COU Group Inc.",
    "description": "Advertising-Promotional Products",
    "phone": "(407) 219-2889",
    "address": " 704 Mcdougall Ct - Orlando, FL 32809",
    "location": "Lafayette"
  },
  {
    "dataYpid": "497659583",
    "name": "Fusion Studios - Video Production Orlando",
    "description": "Advertising-Promotional Products",
    "phone": "(800) 997-5060",
    "address": " 11 N Summerlin Ave Ste 210 - Orlando, FL 32801",
    "location": "Lafayette"
  },
  {
    "dataYpid": "465174240",
    "name": "groovydude creations LLC",
    "description": "Advertising-Promotional Products",
    "phone": "(407) 312-7877",
    "address": " PO Box 560715 - Orlando, FL 32856",
    "location": "Lafayette"
  },
  {
    "dataYpid": "529325405",
    "name": "Dixie Dogg Pound Promotions, Inc.",
    "description": "Advertising-Promotional Products",
    "phone": "(407) 539-4581",
    "address": " 322 E Central Blvd Unit 908 - Orlando, FL 32801",
    "location": "Lafayette"
  },
  {
    "dataYpid": "452269098",
    "name": "Elaine's Embroidery & Creative Apparel",
    "description": "Advertising-Promotional Products",
    "phone": "(407) 888-4799",
    "address": " 10918 S Trail Cir - Orlando, FL 32837",
    "location": "Lafayette"
  },
  {
    "dataYpid": "558962068",
    "name": "We Are Kymera",
    "description": "Advertising-Promotional Products",
    "phone": "(407) 374-1890",
    "address": " 10219 General Dr - Orlando, FL 32824",
    "location": "Lafayette"
  },
  {
    "dataYpid": "503026233",
    "name": "SwagRobot",
    "description": "Advertising-Promotional Products",
    "phone": "(855) 240-7923",
    "address": " 611 N Mills Ave Unit 533542 - Orlando, FL 32853",
    "location": "Lafayette"
  },
  {
    "dataYpid": "483290458",
    "name": "Appreciation Promotion Services, LLC",
    "description": "Advertising-Promotional Products",
    "phone": "(407) 900-6823",
    "address": " 5764 N Orange Blossom Trl # 18 - Orlando, FL 32810",
    "location": "Lafayette"
  },
  {
    "dataYpid": "468380584",
    "name": "Direct Media USA",
    "description": "Advertising-Promotional Products",
    "phone": "(407) 730-9550",
    "address": " 1013 Montana St - Orlando, FL 32803",
    "location": "Lafayette"
  },
  {
    "dataYpid": "470493638",
    "name": "The Group Advertising",
    "description": "Advertising-Promotional Products",
    "phone": "(407) 898-2409",
    "address": " 1221 N Mills Ave Suite B - Orlando, FL 32803",
    "location": "Lafayette"
  },
  {
    "dataYpid": "527298844",
    "name": "LegitOnlineJobs",
    "description": "Advertising-Promotional Products",
    "phone": "(321) 300-9721",
    "address": " 1701 W Wetherbee Rd - Orlando, FL 32837",
    "location": "Lafayette"
  },
  {
    "dataYpid": "465122456",
    "name": "Myfloridalist.com",
    "description": "Advertising-Promotional Products",
    "phone": "(386) 479-0535",
    "address": " 3201 E Colonial Dr - Orlando, FL 32803",
    "location": "Lafayette"
  },
  {
    "dataYpid": "256477",
    "name": "KJM Group LLC",
    "description": "Advertising-Promotional Products",
    "phone": "(570) 309-0157",
    "address": " 1924 Conway Rd Apt 2 - Orlando, FL 32812",
    "location": "Lafayette"
  },
  {
    "dataYpid": "456499068",
    "name": "D' Cache Inc",
    "description": "Advertising-Promotional Products",
    "phone": "(407) 244-6310",
    "address": " 4300 Curry Ford Rd - Orlando, FL 32806",
    "location": "Lafayette"
  },
  {
    "dataYpid": "475299445",
    "name": "Blezoo",
    "description": "Advertising-Promotional Products",
    "phone": "(407) 841-8844",
    "address": " 3107 Edgewater Dr Ste 2-a - Orlando, FL 32804",
    "location": "Lafayette"
  },
  {
    "dataYpid": "9027857",
    "name": "Crown Trophy",
    "description": "Advertising-Promotional Products",
    "phone": "(407) 786-0430",
    "address": " 851 W State Road 436 - Altamonte Springs, FL 32714",
    "location": "Lafayette"
  },
  {
    "dataYpid": "88915",
    "name": "Embroidery Solutions",
    "description": "Advertising-Promotional Products",
    "phone": "(407) 438-8188",
    "address": " 6457 Hazeltine National Dr Ste 120 - Orlando, FL 32822",
    "location": "Lafayette"
  },
  {
    "dataYpid": "527368321",
    "name": "Bongi Designs",
    "description": "Advertising-Promotional Products",
    "phone": "(407) 680-1051",
    "address": " 5956 Bent Pine Dr - Orlando, FL 32822",
    "location": "Lafayette"
  },
  {
    "dataYpid": "532478871",
    "name": "Cash Cube Money Machine Store",
    "description": "Advertising-Promotional Products",
    "phone": "(407) 418-8200",
    "address": " 5833 S Goldenrod Rd - Orlando, FL 32822",
    "location": "Lafayette"
  },
  {
    "dataYpid": "532400557",
    "name": "Promotion Store Â®",
    "description": "Advertising-Promotional Products",
    "phone": "(407) 418-8200",
    "address": " 5833 S Goldenrod Rd - Orlando, FL 32822",
    "location": "Lafayette"
  },
  {
    "dataYpid": "503132932",
    "name": "YP Marketing Solutions",
    "description": "Advertising-Promotional Products",
    "phone": "(407) 896-7325",
    "address": " 258 Southhall Ln Ste 106 - Maitland, FL 32751",
    "location": "Lafayette"
  },
  {
    "dataYpid": "462415867",
    "name": "Marcus Marketing Solutions",
    "description": "Advertising-Promotional Products",
    "phone": "(321) 402-8532",
    "address": " 5565 W Irlo Bronson Memorial Hwy - Kissimmee, FL 34746",
    "location": "Lafayette"
  },
  {
    "dataYpid": "3090842",
    "name": "The Sunshine Group",
    "description": "Advertising-Promotional Products",
    "phone": "(407) 623-3333",
    "address": " 125 S Swoope Ave Ste 101 - Maitland, FL 32751",
    "location": "Lafayette"
  },
  {
    "dataYpid": "465328382",
    "name": "CSR Promotions",
    "description": "Advertising-Promotional Products",
    "phone": "(954) 817-6055",
    "address": " 100 E Sybelia Ave Ste 305 - Maitland, FL 32751",
    "location": "Lafayette"
  },
  {
    "dataYpid": "460335506",
    "name": "Barker Specialties of Florida, Inc.",
    "description": "Advertising-Promotional Products",
    "phone": "(407) 566-4000",
    "address": " 215 Celebration Pl Ste 115 - Kissimmee, FL 34747",
    "location": "Lafayette"
  },
  {
    "dataYpid": "462420541",
    "name": "A S A P Quick Print of Apopka Inc",
    "description": "Advertising-Promotional Products",
    "phone": "(407) 886-6336",
    "address": " 2430 E Semoran Blvd - Apopka, FL 32703",
    "location": "Lafayette"
  },
  {
    "dataYpid": "527908125",
    "name": "Impress Ink",
    "description": "Advertising-Promotional Products",
    "phone": "(407) 982-5646",
    "address": " 540 N Goldenrod Rd - Orlando, FL 32807",
    "location": "Lafayette"
  },
  {
    "dataYpid": "4543181",
    "name": "Thread Mill Industries Inc",
    "description": "Advertising-Promotional Products",
    "phone": "(407) 277-3343",
    "address": " 995 N Goldenrod Rd - Orlando, FL 32807",
    "location": "Lafayette"
  },
  {
    "dataYpid": "504018082",
    "name": "Wholesale Print Shop",
    "description": "Advertising-Promotional Products",
    "phone": "(407) 730-3496",
    "address": " 7320 E Colonial Dr - Orlando, FL 32807",
    "location": "Lafayette"
  },
  {
    "dataYpid": "515246251",
    "name": "By Afro Marketing Agency",
    "description": "Advertising-Promotional Products",
    "phone": "(786) 416-4592",
    "address": " 9588 Silver Buttonwood St - Orlando, FL 32832",
    "location": "Lafayette"
  },
  {
    "dataYpid": "521565177",
    "name": "Better Graphics",
    "description": "Advertising-Promotional Products",
    "phone": "(407) 613-2813",
    "address": " 10524 Moss Park Rd Ste 204-359 - Orlando, FL 32832",
    "location": "Lafayette"
  },
  {
    "dataYpid": "533017683",
    "name": "Shirt Shack",
    "description": "Advertising-Promotional Products",
    "phone": "(812) 550-0158",
    "address": " 11037 Retreat Ave - Orlando, FL 32817",
    "location": "Lafayette"
  },
  {
    "dataYpid": "530343194",
    "name": "CBA Specialties Distributors",
    "description": "Advertising-Promotional Products",
    "phone": "(321) 947-3779",
    "address": " 12472 Lake Underhill Rd Ste 164 - Orlando, FL 32828",
    "location": "Lafayette"
  },
  {
    "dataYpid": "495810258",
    "name": "Eyenamic Designs",
    "description": "Advertising-Promotional Products",
    "phone": "(321) 262-2504",
    "address": " Central Florida Blvd. - Orlando, FL 32817",
    "location": "Lafayette"
  },
  {
    "dataYpid": "482139552",
    "name": "Loyalty App's",
    "description": "Advertising-Promotional Products",
    "phone": "(407) 255-5257",
    "address": " 2104 Fraternity Ct - Orlando, FL 32826",
    "location": "Lafayette"
  },
  {
    "dataYpid": "3741822",
    "name": "Print Station",
    "description": "Advertising-Promotional Products",
    "phone": "(407) 682-5899",
    "address": " 491 N. Highway 434 Suite 137 - Altamonte Springs, FL 32714",
    "location": "Lafayette"
  },
  {
    "dataYpid": "520860442",
    "name": "Najime Enterprise, Inc",
    "description": "Advertising-Promotional Products",
    "phone": "(888) 389-5730",
    "address": " 5050 S Us Highway 17/92 Ste 102 - Casselberry, FL 32707",
    "location": "Lafayette"
  },
  {
    "dataYpid": "451673745",
    "name": "Corporate Branding Solutions Inc.",
    "description": "Advertising-Promotional Products",
    "phone": "(407) 682-6184",
    "address": " PO Box 161527 - Altamonte Springs, FL 32716",
    "location": "Lafayette"
  },
  {
    "dataYpid": "457382861",
    "name": "CSI Promotions",
    "description": "Advertising-Promotional Products",
    "phone": "(407) 468-5099",
    "address": " 479 Montgomery Pl - Altamonte Springs, FL 32714",
    "location": "Lafayette"
  },
  {
    "dataYpid": "504755701",
    "name": "Rc Addiction Products",
    "description": "Advertising-Promotional Products",
    "phone": "(407) 960-4165",
    "address": " 110 Candace Dr Unit 4 - Maitland, FL 32751",
    "location": "Lafayette"
  },
  {
    "dataYpid": "505056208",
    "name": "Jato",
    "description": "Advertising-Promotional Products",
    "phone": "(321) 445-1800",
    "address": " 518 Douglas Ave Ste 1216 - Altamonte Springs, FL 32714",
    "location": "Lafayette"
  },
  {
    "dataYpid": "507595732",
    "name": "CreoleBiz.com",
    "description": "Advertising-Promotional Products",
    "phone": "(407) 949-2590",
    "address": " 581 N Park Ave Unit 952 - Apopka, FL 32704",
    "location": "Lafayette"
  },
  {
    "dataYpid": "21804489",
    "name": "Magic Printing Services",
    "description": "Advertising-Promotional Products",
    "phone": "(407) 657-7414",
    "address": " 7056 Stapoint Ct - Winter Park, FL 32792",
    "location": "Lafayette"
  },
  {
    "dataYpid": "548303361",
    "name": "Pins By Magic",
    "description": "Advertising-Promotional Products",
    "phone": "(407) 657-7414",
    "address": " 7056 Stapoint Ct - Winter Park, FL 32792",
    "location": "Lafayette"
  },
  {
    "dataYpid": "572789360",
    "name": "Kreative Koncepts",
    "description": "Advertising-Promotional Products",
    "phone": "(407) 889-8200",
    "address": " 746 Primrose Willow Way - Apopka, FL 32712",
    "location": "Lafayette"
  },
  {
    "dataYpid": "2012588",
    "name": "Advertising Mania",
    "description": "Advertising-Promotional Products",
    "phone": "(407) 846-1655",
    "address": " 1124 E Donegan Ave - Kissimmee, FL 34744",
    "location": "Lafayette"
  },
  {
    "dataYpid": "519110416",
    "name": "Burnt Toast Productions",
    "description": "Advertising-Promotional Products",
    "phone": "(208) 477-6667",
    "address": " 4548 Barrister Dr - Clermont, FL 34711",
    "location": "Lafayette"
  },
  {
    "dataYpid": "475283026",
    "name": "Personali-Tees",
    "description": "Advertising-Promotional Products",
    "phone": "(407) 657-7399",
    "address": " 7306 Sandscove Ct - Winter Park, FL 32792",
    "location": "Lafayette"
  },
  {
    "dataYpid": "8383171",
    "name": "Platinum Signs And Design",
    "description": "Advertising-Promotional Products",
    "phone": "(407) 971-3640",
    "address": " 352 W Melody Ln - Casselberry, FL 32707",
    "location": "Lafayette"
  },
  {
    "dataYpid": "464468292",
    "name": "Sew Now What",
    "description": "Advertising-Promotional Products",
    "phone": "(407) 468-8712",
    "address": " 977 Hobson St - Longwood, FL 32750",
    "location": "Lafayette"
  },
  {
    "dataYpid": "497216480",
    "name": "Dapp Embroidery Inc",
    "description": "Advertising-Promotional Products",
    "phone": "(407) 260-1600",
    "address": " 1075 Florida Central Pkwy Ste 2500 - Longwood, FL 32750",
    "location": "Lafayette"
  },
  {
    "dataYpid": "475635573",
    "name": "AD & Expressions",
    "description": "Advertising-Promotional Products",
    "phone": "(407) 579-8753",
    "address": " 600 Cagan Park Ave - Clermont, FL 34714",
    "location": "Lafayette"
  },
  {
    "dataYpid": "465082781",
    "name": "Signs-O-Sourus",
    "description": "Advertising-Promotional Products",
    "phone": "(407) 677-8965",
    "address": " 3008 S US Highway 17/92 - Casselberry, FL 32707",
    "location": "Lafayette"
  },
  {
    "dataYpid": "22784548",
    "name": "1 Stop Print Shop",
    "description": "Advertising-Promotional Products",
    "phone": "(407) 331-3211",
    "address": " 530 S Ronald Reagan Blvd - Longwood, FL 32750",
    "location": "Lafayette"
  },
  {
    "dataYpid": "251300",
    "name": "Star Cannon Searchlight Rental",
    "description": "Advertising-Promotional Products",
    "phone": "(407) 832-3185",
    "address": " 827 Hamilton Dr - Orlando, FL 32833",
    "location": "Lafayette"
  },
  {
    "dataYpid": "468790956",
    "name": "watergraphics",
    "description": "Marketing Programs & Services",
    "phone": "(407) 913-6379",
    "address": " 5036 Dr Phillips Blvd - Orlando, FL 32819",
    "location": "Lafayette"
  },
  {
    "dataYpid": "576702675",
    "name": "Think Agency",
    "description": "Advertising Agencies",
    "phone": "(407) 875-1999",
    "address": " 5036 Dr Phillips Blvd - Orlando, FL 32819",
    "location": "Lafayette"
  },
  {
    "dataYpid": "576250877",
    "name": "Aox Leads",
    "description": "Advertising Agencies",
    "phone": "(854) 269-5323",
    "address": " 7651 Ashley Park Ct - Orlando, FL 32835",
    "location": "Lafayette"
  },
  {
    "dataYpid": "530432296",
    "name": "Dreamway Trading",
    "description": "Advertising Agencies",
    "phone": "(407) 302-9114",
    "address": " 6735 Conroy Rd - Orlando, FL 32835",
    "location": "Lafayette"
  },
  {
    "dataYpid": "460697525",
    "name": "Creative Signs Inc",
    "description": "Advertising Specialties",
    "phone": "(407) 293-9393",
    "address": " 2301 S Hiawassee Rd - Orlando, FL 32835",
    "location": "Lafayette"
  },
  {
    "dataYpid": "511626790",
    "name": "TAG Digital Marketing",
    "description": "Marketing Programs & Services",
    "phone": "(407) 398-6629",
    "address": " 4705 S Apopka Vineland Rd Ste 130 - Orlando, FL 32819",
    "location": "Lafayette"
  },
  {
    "dataYpid": "504817259",
    "name": "Dream Factory Productions",
    "description": "Advertising Agencies",
    "phone": "(407) 224-5227",
    "address": " 1000 Universal Studios Plz - Orlando, FL 32819",
    "location": "Lafayette"
  },
  {
    "dataYpid": "472444830",
    "name": "Rcp Advertising & Marketing Inc",
    "description": "Advertising Agencies",
    "phone": "(407) 578-5955",
    "address": " 7849 Saint Andrews Cir - Orlando, FL 32835",
    "location": "Lafayette"
  },
  {
    "dataYpid": "543383810",
    "name": "Mycity Social-Orlando Seo & Digital Marketing",
    "description": "Advertising Agencies",
    "phone": "(321) 293-0297",
    "address": " 1500 Park Center Dr - Orlando, FL 32835",
    "location": "Lafayette"
  },
  {
    "dataYpid": "5638879",
    "name": "The Wooldridge Group",
    "description": "Advertising Agencies",
    "phone": "(407) 648-5200",
    "address": " 5367 Conroy Rd - Orlando, FL 32811",
    "location": "Lafayette"
  },
  {
    "dataYpid": "503205782",
    "name": "Different Perspective Productions",
    "description": "Advertising Agencies",
    "phone": "(407) 226-9774",
    "address": " 5728 Major Blvd - Orlando, FL 32819",
    "location": "Lafayette"
  },
  {
    "dataYpid": "472089362",
    "name": "TodaysLocalBusiness.com",
    "description": "Internet Marketing & Advertising",
    "phone": "(386) 337-2816",
    "address": " 9311 Woodbreeze Blvd - Windermere, FL 34786",
    "location": "Lafayette"
  },
  {
    "dataYpid": "465179472",
    "name": "GSK Consulting",
    "description": "Directory & Guide Advertising",
    "phone": "(813) 431-1278",
    "address": " 1713 Westover Reserve Blvd - Windermere, FL 34786",
    "location": "Lafayette"
  },
  {
    "dataYpid": "28757399",
    "name": "Equity Source Consultants Inc",
    "description": "Advertising Agencies",
    "phone": "(407) 522-9664",
    "address": " 1902 Reed Hill Dr - Windermere, FL 34786",
    "location": "Lafayette"
  },
  {
    "dataYpid": "460717053",
    "name": "Sales Bait - Print, Promotion, Marketing",
    "description": "Marketing Programs & Services",
    "phone": "(321) 356-5471",
    "address": " We ship EVERYWHERE - Longwood, FL 32750",
    "location": "Lafayette"
  },
  {
    "dataYpid": "465114673",
    "name": "Vital Signs Physicians",
    "description": "Advertising Specialties",
    "phone": "(407) 846-0202",
    "address": " 1504 Village Oak Ln - Kissimmee, FL 34746",
    "location": "Lafayette"
  },
  {
    "dataYpid": "576116990",
    "name": "Nia Riddle",
    "description": "Marketing Programs & Services",
    "phone": "(407) 283-7805",
    "address": " 3518 W Bind St. - Kissimmee, FL 34741",
    "location": "Lafayette"
  },
  {
    "dataYpid": "541998255",
    "name": "SMB Marketing Solutions",
    "description": "Internet Marketing & Advertising",
    "phone": "(407) 413-9043",
    "address": " 7557 W Sand Lake Rd - Orlando, FL 32819",
    "location": "Lafayette"
  },
  {
    "dataYpid": "6429592",
    "name": "IMASIGNS Prints & More",
    "description": "Advertising Agencies",
    "phone": "(407) 412-6421",
    "address": " Orlando 32819 - Orlando, FL 32819",
    "location": "Lafayette"
  },
  {
    "dataYpid": "469527774",
    "name": "Bee Idea Advertising",
    "description": "Advertising Agencies",
    "phone": "(407) 351-3976",
    "address": " 7250 S Kirkman Rd - Orlando, FL 32819",
    "location": "Lafayette"
  },
  {
    "dataYpid": "11753306",
    "name": "Shadow Graphics",
    "description": "Computer Graphics",
    "phone": "(407) 481-8282",
    "address": " 3714 Vineland Rd - Orlando, FL 32811",
    "location": "Lafayette"
  },
  {
    "dataYpid": "462509680",
    "name": "Nationwide Newspapers Advertising",
    "description": "Advertising Agencies",
    "phone": "(407) 909-1644",
    "address": " 5955 Masters Blvd - Orlando, FL 32819",
    "location": "Lafayette"
  },
  {
    "dataYpid": "1700938",
    "name": "High Tech",
    "description": "Advertising Specialties",
    "phone": "(407) 352-5966",
    "address": " 4967 International Dr - Orlando, FL 32819",
    "location": "Lafayette"
  },
  {
    "dataYpid": "564362145",
    "name": "Sorlyn Jean",
    "description": "Advertising Agencies",
    "phone": "(321) 988-2843",
    "address": " 979 S Kirkman Rd Apt 24 - Orlando, FL 32811",
    "location": "Lafayette"
  },
  {
    "dataYpid": "563757786",
    "name": "Faro Design",
    "description": "Graphic Designers",
    "phone": "(321) 800-9308",
    "address": " 3306 Maggie Blvd Ste A - Orlando, FL 32811",
    "location": "Lafayette"
  },
  {
    "dataYpid": "533542743",
    "name": "Aha Specialties",
    "description": "Advertising Specialties",
    "phone": "(407) 569-0576",
    "address": " 4677 L B Mcleod Rd - Orlando, FL 32811",
    "location": "Lafayette"
  },
  {
    "dataYpid": "8387279",
    "name": "Design Shop Inc",
    "description": "Designers-Industrial & Commercial",
    "phone": "(407) 251-1800",
    "address": " 4654 35th St - Orlando, FL 32811",
    "location": "Lafayette"
  },
  {
    "dataYpid": "497611533",
    "name": "Grand Design Advertising Inc",
    "description": "Advertising Agencies",
    "phone": "(407) 599-0759",
    "address": " 7516 Old Winter Garden Rd - Orlando, FL 32835",
    "location": "Lafayette"
  },
  {
    "dataYpid": "29242798",
    "name": "Astonish Advertising",
    "description": "Advertising Specialties",
    "phone": "(321) 202-5949",
    "address": " 5301 Rosegay Ct - Orlando, FL 32811",
    "location": "Lafayette"
  },
  {
    "dataYpid": "456057437",
    "name": "Squid Insurance Marketing",
    "description": "Advertising Specialties",
    "phone": "(407) 237-0844",
    "address": " 4700 Millenia Blvd - Orlando, FL 32839",
    "location": "Lafayette"
  },
  {
    "dataYpid": "561299176",
    "name": "UPN",
    "description": "Advertising Agencies",
    "phone": "(407) 363-5500",
    "address": " 7512 Dr Phillips Blvd Ste 500 - Orlando, FL 32819",
    "location": "Lafayette"
  },
  {
    "dataYpid": "474361747",
    "name": "Delivery Signs",
    "description": "Signs",
    "phone": "(321) 206-5288",
    "address": " 4602 35th St - Orlando, FL 32811",
    "location": "Lafayette"
  },
  {
    "dataYpid": "478389330",
    "name": "Reach The Top Marketing, LLC",
    "description": "Advertising Agencies",
    "phone": "(407) 476-8266",
    "address": " 4978 Millenia Blvd Apt 203 - Orlando, FL 32839",
    "location": "Lafayette"
  },
  {
    "dataYpid": "468213952",
    "name": "Carpe Diem Sales & Marketing",
    "description": "Marketing Consultants",
    "phone": "(407) 682-1400",
    "address": " 4560 36th St - Orlando, FL 32811",
    "location": "Lafayette"
  },
  {
    "dataYpid": "13026926",
    "name": "Artgraphic Signs",
    "description": "Signs",
    "phone": "(407) 292-6162",
    "address": " 4561 SW 34th St - Orlando, FL 32811",
    "location": "Lafayette"
  },
  {
    "dataYpid": "470599501",
    "name": "Nimlok Orlando",
    "description": "Advertising Agencies",
    "phone": "(407) 440-2952",
    "address": " 4605 L B Mcleod Rd - Orlando, FL 32811",
    "location": "Lafayette"
  },
  {
    "dataYpid": "456064347",
    "name": "Myorlandodirectory.Com",
    "description": "Directory & Guide Advertising",
    "phone": "(407) 351-2200",
    "address": " 7575 Dr Phillips Blvd - Orlando, FL 32819",
    "location": "Lafayette"
  },
  {
    "dataYpid": "3976940",
    "name": "Graphic Systems Inc",
    "description": "Signs",
    "phone": "(407) 648-5353",
    "address": " 4507 36th St - Orlando, FL 32811",
    "location": "Lafayette"
  },
  {
    "dataYpid": "537617499",
    "name": "Wraps For Less",
    "description": "Advertising Agencies",
    "phone": "(407) 447-9045",
    "address": " 4490 35th St - Orlando, FL 32811",
    "location": "Lafayette"
  },
  {
    "dataYpid": "472530787",
    "name": "Altour of America",
    "description": "Advertising Agencies",
    "phone": "(407) 226-0700",
    "address": " 5876 Precision Dr - Orlando, FL 32819",
    "location": "Lafayette"
  },
  {
    "dataYpid": "6972171",
    "name": "Riegl USA Inc",
    "description": "Advertising Agencies",
    "phone": "(407) 248-9927",
    "address": " 7035 Grand National Dr - Orlando, FL 32819",
    "location": "Lafayette"
  },
  {
    "dataYpid": "466415204",
    "name": "Multimedia Inc",
    "description": "Direct Mail Advertising",
    "phone": "(407) 903-5000",
    "address": " 7061 Grand National Dr Ste 127 - Orlando, FL 32819",
    "location": "Lafayette"
  },
  {
    "dataYpid": "540852026",
    "name": "Wow Signs & Printing Inc.",
    "description": "Advertising Specialties",
    "phone": "(407) 351-3976",
    "address": " 7061 Grand National Dr Ste 139 - Orlando, FL 32819",
    "location": "Lafayette"
  },
  {
    "dataYpid": "538125200",
    "name": "Signs Now",
    "description": "Signs-Maintenance & Repair",
    "phone": "(407) 856-3635",
    "address": " 4498 South Vineland Rd. - Orlando, FL 32811",
    "location": "Lafayette"
  },
  {
    "dataYpid": "23290363",
    "name": "Ebo Consulting Group",
    "description": "Communications Services",
    "phone": "(800) 403-8223",
    "address": " 7557 W Sand Lake Rd Suite 189 - Orlando, FL 32819",
    "location": "Lafayette"
  },
  {
    "dataYpid": "575800082",
    "name": "Shackboost",
    "description": "Advertising Agencies",
    "phone": "(978) 480-0943",
    "address": " 7345 W Sand Lake Rd Ste 210 - Orlando, FL 32819",
    "location": "Lafayette"
  },
  {
    "dataYpid": "547829900",
    "name": "LLc Title First Name C",
    "description": "Advertising Agencies",
    "phone": "(407) 203-1854",
    "address": " 7081 Grand National Dr - Orlando, FL 32819",
    "location": "Lafayette"
  },
  {
    "dataYpid": "548242386",
    "name": "Visual Signs",
    "description": "Signs",
    "phone": "(407) 693-0200",
    "address": " 7081 Grand National Dr Ste 102 - Orlando, FL 32819",
    "location": "Lafayette"
  },
  {
    "dataYpid": "545303980",
    "name": "Kempf; Affordable Advertising",
    "description": "Marketing Consultants",
    "phone": "(407) 390-0690",
    "address": " 7208 W Sand Lake Rd Ste 305 - Orlando, FL 32819",
    "location": "Lafayette"
  },
  {
    "dataYpid": "472756594",
    "name": "MundoFOX Orlando",
    "description": "Television Program Producers & Distributors",
    "phone": "(407) 982-2268",
    "address": " 4307 Vineland Rd Ste H1/h2 - orlando, FL 32811",
    "location": "Lafayette"
  },
  {
    "dataYpid": "12605320",
    "name": "Valpak of Greater Orlando",
    "description": "Advertising Agencies",
    "phone": "(407) 420-4818",
    "address": " 4305 Vineland Rd Ste G-16 - Orlando, FL 32811",
    "location": "Lafayette"
  },
  {
    "dataYpid": "536223513",
    "name": "Valpak",
    "description": "Direct Mail Advertising",
    "phone": "(407) 420-4818",
    "address": " 4403 Vineland Rd - Orlando, FL 32811",
    "location": "Lafayette"
  },
  {
    "dataYpid": "464398338",
    "name": "Impact Signs",
    "description": "Advertising Specialties",
    "phone": "(407) 599-0399",
    "address": " 4303 Vineland Rd - Orlando, FL 32811",
    "location": "Lafayette"
  },
  {
    "dataYpid": "576030053",
    "name": "Forte Models",
    "description": "Advertising Agencies",
    "phone": "(407) 744-5451",
    "address": " 380 Hawthorne Hills Pl - Orlando, FL 32835",
    "location": "Lafayette"
  },
  {
    "dataYpid": "506404028",
    "name": "Market Loyal",
    "description": "Marketing Consultants",
    "phone": "(407) 583-2504",
    "address": " 5950 Lakehurst Dr Ste 279 - Orlando, FL 32819",
    "location": "Lafayette"
  },
  {
    "dataYpid": "470855211",
    "name": "Bruce Sereta Illustration",
    "description": "Print Advertising",
    "phone": "(407) 217-6565",
    "address": " 7913 Lost Cove Ct - Orlando, FL 32819",
    "location": "Lafayette"
  },
  {
    "dataYpid": "536962747",
    "name": "Illuminate Seo & Webservices",
    "description": "Advertising Agencies",
    "phone": "(800) 836-0786",
    "address": " 4150 Eastgate Dr - Orlando, FL 32839",
    "location": "Lafayette"
  },
  {
    "dataYpid": "575020527",
    "name": "Kennedy Marketing LLC",
    "description": "Marketing Programs & Services",
    "phone": "(321) 446-8263",
    "address": " 8118 Chianti Dr. - Orlando, FL 32836",
    "location": "Lafayette"
  },
  {
    "dataYpid": "8773140",
    "name": "NAS Recruitment Communications",
    "description": "Advertising Agencies",
    "phone": "(407) 226-1133",
    "address": " 7682 Municipal Dr - Orlando, FL 32819",
    "location": "Lafayette"
  },
  {
    "dataYpid": "550195985",
    "name": "Best Read Guide",
    "description": "Directory & Guide Advertising",
    "phone": "(407) 654-0220",
    "address": " 33 Main St - Windermere, FL 34786",
    "location": "Lafayette"
  },
  {
    "dataYpid": "196392",
    "name": "HI4OC",
    "description": "Direct Mail Advertising",
    "phone": "(407) 287-6129",
    "address": " PO Box 1022 - Gotha, FL 34734",
    "location": "Lafayette"
  },
  {
    "dataYpid": "464278483",
    "name": "Alan D Kennedy & Associates",
    "description": "Advertising Agencies",
    "phone": "(407) 876-2128",
    "address": " 9807 Walzer Ct - Windermere, FL 34786",
    "location": "Lafayette"
  },
  {
    "dataYpid": "1948430",
    "name": "Express Signs And Graphics Of Orlando",
    "description": "Signs",
    "phone": "(407) 240-0911",
    "address": " 7101 Presidents Dr Ste 199 - Orlando, FL 32809",
    "location": "Lafayette"
  },
  {
    "dataYpid": "516688941",
    "name": "29 Web Design",
    "description": "Internet Marketing & Advertising",
    "phone": "(407) 583-3888",
    "address": " 7701 Aviano Ave - Orlando, FL 32819",
    "location": "Lafayette"
  },
  {
    "dataYpid": "456282367",
    "name": "FASTSIGNS",
    "description": "Signs",
    "phone": "(407) 770-1500",
    "address": " 7154 W Colonial Dr - Orlando, FL 32818",
    "location": "Lafayette"
  },
  {
    "dataYpid": "5712479",
    "name": "American Ad Specialties",
    "description": "Advertising Specialties",
    "phone": "(407) 649-7784",
    "address": " 7075 Kingspointe Pkwy - Orlando, FL 32819",
    "location": "Lafayette"
  },
  {
    "dataYpid": "23011838",
    "name": "Ccs Presentations",
    "description": "Advertising Agencies",
    "phone": "(407) 996-0079",
    "address": " 6881 Kingspointe Pkwy - Orlando, FL 32819",
    "location": "Lafayette"
  },
  {
    "dataYpid": "472746562",
    "name": "Airtime Promotions",
    "description": "Advertising Agencies",
    "phone": "(407) 857-2787",
    "address": " 5001 W Sand Lake Rd - Orlando, FL 32819",
    "location": "Lafayette"
  },
  {
    "dataYpid": "7645555",
    "name": "Spectrum Sign Services",
    "description": "Truck Painting & Lettering",
    "phone": "(407) 264-0208",
    "address": " 6618 Kingspointe Pkwy - Orlando, FL 32819",
    "location": "Lafayette"
  },
  {
    "dataYpid": "496280823",
    "name": "More Commerce, Inc.",
    "description": "Marketing Consultants",
    "phone": "(407) 505-5588",
    "address": " 1168 Woodman Way - Orlando, FL 32818",
    "location": "Lafayette"
  },
  {
    "dataYpid": "474117126",
    "name": "Quantum Leap Advertising",
    "description": "Advertising Agencies",
    "phone": "(407) 396-6300",
    "address": " 7901 Kingspointe Pkwy Ste 17 - Orlando, FL 32819",
    "location": "Lafayette"
  },
  {
    "dataYpid": "12527146",
    "name": "Finish Line Auto Works",
    "description": "Advertising Specialties",
    "phone": "(407) 299-1330",
    "address": " 4502 Old Winter Garden Rd Ste I - Orlando, FL 32811",
    "location": "Lafayette"
  },
  {
    "dataYpid": "547820043",
    "name": "Transfirstmedia",
    "description": "Advertising Agencies",
    "phone": "(407) 716-8800",
    "address": " 9101 International Dr - Orlando, FL 32819",
    "location": "Lafayette"
  },
  {
    "dataYpid": "13372895",
    "name": "ADS Plus Ink",
    "description": "Advertising Agencies",
    "phone": "(407) 370-9141",
    "address": " 7450 Sandlake Commons Blvd - Orlando, FL 32819",
    "location": "Lafayette"
  },
  {
    "dataYpid": "534971659",
    "name": "Getwowbrows.com",
    "description": "Advertising Specialties",
    "phone": "(413) 438-2769",
    "address": " 7300 Sandlake Commons Blvd Ste 220 - Orlando, FL 32819",
    "location": "Lafayette"
  },
  {
    "dataYpid": "15829394",
    "name": "Graphic Signs Inc",
    "description": "Signs",
    "phone": "(407) 290-1285",
    "address": " 1004 N Pine Hills Rd - Orlando, FL 32808",
    "location": "Lafayette"
  },
  {
    "dataYpid": "547815773",
    "name": "Brandcoders",
    "description": "Marketing Programs & Services",
    "phone": "(407) 992-8877",
    "address": " 8600 Commodity Cir Ste 126 - Orlando, FL 32819",
    "location": "Lafayette"
  },
  {
    "dataYpid": "7130581",
    "name": "Ashland",
    "description": "Advertising Agencies",
    "phone": "(407) 876-0045",
    "address": " 2042 Maguire Rd - Windermere, FL 34786",
    "location": "Lafayette"
  },
  {
    "dataYpid": "549997569",
    "name": "Sunshine Print Signs",
    "description": "Signs-Maintenance & Repair",
    "phone": "(407) 757-0834",
    "address": " 8991 W Colonial Dr - Ocoee, FL 34761",
    "location": "Lafayette"
  },
  {
    "dataYpid": "14675327",
    "name": "Amy Jones Creative Pro",
    "description": "Advertising Agencies",
    "phone": "(407) 466-6852",
    "address": " 3460 Crystal St - Gotha, FL 34734",
    "location": "Lafayette"
  },
  {
    "dataYpid": "469670705",
    "name": "Diggersleather",
    "description": "Advertising Agencies",
    "phone": "(407) 367-8874",
    "address": " 1612 Blackwood Ave - Gotha, FL 34734",
    "location": "Lafayette"
  },
  {
    "dataYpid": "547261890",
    "name": "Trighton Interactive",
    "description": "Web Site Design & Services",
    "phone": "(407) 440-2972",
    "address": " 2582 Maguire Rd # 417 - Ocoee, FL 34761",
    "location": "Lafayette"
  },
  {
    "dataYpid": "6642516",
    "name": "Xcellimark",
    "description": "Internet Products & Services",
    "phone": "(407) 678-3062",
    "address": " 121 S Orange Ave Ste 1503 - Orlando, FL 32801",
    "location": "Lafayette"
  },
  {
    "dataYpid": "504966872",
    "name": "One Day Masterpieces",
    "description": "Signs",
    "phone": "(407) 857-9987",
    "address": " 2101 Premier Row - Orlando, FL 32809",
    "location": "Lafayette"
  },
  {
    "dataYpid": "523980206",
    "name": "Designzillas",
    "description": "Web Site Design & Services",
    "phone": "(407) 637-2833",
    "address": " 500 S Magnolia Ave - Orlando, FL 32801",
    "location": "Lafayette"
  },
  {
    "dataYpid": "504025790",
    "name": "Chrilo",
    "description": "Marketing Programs & Services",
    "phone": "(407) 590-8849",
    "address": " 189 S Orange Ave Ste 1270 - Orlando, FL 32801",
    "location": "Lafayette"
  },
  {
    "dataYpid": "462393000",
    "name": "JKR Advertising & Marketing",
    "description": "Advertising Agencies",
    "phone": "(321) 397-0777",
    "address": " 1 S Orange Ave - Orlando, FL 32801",
    "location": "Lafayette"
  },
  {
    "dataYpid": "458112712",
    "name": "REMIXED: a marketing + design agency",
    "description": "Marketing Programs & Services",
    "phone": "(407) 283-7369",
    "address": " 113 E Pine St - Orlando, FL 32801",
    "location": "Lafayette"
  },
  {
    "dataYpid": "459263980",
    "name": "Izea",
    "description": "Advertising Agencies",
    "phone": "(321) 332-6830",
    "address": " 150 N Orange Ave Ste 412 - Orlando, FL 32801",
    "location": "Lafayette"
  },
  {
    "dataYpid": "550751426",
    "name": "Co Interior De Signs",
    "description": "Advertising Specialties",
    "phone": "(407) 286-4004",
    "address": " 8751 Commodity Cir - Orlando, FL 32819",
    "location": "Lafayette"
  },
  {
    "dataYpid": "549665063",
    "name": "Wow Signs Pri Nting Inc",
    "description": "Advertising Specialties",
    "phone": "(407) 250-4729",
    "address": " 3609 Old Winter Garden Rd - Orlando, FL 32805",
    "location": "Lafayette"
  },
  {
    "dataYpid": "567120517",
    "name": "OP Digital Marketing",
    "description": "Marketing Consultants",
    "phone": "(407) 394-6155",
    "address": " 2106 W Oak Ridge Rd Apt B - Orlando, FL 32809",
    "location": "Lafayette"
  },
  {
    "dataYpid": "465201146",
    "name": "Geniusdv",
    "description": "Advertising Agencies",
    "phone": "(407) 286-7862",
    "address": " 7350 Futures Dr - Orlando, FL 32819",
    "location": "Lafayette"
  },
  {
    "dataYpid": "566510618",
    "name": "Petty Graphics & Signs",
    "description": "Advertising Specialties",
    "phone": "(708) 427-1412",
    "address": " 7362 Futures Dr - Orlando, FL 32819",
    "location": "Lafayette"
  },
  {
    "dataYpid": "460421471",
    "name": "FlexMark Corporation",
    "description": "Advertising Agencies",
    "phone": "(407) 876-2999",
    "address": " 9702 Camberley Cir - Orlando, FL 32836",
    "location": "Lafayette"
  },
  {
    "dataYpid": "497895630",
    "name": "HALO Branded Solutions",
    "description": "Advertising Specialties",
    "phone": "(407) 425-9521",
    "address": " 2053 Premier Row - Orlando, FL 32809",
    "location": "Lafayette"
  },
  {
    "dataYpid": "6514126",
    "name": "L J Signs & Awnings Inc",
    "description": "Awnings & Canopies",
    "phone": "(407) 650-9939",
    "address": " 1333 W Michigan St - Orlando, FL 32805",
    "location": "Lafayette"
  },
  {
    "dataYpid": "470850238",
    "name": "DragonFire Industries Inc.",
    "description": "Truck Painting & Lettering",
    "phone": "(407) 999-2215",
    "address": " 7559 Currency Dr - Orlando, FL 32809",
    "location": "Lafayette"
  },
  {
    "dataYpid": "10438799",
    "name": "Quickie Signs Inc",
    "description": "Signs",
    "phone": "(407) 423-3123",
    "address": " 1009 Honey Girl Ln - Orlando, FL 32839",
    "location": "Lafayette"
  },
  {
    "dataYpid": "545260473",
    "name": "Seychelle Media",
    "description": "Advertising Specialties",
    "phone": "(407) 377-7753",
    "address": " 6675 Westwood Blvd Ste 200 - Orlando, FL 32821",
    "location": "Lafayette"
  },
  {
    "dataYpid": "550361778",
    "name": "Red Rocket Inc",
    "description": "Marketing Programs & Services",
    "phone": "(407) 895-9358",
    "address": " 600 Triumph Ct - Orlando, FL 32805",
    "location": "Lafayette"
  },
  {
    "dataYpid": "561074809",
    "name": "Elite Business Productions",
    "description": "Advertising Agencies",
    "phone": "(407) 292-9166",
    "address": " 600 Triumph Ct - Orlando, FL 32805",
    "location": "Lafayette"
  },
  {
    "dataYpid": "8158619",
    "name": "Signal Outdoor Advertising",
    "description": "Transit Advertising",
    "phone": "(407) 856-7079",
    "address": " 7616 Southland Blvd Ste 114 - Orlando, FL 32809",
    "location": "Lafayette"
  },
  {
    "dataYpid": "467453029",
    "name": "Valassis Inc",
    "description": "Advertising Agencies",
    "phone": "(407) 240-8200",
    "address": " 7651 Southland Blvd - Orlando, FL 32809",
    "location": "Lafayette"
  },
  {
    "dataYpid": "508773354",
    "name": "Visit Orlando",
    "description": "Marketing Programs & Services",
    "phone": "(407) 363-5800",
    "address": " 6277 Sea Harbor Dr Ste 400 - Orlando, FL 32821",
    "location": "Lafayette"
  },
  {
    "dataYpid": "472479721",
    "name": "Askira Global Solutions",
    "description": "Payroll Service",
    "phone": "(407) 704-3732",
    "address": " South John Young - Orlando, FL 32808",
    "location": "Lafayette"
  },
  {
    "dataYpid": "480208148",
    "name": "Global Advertising",
    "description": "Transit Advertising",
    "phone": "(407) 203-5812",
    "address": " 1707 Orlando Central Pkwy Ste 430 - Orlando, FL 32809",
    "location": "Lafayette"
  },
  {
    "dataYpid": "31221181",
    "name": "ABC Signs USA",
    "description": "Signs",
    "phone": "(407) 540-0690",
    "address": " 54 N Tampa Ave - Orlando, FL 32805",
    "location": "Lafayette"
  },
  {
    "dataYpid": "465688553",
    "name": "Guidetrack Business Svc Inc",
    "description": "Advertising Agencies",
    "phone": "(407) 888-8155",
    "address": " 6220 S Orange Blossom Trl Ste 194 - Orlando, FL 32809",
    "location": "Lafayette"
  },
  {
    "dataYpid": "544550096",
    "name": "Platinum Studio s",
    "description": "Publicity Service",
    "phone": "(407) 730-5140",
    "address": " 6220 S Orange Blossom Trl - Orlando, FL 32809",
    "location": "Lafayette"
  },
  {
    "dataYpid": "464220695",
    "name": "Graph-It Signs & Web Design",
    "description": "Signs",
    "phone": "(407) 855-1539",
    "address": " 1017 W Oak Ridge Rd - Orlando, FL 32809",
    "location": "Lafayette"
  },
  {
    "dataYpid": "18794114",
    "name": "A to Z Marketing",
    "description": "Marketing Programs & Services",
    "phone": "(321) 458-0661",
    "address": " 750 S Orange Blossom Trl Ste 261 - Orlando, FL 32805",
    "location": "Lafayette"
  },
  {
    "dataYpid": "756100",
    "name": "Revenue Performance",
    "description": "Internet Service Providers (ISP)",
    "phone": "(407) 909-9036",
    "address": " 10831 Woodchase Cir - Orlando, FL 32836",
    "location": "Lafayette"
  },
  {
    "dataYpid": "464879515",
    "name": "Ferguson Ferguson Decals",
    "description": "Signs",
    "phone": "(407) 422-2362",
    "address": " 1314 W Anderson St - Orlando, FL 32805",
    "location": "Lafayette"
  },
  {
    "dataYpid": "504166896",
    "name": "Sign & Vehicle Wraps, Inc.",
    "description": "Signs",
    "phone": "(407) 859-8631",
    "address": " 1011 W Lancaster Rd Ste 7 - Orlando, FL 32809",
    "location": "Lafayette"
  },
  {
    "dataYpid": "467107168",
    "name": "Lenny's Distributors Straight",
    "description": "Advertising Specialties",
    "phone": "(407) 730-9899",
    "address": " 3313 Lake Tiny Cir - Orlando, FL 32818",
    "location": "Lafayette"
  },
  {
    "dataYpid": "496490859",
    "name": "Stahl Beizen",
    "description": "Radio Station Equipment",
    "phone": "(407) 610-0991",
    "address": " 3409 Dragoon Pl - Orlando, FL 32818",
    "location": "Lafayette"
  },
  {
    "dataYpid": "472444789",
    "name": "Oca Marketing Services",
    "description": "Marketing Consultants",
    "phone": "(407) 248-8629",
    "address": " 10335 Orangewood Blvd - Orlando, FL 32821",
    "location": "Lafayette"
  },
  {
    "dataYpid": "481403306",
    "name": "Two Graphic Factory",
    "description": "Signs",
    "phone": "(407) 556-4889",
    "address": " 955 W Lancaster Rd - Orlando, FL 32809",
    "location": "Lafayette"
  },
  {
    "dataYpid": "229159",
    "name": "BMP Advertising",
    "description": "Television Stations & Broadcast Companies",
    "phone": "(866) 996-2673",
    "address": " 1650 Sand Lake Rd Ste 301 - Orlando, FL 32809",
    "location": "Lafayette"
  },
  {
    "dataYpid": "464495996",
    "name": "Global Time Shares",
    "description": "Advertising Agencies",
    "phone": "(407) 581-3749",
    "address": " 8421 S Orange Blossom Trl - Orlando, FL 32809",
    "location": "Lafayette"
  },
  {
    "dataYpid": "526556010",
    "name": "Aarrow Sign Spinners",
    "description": "Advertising Specialties",
    "phone": "(407) 233-4372",
    "address": " 8421 S Orange Blossom Trl - Orlando, FL 32809",
    "location": "Lafayette"
  },
  {
    "dataYpid": "539483522",
    "name": "Vital Signs Of Orlando",
    "description": "Advertising Specialties",
    "phone": "(407) 985-1264",
    "address": " 2111 S Division Ave - Orlando, FL 32805",
    "location": "Lafayette"
  },
  {
    "dataYpid": "535281448",
    "name": "TC Interactive Group",
    "description": "Advertising Agencies",
    "phone": "(888) 313-7077",
    "address": " 1024 W Pine St - Orlando, FL 32805",
    "location": "Lafayette"
  },
  {
    "dataYpid": "958742",
    "name": "Metro Bench",
    "description": "Advertising Specialties",
    "phone": "(407) 843-0088",
    "address": " 1050 W Robinson St - Orlando, FL 32805",
    "location": "Lafayette"
  },
  {
    "dataYpid": "566453007",
    "name": "Cosmetic Promotions Inc",
    "description": "Advertising Agencies",
    "phone": "(407) 644-9916",
    "address": " 1216 W Amelia St - Orlando, FL 32805",
    "location": "Lafayette"
  },
  {
    "dataYpid": "15811773",
    "name": "Taylor Made Signs",
    "description": "Signs",
    "phone": "(407) 816-0063",
    "address": " 137 Drennen Rd - Orlando, FL 32806",
    "location": "Lafayette"
  },
  {
    "dataYpid": "11230880",
    "name": "Personal Touch Mailing Service",
    "description": "Direct Marketing Services",
    "phone": "(407) 857-9090",
    "address": " 129 Drennen Rd - Orlando, FL 32806",
    "location": "Lafayette"
  },
  {
    "dataYpid": "459068130",
    "name": "Outdoor Images Of Central Florida Inc",
    "description": "Signs",
    "phone": "(407) 825-9944",
    "address": " 4601 Forrestal Ave # 2 - Orlando, FL 32806",
    "location": "Lafayette"
  },
  {
    "dataYpid": "507764056",
    "name": "M & S Signs",
    "description": "Signs",
    "phone": "(407) 857-6911",
    "address": " 102 Drennen Rd - Orlando, FL 32806",
    "location": "Lafayette"
  },
  {
    "dataYpid": "460164138",
    "name": "SignExpress",
    "description": "Signs",
    "phone": "(407) 617-1936",
    "address": " 65 Drennen Rd - Orlando, FL 32806",
    "location": "Lafayette"
  },
  {
    "dataYpid": "18644213",
    "name": "Vince Balistreri Signs",
    "description": "Signs",
    "phone": "(407) 857-8334",
    "address": " 55 Drennen Rd - Orlando, FL 32806",
    "location": "Lafayette"
  },
  {
    "dataYpid": "475646116",
    "name": "N W Sign Industries Inc",
    "description": "Signs",
    "phone": "(800) 359-1151",
    "address": " 1255 La Quinta Dr - Orlando, FL 32809",
    "location": "Lafayette"
  },
  {
    "dataYpid": "548421549",
    "name": "Sign Depot",
    "description": "Signs",
    "phone": "(407) 894-0090",
    "address": " 1100 W Colonial Dr Unit 1 - Orlando, FL 32804",
    "location": "Lafayette"
  },
  {
    "dataYpid": "12036576",
    "name": "Boone Sign Erection and Service Inc",
    "description": "Signs-Maintenance & Repair",
    "phone": "(407) 423-4043",
    "address": " 28 W Michigan St - Orlando, FL 32806",
    "location": "Lafayette"
  },
  {
    "dataYpid": "500994818",
    "name": "Meyer Distributing",
    "description": "Advertising Specialties",
    "phone": "(407) 578-5181",
    "address": " 2420 Lynx Ln - Orlando, FL 32804",
    "location": "Lafayette"
  },
  {
    "dataYpid": "3235368",
    "name": "Sign Time",
    "description": "Signs",
    "phone": "(407) 316-0093",
    "address": " 2307 S Orange Ave - Orlando, FL 32806",
    "location": "Lafayette"
  },
  {
    "dataYpid": "462158493",
    "name": "Magnetic Mobile Media",
    "description": "Internet Marketing & Advertising",
    "phone": "(407) 504-7186",
    "address": " 11400 Banner Ct Apt 1204 - Orlando, FL 32821",
    "location": "Lafayette"
  },
  {
    "dataYpid": "532658536",
    "name": "Signs Depot",
    "description": "Signs",
    "phone": "(407) 757-0788",
    "address": " 9251 S Orange Blossom Trl Ste 9 - Orlando, FL 32837",
    "location": "Lafayette"
  },
  {
    "dataYpid": "459146402",
    "name": "Push Inc",
    "description": "Advertising Agencies",
    "phone": "(407) 841-2299",
    "address": " 101 Ernestine St - Orlando, FL 32801",
    "location": "Lafayette"
  },
  {
    "dataYpid": "551128034",
    "name": "Agencythe",
    "description": "Advertising Agencies",
    "phone": "(407) 985-3088",
    "address": " 5025 S Orange Ave - Orlando, FL 32809",
    "location": "Lafayette"
  },
  {
    "dataYpid": "475238348",
    "name": "Scott Le Roy Marketing",
    "description": "Internet Marketing & Advertising",
    "phone": "(214) 212-9705",
    "address": " 100 W Lucerne Cir - Orlando, FL 32801",
    "location": "Lafayette"
  },
  {
    "dataYpid": "15088413",
    "name": "Marbo America Inc",
    "description": "Distributing Service-Circular, Sample, Etc",
    "phone": "(407) 857-1330",
    "address": " 5210-B South Orange Ave - Orlando, FL 32809",
    "location": "Lafayette"
  },
  {
    "dataYpid": "563782983",
    "name": "JVR Productions, Inc.",
    "description": "Video Production Services",
    "phone": "(407) 582-0030",
    "address": " 2545 Industrial Blvd - Orlando, FL 32804",
    "location": "Lafayette"
  },
  {
    "dataYpid": "552531717",
    "name": "Warden Promotio Ns",
    "description": "Embroidery",
    "phone": "(407) 650-0641",
    "address": " 940 S Orange Ave - Orlando, FL 32806",
    "location": "Lafayette"
  },
  {
    "dataYpid": "10226011",
    "name": "Warden Co",
    "description": "Advertising Specialties",
    "phone": "(407) 650-0333",
    "address": " 940 S Orange Ave Ste 101 - Orlando, FL 32806",
    "location": "Lafayette"
  },
  {
    "dataYpid": "495657643",
    "name": "Doc Digital SEM | Orlando SEO, Web Design, & SMM",
    "description": "Web Site Design & Services",
    "phone": "(954) 774-3253",
    "address": " 122 W Pine St, UNIT 300 - Orlando, FL 32801",
    "location": "Lafayette"
  },
  {
    "dataYpid": "455964361",
    "name": "ASAP Signs",
    "description": "Signs",
    "phone": "(407) 521-7222",
    "address": " 2400 Silver Star Rd - Orlando, FL 32804",
    "location": "Lafayette"
  },
  {
    "dataYpid": "476306276",
    "name": "Iron Summit Media Strategies",
    "description": "Internet Marketing & Advertising",
    "phone": "(407) 850-8895",
    "address": " Po Box 780344 - Orlando, FL 32878",
    "location": "Lafayette"
  },
  {
    "dataYpid": "573989355",
    "name": "ROI Amplified Orlando",
    "description": "Directory & Guide Advertising",
    "phone": "(407) 904-2406",
    "address": " 450 S Orange Ave PMB 28 - Orlando, FL 32801",
    "location": "Lafayette"
  },
  {
    "dataYpid": "576817336",
    "name": "The Astro System | Boost Your Sales Online",
    "description": "Sales Organizations",
    "phone": "(321) 587-3064",
    "address": " 450 S Orange Ave - Orlando, FL 32801",
    "location": "Lafayette"
  },
  {
    "dataYpid": "554885662",
    "name": "Maven Creative",
    "description": "Advertising Agencies",
    "phone": "(407) 704-8426",
    "address": " 55 W Church St - Orlando, FL 32801",
    "location": "Lafayette"
  },
  {
    "dataYpid": "563672745",
    "name": "The Wagner Agency",
    "description": "Advertising Agencies",
    "phone": "(407) 541-0523",
    "address": " 300 S Orange Ave Ste 1000 - Orlando, FL 32801",
    "location": "Lafayette"
  },
  {
    "dataYpid": "464528562",
    "name": "Carlton Co Inc",
    "description": "Advertising Agencies",
    "phone": "(407) 256-6072",
    "address": " 620 Gatlin Ave - Orlando, FL 32806",
    "location": "Lafayette"
  },
  {
    "dataYpid": "560796679",
    "name": "Strange Cloudz Clearinghouse",
    "description": "Advertising Agencies",
    "phone": "(407) 458-4480",
    "address": " 4139 Player Cir - Orlando, FL 32808",
    "location": "Lafayette"
  },
  {
    "dataYpid": "467459615",
    "name": "Knight Images Inc",
    "description": "Advertising Agencies",
    "phone": "(407) 206-1011",
    "address": " 130 S Orange Ave - Orlando, FL 32801",
    "location": "Lafayette"
  },
  {
    "dataYpid": "13269636",
    "name": "Different Perspective",
    "description": "Internet Marketing & Advertising",
    "phone": "(407) 226-9774",
    "address": " 201 S Orange Ave Ste 890 - Orlando, FL 32801",
    "location": "Lafayette"
  },
  {
    "dataYpid": "503562990",
    "name": "Neo Reach Inc",
    "description": "Advertising Agencies",
    "phone": "(877) 972-2299",
    "address": " 189 S Orange Ave - Orlando, FL 32801",
    "location": "Lafayette"
  },
  {
    "dataYpid": "458768130",
    "name": "Dream Factory Agency",
    "description": "Advertising Agencies",
    "phone": "(407) 745-4045",
    "address": " 189 S Orange Ave - Orlando, FL 32801",
    "location": "Lafayette"
  },
  {
    "dataYpid": "475908255",
    "name": "Purple Rock Scissors",
    "description": "Digital Printing & Imaging",
    "phone": "(407) 936-1749",
    "address": " 189 S Orange Ave Ste 2020 - Orlando, FL 32801",
    "location": "Lafayette"
  },
  {
    "dataYpid": "535238266",
    "name": "Big Vision",
    "description": "Marketing Programs & Services",
    "phone": "(407) 378-4620",
    "address": " 189 S Orange Ave Ste 1120 - Orlando, FL 32801",
    "location": "Lafayette"
  },
  {
    "dataYpid": "548168564",
    "name": "iQuarius Media",
    "description": "Interactive Media",
    "phone": "(407) 378-7817",
    "address": " 100 S Orange Ave Ste 500 - Orlando, FL 32801",
    "location": "Lafayette"
  },
  {
    "dataYpid": "3266206",
    "name": "American Quick Signs",
    "description": "Signs",
    "phone": "(407) 649-6424",
    "address": " 2708 N Orange Blossom Trl - Orlando, FL 32804",
    "location": "Lafayette"
  },
  {
    "dataYpid": "467804046",
    "name": "Noble Marketing Inc",
    "description": "Advertising Agencies",
    "phone": "(407) 404-6776",
    "address": " 121 S Orange Ave - Orlando, FL 32801",
    "location": "Lafayette"
  },
  {
    "dataYpid": "478355592",
    "name": "Ascentus LLC",
    "description": "Internet Marketing & Advertising",
    "phone": "(407) 392-0350",
    "address": " 121 S Orange Ave - Orlando, FL 32801",
    "location": "Lafayette"
  },
  {
    "dataYpid": "547533266",
    "name": "Bay Hill Partners",
    "description": "Marketing Consultants",
    "phone": "(407) 644-0878",
    "address": " 121 S Orange Ave Ste 800 - Orlando, FL 32801",
    "location": "Lafayette"
  },
  {
    "dataYpid": "460187838",
    "name": "Noble",
    "description": "Advertising Agencies",
    "phone": "(888) 933-5646",
    "address": " 121 S Orange Ave Ste 1070 - Orlando, FL 32801",
    "location": "Lafayette"
  },
  {
    "dataYpid": "497174174",
    "name": "Orange Rock Media Inc",
    "description": "Advertising Agencies",
    "phone": "(407) 641-1580",
    "address": " 121 S. Orange Ave. Suite 1585 - Orlando, FL 32801",
    "location": "Lafayette"
  },
  {
    "dataYpid": "530923576",
    "name": "Alchemy Marketing",
    "description": "Marketing Programs & Services",
    "phone": "(407) 809-4090",
    "address": " 2708 Hazelhurst Ave - Orlando, FL 32804",
    "location": "Lafayette"
  },
  {
    "dataYpid": "569613318",
    "name": "Comrade Digital Marketing Agency Orlando",
    "description": "Advertising Agencies",
    "phone": "(321) 587-3706",
    "address": " 20 N Orange Ave - Orlando, FL 32801",
    "location": "Lafayette"
  },
  {
    "dataYpid": "486583170",
    "name": "Now Digital Inc",
    "description": "Advertising Agencies",
    "phone": "(407) 412-9988",
    "address": " 1 S Orange Ave - Orlando, FL 32801",
    "location": "Lafayette"
  },
  {
    "dataYpid": "545206592",
    "name": "Jkr Defalco Inc",
    "description": "Advertising Agencies",
    "phone": "(321) 397-0777",
    "address": " 1 S Orange Ave - Orlando, FL 32801",
    "location": "Lafayette"
  },
  {
    "dataYpid": "467286504",
    "name": "Maximus Inc",
    "description": "Advertising Agencies",
    "phone": "(407) 649-7219",
    "address": " 1 S Orange Ave - Orlando, FL 32801",
    "location": "Lafayette"
  },
  {
    "dataYpid": "575788480",
    "name": "Latavia Matthews",
    "description": "Advertising Agencies",
    "phone": "(786) 309-4596",
    "address": " 425 W Colonial Dr Ste 303 - Orlando, FL 32804",
    "location": "Lafayette"
  },
  {
    "dataYpid": "524494352",
    "name": "Allure Advertising",
    "description": "Product Design, Development & Marketing",
    "phone": "(407) 719-4567",
    "address": " 5517 Hansel Ave Ste B - Orlando, FL 32809",
    "location": "Lafayette"
  },
  {
    "dataYpid": "500841449",
    "name": "THE Agency",
    "description": "Advertising Agencies",
    "phone": "(321) 356-4934",
    "address": " 5517 Hansel Ave Ste B - Orlando, FL 32809",
    "location": "Lafayette"
  },
  {
    "dataYpid": "466250498",
    "name": "Boardroom Communications Inc.",
    "description": "Public Relations Counselors",
    "phone": "(407) 973-8555",
    "address": " 37 N Orange Ave - Orlando, FL 32801",
    "location": "Lafayette"
  },
  {
    "dataYpid": "555811825",
    "name": "Boardroompr",
    "description": "Advertising Agencies",
    "phone": "(407) 973-8555",
    "address": " 37 N Orange Ave - Orlando, FL 32801",
    "location": "Lafayette"
  },
  {
    "dataYpid": "567733845",
    "name": "Southern Cross Media",
    "description": "Advertising Agencies",
    "phone": "(407) 259-8139",
    "address": " 37 N Orange Ave Ste 500 - Orlando, FL 32801",
    "location": "Lafayette"
  },
  {
    "dataYpid": "481497103",
    "name": "Sun Telemedia LLC",
    "description": "Advertising Agencies",
    "phone": "(321) 332-7800",
    "address": " 37 N Orange Ave Ste 500 - Orlando, FL 32801",
    "location": "Lafayette"
  },
  {
    "dataYpid": "482679332",
    "name": "Issues & Advocacy",
    "description": "Advertising Specialties",
    "phone": "(321) 332-7575",
    "address": " 37 N Orange Ave Ste 500 - Orlando, FL 32801",
    "location": "Lafayette"
  },
  {
    "dataYpid": "574160173",
    "name": "Watauga Group",
    "description": "Advertising Agencies",
    "phone": "(407) 982-2696",
    "address": " 37 N Orange Ave - Orlando, FL 32801",
    "location": "Lafayette"
  },
  {
    "dataYpid": "576308269",
    "name": "Radancy",
    "description": "Advertising Agencies",
    "phone": "(646) 613-2000",
    "address": " 1822 S Osceola Ave - Orlando, FL 32806",
    "location": "Lafayette"
  },
  {
    "dataYpid": "493044546",
    "name": "Royall Advertising",
    "description": "Marketing Programs & Services",
    "phone": "(407) 401-7479",
    "address": " 14 E Washington St - Orlando, FL 32801",
    "location": "Lafayette"
  },
  {
    "dataYpid": "11718695",
    "name": "Beloved",
    "description": "Internet Marketing & Advertising",
    "phone": "(407) 367-1680",
    "address": " 14 E Washington St - Orlando, FL 32801",
    "location": "Lafayette"
  },
  {
    "dataYpid": "533777834",
    "name": "ThinkPod Agency",
    "description": "Internet Marketing & Advertising",
    "phone": "(574) 370-4383",
    "address": " 111 N Orange Ave - Orlando, FL 32801",
    "location": "Lafayette"
  },
  {
    "dataYpid": "571803518",
    "name": "Cheetah Agency",
    "description": "Advertising Agencies",
    "phone": "(407) 470-8888",
    "address": " 111 N Orange Ave - Orlando, FL 32801",
    "location": "Lafayette"
  },
  {
    "dataYpid": "571894502",
    "name": "Ad Solutions Media",
    "description": "Advertising Agencies",
    "phone": "(269) 579-2130",
    "address": " 111 N Orange Ave Ste 800 - Orlando, FL 32801",
    "location": "Lafayette"
  },
  {
    "dataYpid": "461509944",
    "name": "Metropolis",
    "description": "Advertising Specialties",
    "phone": "(407) 835-8080",
    "address": " 719 Peachtree Rd - Orlando, FL 32804",
    "location": "Lafayette"
  },
  {
    "dataYpid": "4940024",
    "name": "Higher Advertising & Pr Inc",
    "description": "Advertising Specialties",
    "phone": "(407) 447-1340",
    "address": " 30 S Magnolia Ave Ste 250 - Orlando, FL 32801",
    "location": "Lafayette"
  },
  {
    "dataYpid": "16347890",
    "name": "Appleton Creative Inc",
    "description": "Marketing Programs & Services",
    "phone": "(407) 246-0092",
    "address": " 539 Delaney Ave - Orlando, FL 32801",
    "location": "Lafayette"
  },
  {
    "dataYpid": "554983965",
    "name": "Om Performance Marketers",
    "description": "Marketing Programs & Services",
    "phone": "(407) 420-7064",
    "address": " 250 N Orange Ave - Orlando, FL 32801",
    "location": "Lafayette"
  },
  {
    "dataYpid": "20227345",
    "name": "Chris Distribution",
    "description": "Advertising Agencies",
    "phone": "(407) 420-1230",
    "address": " 921 Shady Lane Dr - Orlando, FL 32804",
    "location": "Lafayette"
  },
  {
    "dataYpid": "514370894",
    "name": "Triple Your Clicks",
    "description": "Internet Marketing & Advertising",
    "phone": "(407) 459-8804",
    "address": " 390 North Orange Avenue Suite 2300 - Orlando, FL 32801",
    "location": "Lafayette"
  },
  {
    "dataYpid": "546804050",
    "name": "Jackson Works Inc",
    "description": "Advertising Agencies",
    "phone": "(407) 930-6087",
    "address": " 310 E Anderson St - Orlando, FL 32801",
    "location": "Lafayette"
  },
  {
    "dataYpid": "11798635",
    "name": "Central Florida Stamp & Sign",
    "description": "Rubber & Plastic Stamps",
    "phone": "(407) 423-2500",
    "address": " 139 E Pine St - Orlando, FL 32801",
    "location": "Lafayette"
  },
  {
    "dataYpid": "495472153",
    "name": "Euphoric Inc.",
    "description": "Marketing Programs & Services",
    "phone": "(407) 476-2555",
    "address": " 390 N Orange Ave Ste 2300 - Orlando, FL 32801",
    "location": "Lafayette"
  },
  {
    "dataYpid": "1289991",
    "name": "J M Design",
    "description": "Graphic Designers",
    "phone": "(407) 654-9007",
    "address": " 370 Blue Stone Cir - Winter Garden, FL 34787",
    "location": "Lafayette"
  },
  {
    "dataYpid": "469111346",
    "name": "Yapor",
    "description": "Advertising Agencies",
    "phone": "(407) 909-8000",
    "address": " 8555 Bowden Way - Windermere, FL 34786",
    "location": "Lafayette"
  },
  {
    "dataYpid": "549934220",
    "name": "I and J Signs and Awnings Inc",
    "description": "Signs",
    "phone": "(407) 378-2054",
    "address": " 844 Maguire Rd - Ocoee, FL 34761",
    "location": "Lafayette"
  },
  {
    "dataYpid": "11626779",
    "name": "The Sign Factory",
    "description": "Signs",
    "phone": "(407) 656-7986",
    "address": " 711 S Bluford Ave - Ocoee, FL 34761",
    "location": "Lafayette"
  },
  {
    "dataYpid": "512962872",
    "name": "Prodigy Launch",
    "description": "Advertising Agencies",
    "phone": "(540) 404-1572",
    "address": " 10631 Village Lake Rd - Windermere, FL 34786",
    "location": "Lafayette"
  },
  {
    "dataYpid": "497414718",
    "name": "FPIS Brochure Distribution",
    "description": "Advertising Specialties",
    "phone": "(407) 656-8818",
    "address": " 220 Story Rd - Ocoee, FL 34761",
    "location": "Lafayette"
  },
  {
    "dataYpid": "4412438",
    "name": "Big Daddy's Signs",
    "description": "Signs",
    "phone": "(407) 347-5965",
    "address": " 1319 Green Forest Ct - Winter Garden, FL 34787",
    "location": "Lafayette"
  },
  {
    "dataYpid": "28920226",
    "name": "Enterprise Integration Solutions",
    "description": "Advertising Agencies",
    "phone": "(407) 905-9536",
    "address": " 2130 Tall Oak Dr - Winter Garden, FL 34787",
    "location": "Lafayette"
  },
  {
    "dataYpid": "454343865",
    "name": "Prince Michael",
    "description": "Advertising Agencies",
    "phone": "(407) 347-7887",
    "address": " 7749 Jailene Dr - Windermere, FL 34786",
    "location": "Lafayette"
  },
  {
    "dataYpid": "465706544",
    "name": "Central Florida Signpros",
    "description": "Embroidery",
    "phone": "(407) 656-7699",
    "address": " 13028 W Colonial Dr - Winter Garden, FL 34787",
    "location": "Lafayette"
  },
  {
    "dataYpid": "567856399",
    "name": "Charles R Harris JR",
    "description": "Advertising Agencies",
    "phone": "(239) 214-3704",
    "address": " 7726 Winegard Rd - Pine Castle, FL 32809",
    "location": "Lafayette"
  },
  {
    "dataYpid": "545204603",
    "name": "Valpak of Central Florida",
    "description": "Advertising Agencies",
    "phone": "(407) 973-7357",
    "address": " 14027 Hampshire Bay Cir - Winter Garden, FL 34787",
    "location": "Lafayette"
  },
  {
    "dataYpid": "467836336",
    "name": "Cypress Signs Inc",
    "description": "Signs",
    "phone": "(407) 654-4316",
    "address": " 13340 W Colonial Dr - Winter Garden, FL 34787",
    "location": "Lafayette"
  },
  {
    "dataYpid": "559618179",
    "name": "Detorres Group",
    "description": "Advertising Agencies",
    "phone": "(877) 700-1592",
    "address": " 13340 W Colonial Dr - Winter Garden, FL 34787",
    "location": "Lafayette"
  },
  {
    "dataYpid": "28909915",
    "name": "Freebie Wallet Inc",
    "description": "Advertising Agencies",
    "phone": "(407) 877-7008",
    "address": " 13350 W Colonial Dr - Winter Garden, FL 34787",
    "location": "Lafayette"
  },
  {
    "dataYpid": "546253443",
    "name": "Cars Media Group Inc",
    "description": "Media Brokers",
    "phone": "(407) 286-3533",
    "address": " 5516 Commerce Dr - Edgewood, FL 32839",
    "location": "Lafayette"
  },
  {
    "dataYpid": "2015489",
    "name": "West Orange Times",
    "description": "Advertising Specialties",
    "phone": "(407) 656-2121",
    "address": " 720 S Dillard St - Winter Garden, FL 34787",
    "location": "Lafayette"
  },
  {
    "dataYpid": "16274935",
    "name": "Sign Wave",
    "description": "Signs",
    "phone": "(407) 614-5913",
    "address": " 537 S Dillard St - Winter Garden, FL 34787",
    "location": "Lafayette"
  },
  {
    "dataYpid": "560584980",
    "name": "Em Agency",
    "description": "Advertising Agencies",
    "phone": "(407) 573-6061",
    "address": " 855 E Plant St - Winter Garden, FL 34787",
    "location": "Lafayette"
  },
  {
    "dataYpid": "480107634",
    "name": "MP advertising.com",
    "description": "Advertising Agencies",
    "phone": "(407) 324-3255",
    "address": " PO Box 3052 E. Jefferson Street - Orlando, FL 32802",
    "location": "Lafayette"
  },
  {
    "dataYpid": "5717511",
    "name": "Ralph's Transfer Co Inc",
    "description": "Advertising Agencies",
    "phone": "(407) 377-6966",
    "address": " 8420 Boggy Creek Rd - Orlando, FL 32824",
    "location": "Lafayette"
  },
  {
    "dataYpid": "545241780",
    "name": "Website Marketing Company",
    "description": "Marketing Programs & Services",
    "phone": "(407) 930-1755",
    "address": " 717 N Magnolia Ave - Orlando, FL 32803",
    "location": "Lafayette"
  },
  {
    "dataYpid": "11178276",
    "name": "E & W Affordable Signs",
    "description": "Signs",
    "phone": "(407) 438-4874",
    "address": " 6028 S Orange Ave - Orlando, FL 32809",
    "location": "Lafayette"
  },
  {
    "dataYpid": "544569723",
    "name": "Sign Talk Flori da",
    "description": "Signs",
    "phone": "(407) 745-5564",
    "address": " 320 N Magnolia Ave - Orlando, FL 32801",
    "location": "Lafayette"
  },
  {
    "dataYpid": "561746282",
    "name": "Next Bridge Advisors Inc",
    "description": "Advertising Agencies",
    "phone": "(646) 755-3926",
    "address": " 1317 Edgewater Dr - Orlando, FL 32804",
    "location": "Lafayette"
  },
  {
    "dataYpid": "490607257",
    "name": "CXM Consult",
    "description": "Advertising Specialties",
    "phone": "(407) 731-2628",
    "address": " 6208 S Orange Ave - Orlando, FL 32809",
    "location": "Lafayette"
  },
  {
    "dataYpid": "459404113",
    "name": "Wood Wonders",
    "description": "Signs",
    "phone": "(407) 477-7725",
    "address": " 8200 Vineland Ave - Orlando, FL 32821",
    "location": "Lafayette"
  },
  {
    "dataYpid": "5494772",
    "name": "TKO-Terry Kane Orlando Inc",
    "description": "Advertising Agencies",
    "phone": "(407) 649-8730",
    "address": " 215 E Central Blvd - Orlando, FL 32801",
    "location": "Lafayette"
  },
  {
    "dataYpid": "3805475",
    "name": "Sign Producers",
    "description": "Signs",
    "phone": "(407) 855-8864",
    "address": " 555 W Landstreet Rd - Orlando, FL 32824",
    "location": "Lafayette"
  },
  {
    "dataYpid": "497535001",
    "name": "Brinson, Ashley",
    "description": "Advertising Agencies",
    "phone": "(407) 567-9132",
    "address": " 927 Hoffner Ave - Orlando, FL 32809",
    "location": "Lafayette"
  },
  {
    "dataYpid": "4946585",
    "name": "Sign World",
    "description": "Advertising Specialties",
    "phone": "(407) 423-5512",
    "address": " 600 N Orange Ave - Orlando, FL 32801",
    "location": "Lafayette"
  },
  {
    "dataYpid": "464522386",
    "name": "Creative Advertising Network",
    "description": "Advertising Agencies",
    "phone": "(407) 210-6566",
    "address": " 301 E Pine St - Orlando, FL 32801",
    "location": "Lafayette"
  },
  {
    "dataYpid": "4807986",
    "name": "United Advertising Agency Inc",
    "description": "Advertising Agencies",
    "phone": "(407) 422-2818",
    "address": " 612 N Orange Ave - Orlando, FL 32801",
    "location": "Lafayette"
  },
  {
    "dataYpid": "537568575",
    "name": "Mlb Creative Inc",
    "description": "Advertising Agencies",
    "phone": "(407) 645-4652",
    "address": " 62 W Colonial Dr - Orlando, FL 32801",
    "location": "Lafayette"
  },
  {
    "dataYpid": "456996717",
    "name": "Sign Factory",
    "description": "Advertising Specialties",
    "phone": "(407) 859-7499",
    "address": " 75 W Colonial Dr - Orlando, FL 32801",
    "location": "Lafayette"
  },
  {
    "dataYpid": "21792998",
    "name": "Cramer-Krasselt",
    "description": "Advertising Agencies",
    "phone": "(407) 841-8569",
    "address": " 225 E Robinson St Ste 570 - Orlando, FL 32801",
    "location": "Lafayette"
  },
  {
    "dataYpid": "469061447",
    "name": "Federal Media Alliance",
    "description": "Advertising Agencies",
    "phone": "(407) 888-8064",
    "address": " 6503 Pinecastle Blvd - Orlando, FL 32809",
    "location": "Lafayette"
  },
  {
    "dataYpid": "547852323",
    "name": "Virtual Biz Expos",
    "description": "Advertising Agencies",
    "phone": "(407) 377-6500",
    "address": " 845 N Garland Ave - Orlando, FL 32801",
    "location": "Lafayette"
  },
  {
    "dataYpid": "504000748",
    "name": "Trend Marketing Consultants LLC",
    "description": "Internet Marketing & Advertising",
    "phone": "(407) 801-8822",
    "address": " 424 E Central Blvd Suite 732 - Orlando, FL 32801",
    "location": "Lafayette"
  },
  {
    "dataYpid": "542387420",
    "name": "Sign Producers Inc",
    "description": "Signs",
    "phone": "(407) 855-9964",
    "address": " 436 W Landstreet Rd - Orlando, FL 32824",
    "location": "Lafayette"
  },
  {
    "dataYpid": "574353636",
    "name": "Ledford Productions",
    "description": "Audio-Visual Production Services",
    "phone": "(386) 290-3390",
    "address": " 421 E Central Blvd - Orlando, FL 32801",
    "location": "Lafayette"
  },
  {
    "dataYpid": "12617178",
    "name": "Sweet Audio",
    "description": "Recording Service-Sound & Video",
    "phone": "(407) 619-8649",
    "address": " 537 N Magnolia Ave - Orlando, FL 32801",
    "location": "Lafayette"
  },
  {
    "dataYpid": "475004148",
    "name": "Harland",
    "description": "Advertising Agencies",
    "phone": "(407) 240-4227",
    "address": " 8010 Sunport Dr Ste 103 - Orlando, FL 32809",
    "location": "Lafayette"
  },
  {
    "dataYpid": "505565987",
    "name": "LIVE Productions Group, Inc.",
    "description": "Meeting & Event Planning Services",
    "phone": "(323) 515-9363",
    "address": " 2800 S Brown Ave - Orlando, FL 32806",
    "location": "Lafayette"
  },
  {
    "dataYpid": "28931952",
    "name": "Cheetah Marketing Group",
    "description": "Advertising Specialties",
    "phone": "(407) 274-7255",
    "address": " 530 E Central Blvd Apt 902 - Orlando, FL 32801",
    "location": "Lafayette"
  },
  {
    "dataYpid": "569693880",
    "name": "HohmDigital",
    "description": "Directory & Guide Advertising",
    "phone": "(304) 805-4646",
    "address": " 618 E South St Ste 500 PMB 5037 - Orlando, FL 32801",
    "location": "Lafayette"
  },
  {
    "dataYpid": "496238616",
    "name": "The SEO Zone",
    "description": "Internet Marketing & Advertising",
    "phone": "(407) 616-8015",
    "address": " Orlando 32806 - Orlando, FL 32806",
    "location": "Lafayette"
  },
  {
    "dataYpid": "512606343",
    "name": "Prismatic",
    "description": "Advertising Agencies",
    "phone": "(407) 895-0029",
    "address": " 745 N Magnolia Ave Ste 301 - Orlando, FL 32803",
    "location": "Lafayette"
  },
  {
    "dataYpid": "552108590",
    "name": "FDG Creative",
    "description": "Advertising Agencies",
    "phone": "(407) 895-0029",
    "address": " 745 N Magnolia Ave - Orlando, FL 32803",
    "location": "Lafayette"
  },
  {
    "dataYpid": "768670",
    "name": "Foresight Design Group Inc.",
    "description": "Advertising Specialties",
    "phone": "(407) 895-0029",
    "address": " 745 N Magnolia Ave Ste 301 - Orlando, FL 32803",
    "location": "Lafayette"
  },
  {
    "dataYpid": "551835184",
    "name": "Fifty & Five - Marketing Agency",
    "description": "Advertising Agencies",
    "phone": "(310) 902-3246",
    "address": " 1001 N Orange Ave - Orlando, FL 32801",
    "location": "Lafayette"
  },
  {
    "dataYpid": "470291532",
    "name": "Reachlocal",
    "description": "Advertising Agencies",
    "phone": "(877) 525-6084",
    "address": " 1000 Legion Pl - Orlando, FL 32801",
    "location": "Lafayette"
  },
  {
    "dataYpid": "571994673",
    "name": "LocaliQ",
    "description": "Advertising Agencies",
    "phone": "(877) 525-6084",
    "address": " 1000 Legion Pl - Orlando, FL 32801",
    "location": "Lafayette"
  },
  {
    "dataYpid": "524110523",
    "name": "DigitalUs",
    "description": "Advertising Agencies",
    "phone": "(407) 930-8965",
    "address": " 800 N Magnolia Ave - Orlando, FL 32803",
    "location": "Lafayette"
  },
  {
    "dataYpid": "481575665",
    "name": "Dayner Hall Marketing & Advertising",
    "description": "Advertising Agencies",
    "phone": "(407) 206-1630",
    "address": " 621 E Pine St - Orlando, FL 32801",
    "location": "Lafayette"
  },
  {
    "dataYpid": "533941679",
    "name": "Bright Rain Advertising",
    "description": "Advertising Agencies",
    "phone": "(407) 440-3017",
    "address": " 733 W Smith St - Orlando, FL 32804",
    "location": "Lafayette"
  },
  {
    "dataYpid": "9018235",
    "name": "Fry-Hammond-Barr Inc",
    "description": "Advertising Agencies",
    "phone": "(407) 849-0100",
    "address": " 600 E Washington St - Orlando, FL 32801",
    "location": "Lafayette"
  },
  {
    "dataYpid": "480044647",
    "name": "Online Business Listings - BeListed.Org",
    "description": "Internet Marketing & Advertising",
    "phone": "(321) 710-3855",
    "address": " 2077 Central Florida Pkwy # 13 - Orlando, FL 32837",
    "location": "Lafayette"
  },
  {
    "dataYpid": "28782825",
    "name": "Planet Digital",
    "description": "Advertising Specialties",
    "phone": "(407) 896-7326",
    "address": " 701 E Washington St - Orlando, FL 32801",
    "location": "Lafayette"
  },
  {
    "dataYpid": "2074512",
    "name": "Artworks",
    "description": "Advertising Agencies",
    "phone": "(407) 843-2953",
    "address": " 609 Vassar St - Orlando, FL 32804",
    "location": "Lafayette"
  },
  {
    "dataYpid": "10390663",
    "name": "Muzak On Hold",
    "description": "Advertising Agencies",
    "phone": "(407) 859-1179",
    "address": " 8000 S Orange Ave - Orlando, FL 32809",
    "location": "Lafayette"
  },
  {
    "dataYpid": "4007874",
    "name": "Jackson Advertising Inc",
    "description": "Advertising Agencies",
    "phone": "(407) 849-9995",
    "address": " 912 Highland Ave - Orlando, FL 32803",
    "location": "Lafayette"
  },
  {
    "dataYpid": "504115900",
    "name": "The Genesis Group",
    "description": "Marketing Consultants",
    "phone": "(407) 879-1302",
    "address": " 1000 E Robinson St - Orlando, FL 32801",
    "location": "Lafayette"
  },
  {
    "dataYpid": "472497069",
    "name": "United Multi Service Group",
    "description": "Advertising Agencies",
    "phone": "(407) 377-1078",
    "address": " 2211 E Michigan St - Orlando, FL 32806",
    "location": "Lafayette"
  },
  {
    "dataYpid": "548275391",
    "name": "Chatter Buzz",
    "description": "Media Brokers",
    "phone": "(321) 236-2899",
    "address": " 1218 E Robinson St - Orlando, FL 32801",
    "location": "Lafayette"
  },
  {
    "dataYpid": "475342223",
    "name": "Orlando Design District",
    "description": "Advertising Agencies",
    "phone": "(407) 982-4360",
    "address": " 1225 N Orange Ave - Orlando, FL 32804",
    "location": "Lafayette"
  },
  {
    "dataYpid": "465694866",
    "name": "Authentic Momentum Social Media and SEO Firm",
    "description": "Advertising Agencies",
    "phone": "(407) 513-2817",
    "address": " 2 W Harvard St - Orlando, FL 32804",
    "location": "Lafayette"
  },
  {
    "dataYpid": "507793108",
    "name": "Standout Displays",
    "description": "Display Designers & Producers",
    "phone": "(407) 757-0615",
    "address": " 1600 Central Florida Pkwy - Orlando, FL 32837",
    "location": "Lafayette"
  },
  {
    "dataYpid": "541072994",
    "name": "Think Creative Inc",
    "description": "Marketing Programs & Services",
    "phone": "(407) 896-5757",
    "address": " 1011 E Colonial Dr Ste 407 - Orlando, FL 32803",
    "location": "Lafayette"
  },
  {
    "dataYpid": "19358631",
    "name": "Foresight Design Group In",
    "description": "Advertising Agencies",
    "phone": "(407) 895-0029",
    "address": " 1212 Mount Vernon St - Orlando, FL 32803",
    "location": "Lafayette"
  },
  {
    "dataYpid": "481262631",
    "name": "CGS Advertising Group Inc",
    "description": "Advertising Agencies",
    "phone": "(407) 316-8070",
    "address": " 1212 Mount Vernon St - Orlando, FL 32803",
    "location": "Lafayette"
  },
  {
    "dataYpid": "6064945",
    "name": "Hendersigns",
    "description": "Signs",
    "phone": "(407) 850-2636",
    "address": " 8811 S Orange Ave - Orlando, FL 32824",
    "location": "Lafayette"
  },
  {
    "dataYpid": "14237225",
    "name": "Corporate Design Associat",
    "description": "Advertising Agencies",
    "phone": "(407) 898-8838",
    "address": " 1231 Mount Vernon St - Orlando, FL 32803",
    "location": "Lafayette"
  },
  {
    "dataYpid": "470057640",
    "name": "Ultrabrite Led Signs",
    "description": "Signs",
    "phone": "(407) 349-7446",
    "address": " 1460 Gemini Blvd Ste 3 - Orlando, FL 32837",
    "location": "Lafayette"
  },
  {
    "dataYpid": "6849348",
    "name": "Studio Signs",
    "description": "Signs",
    "phone": "(407) 447-0783",
    "address": " 1462 Gemini Blvd - Orlando, FL 32837",
    "location": "Lafayette"
  },
  {
    "dataYpid": "527605275",
    "name": "AC Signs",
    "description": "Signs-Maintenance & Repair",
    "phone": "(407) 857-5564",
    "address": " 10201 Rocket Ct Ste 100 - Orlando, FL 32824",
    "location": "Lafayette"
  },
  {
    "dataYpid": "464848648",
    "name": "Db Internet Marketing Ser",
    "description": "Internet Marketing & Advertising",
    "phone": "(407) 896-0485",
    "address": " 1505 E Robinson St - Orlando, FL 32801",
    "location": "Lafayette"
  },
  {
    "dataYpid": "12044517",
    "name": "Graft Inc",
    "description": "Video Production Services",
    "phone": "(407) 895-1139",
    "address": " 812 N Thornton Ave - Orlando, FL 32803",
    "location": "Lafayette"
  },
  {
    "dataYpid": "495318865",
    "name": "WHOISCARRUS Advertising",
    "description": "Advertising Agencies",
    "phone": "(407) 477-2528",
    "address": " 416 N Ferncreek Ave Ste A - Orlando, FL 32803",
    "location": "Lafayette"
  },
  {
    "dataYpid": "14294319",
    "name": "Custom Designs",
    "description": "Advertising Specialties",
    "phone": "(407) 898-0373",
    "address": " 840 N Mills Ave - Orlando, FL 32803",
    "location": "Lafayette"
  },
  {
    "dataYpid": "573569223",
    "name": "Laughing Samurai",
    "description": "Advertising Agencies",
    "phone": "(407) 982-4350",
    "address": " 1637 E Robinson St - Orlando, FL 32803",
    "location": "Lafayette"
  },
  {
    "dataYpid": "503886348",
    "name": "Signal Outdoor Advertisin",
    "description": "Outdoor Advertising",
    "phone": "(407) 856-7079",
    "address": " 3740 All American Blvd - Orlando, FL 32810",
    "location": "Lafayette"
  },
  {
    "dataYpid": "541910466",
    "name": "Boldist",
    "description": "Web Site Design & Services",
    "phone": "(407) 982-4350",
    "address": " 1637 E Robinson St - Orlando, FL 32803",
    "location": "Lafayette"
  },
  {
    "dataYpid": "2525459",
    "name": "Reed Brennan Media Associates",
    "description": "Advertising Agencies",
    "phone": "(407) 894-7300",
    "address": " 628 Virginia Dr - Orlando, FL 32803",
    "location": "Lafayette"
  },
  {
    "dataYpid": "456840797",
    "name": "MC Laser Pro",
    "description": "Signs",
    "phone": "(407) 859-0201",
    "address": " 11753 S Orange Blossom Trl - Orlando, FL 32837",
    "location": "Lafayette"
  },
  {
    "dataYpid": "474965805",
    "name": "S E O M",
    "description": "Advertising Agencies",
    "phone": "(407) 203-1102",
    "address": " 1916 E Robinson St - Orlando, FL 32803",
    "location": "Lafayette"
  },
  {
    "dataYpid": "1867220",
    "name": "Say It Loud",
    "description": "Advertising Agencies",
    "phone": "(407) 898-7299",
    "address": " 1121 N Mills Ave - Orlando, FL 32803",
    "location": "Lafayette"
  },
  {
    "dataYpid": "464504931",
    "name": "Sillery & Partners",
    "description": "Advertising Agencies",
    "phone": "(407) 739-8875",
    "address": " 1121 N Mills Ave - Orlando, FL 32803",
    "location": "Lafayette"
  },
  {
    "dataYpid": "473149235",
    "name": "Visual Impact",
    "description": "Signs",
    "phone": "(407) 682-7446",
    "address": " 1311 W Fairbanks Ave - Orlando, FL 32804",
    "location": "Lafayette"
  },
  {
    "dataYpid": "16602875",
    "name": "Avanti International Enterprises Inc",
    "description": "Advertising Specialties",
    "phone": "(407) 590-9251",
    "address": " 11743 Cuxham Dr - Orlando, FL 32837",
    "location": "Lafayette"
  },
  {
    "dataYpid": "543277989",
    "name": "Ads",
    "description": "Advertising Agencies",
    "phone": "(407) 293-0293",
    "address": " 5722 N Pine Hills Rd - Orlando, FL 32810",
    "location": "Lafayette"
  },
  {
    "dataYpid": "482116568",
    "name": "DeTorres Group",
    "description": "Advertising Agencies",
    "phone": "(561) 703-2538",
    "address": " 2102 E Robinson St Ste 400 - Orlando, FL 32803",
    "location": "Lafayette"
  },
  {
    "dataYpid": "5656685",
    "name": "Sunbelt Signs",
    "description": "Signs",
    "phone": "(407) 532-5455",
    "address": " 3497 All American Blvd - Orlando, FL 32810",
    "location": "Lafayette"
  },
  {
    "dataYpid": "542052535",
    "name": "Businesspassion.Com",
    "description": "Advertising Agencies",
    "phone": "(407) 897-8180",
    "address": " 1043 N Shine Ave - Orlando, FL 32803",
    "location": "Lafayette"
  },
  {
    "dataYpid": "7221147",
    "name": "Ackerman McQueen",
    "description": "Advertising Agencies",
    "phone": "(407) 827-5355",
    "address": " 1675 E Buena Vista Dr - Orlando, FL 32830",
    "location": "Lafayette"
  },
  {
    "dataYpid": "547028352",
    "name": "Mongoose Media",
    "description": "Internet Marketing & Advertising",
    "phone": "(773) 791-4398",
    "address": " 236 N Glenwood Ave - Orlando, FL 32803",
    "location": "Lafayette"
  },
  {
    "dataYpid": "461872142",
    "name": "EASY MONEY MARKETING",
    "description": "Advertising Agencies",
    "phone": "(407) 443-2938",
    "address": " 2226 Bay Leaf Dr - Orlando, FL 32837",
    "location": "Lafayette"
  },
  {
    "dataYpid": "468644815",
    "name": "Whoiscarrus",
    "description": "Graphic Designers",
    "phone": "(407) 895-7001",
    "address": " 1041 N Ferncreek Ave - Orlando, FL 32803",
    "location": "Lafayette"
  },
  {
    "dataYpid": "533669184",
    "name": "Citrus Sign Studio",
    "description": "Advertising Agencies",
    "phone": "(321) 285-0730",
    "address": " 6110 Edgewater Dr Suite H - Orlando, FL 32810",
    "location": "Lafayette"
  },
  {
    "dataYpid": "457883331",
    "name": "CSCF Group",
    "description": "Business Plans Development",
    "phone": "(407) 234-4191",
    "address": " PO Box 568443 - Orlando, FL 32856",
    "location": "Lafayette"
  },
  {
    "dataYpid": "464534979",
    "name": "Switch Consulting Inc",
    "description": "Advertising Agencies",
    "phone": "(407) 252-4634",
    "address": " PO Box 677326 - Orlando, FL 32867",
    "location": "Lafayette"
  },
  {
    "dataYpid": "460151019",
    "name": "Capital Signs",
    "description": "Advertising Specialties",
    "phone": "(407) 293-2145",
    "address": " 6110 Edgewater Dr - Orlando, FL 32810",
    "location": "Lafayette"
  },
  {
    "dataYpid": "497510291",
    "name": "Ph3 Agency + Brewery",
    "description": "Advertising Specialties",
    "phone": "(321) 206-8771",
    "address": " 6140 Edgewater Dr Ste C - Orlando, FL 32810",
    "location": "Lafayette"
  },
  {
    "dataYpid": "544397518",
    "name": "The Sign Guys Orlando",
    "description": "Signs",
    "phone": "(407) 776-8256",
    "address": " 6192 Edgewater Dr - Orlando, FL 32810",
    "location": "Lafayette"
  },
  {
    "dataYpid": "467534625",
    "name": "Imarmedia INC",
    "description": "Internet Consultants",
    "phone": "(407) 803-5397",
    "address": " 10501 S Orange Ave Ste 112 - Orlando, FL 32824",
    "location": "Lafayette"
  },
  {
    "dataYpid": "460692218",
    "name": "SEO Pros Orlando Marketing",
    "description": "Computer Online Services",
    "phone": "(407) 490-4106",
    "address": " 1415 Bodell Ln - Orlando, FL 32803",
    "location": "Lafayette"
  },
  {
    "dataYpid": "460706067",
    "name": "Target Classifieds",
    "description": "Advertising Agencies",
    "phone": "(407) 581-9234",
    "address": " 2816 E Robinson St - Orlando, FL 32803",
    "location": "Lafayette"
  },
  {
    "dataYpid": "475949338",
    "name": "Aerial Messages Inc",
    "description": "Advertising-Aerial",
    "phone": "(855) 474-4865",
    "address": " 2816 E Robinson St - Orlando, FL 32803",
    "location": "Lafayette"
  },
  {
    "dataYpid": "482921397",
    "name": "Jimnez & Carrillo",
    "description": "Advertising Agencies",
    "phone": "(407) 228-2080",
    "address": " 2816 E Robinson St - Orlando, FL 32803",
    "location": "Lafayette"
  },
  {
    "dataYpid": "505124589",
    "name": "Vital Signs of Orlando Inc",
    "description": "Signs",
    "phone": "(407) 297-0680",
    "address": " 7806 N Orange Blossom Trl - Orlando, FL 32810",
    "location": "Lafayette"
  },
  {
    "dataYpid": "464931772",
    "name": "Acropolis Inc",
    "description": "Advertising Agencies",
    "phone": "(407) 895-4444",
    "address": " 5125 Adanson St Ste 200 - Orlando, FL 32804",
    "location": "Lafayette"
  },
  {
    "dataYpid": "560987712",
    "name": "Fyrone Digital Solutions",
    "description": "Advertising Agencies",
    "phone": "(407) 580-9962",
    "address": " 1801 Snaresbrook Way - Orlando, FL 32837",
    "location": "Lafayette"
  },
  {
    "dataYpid": "455913642",
    "name": "Alfa Romeo Distributors",
    "description": "Advertising Specialties",
    "phone": "(407) 856-5000",
    "address": " 1500 Tradeport Dr Ste B - Orlando, FL 32824",
    "location": "Lafayette"
  },
  {
    "dataYpid": "28803730",
    "name": "Global Marketing Ent",
    "description": "Advertising Agencies",
    "phone": "(407) 298-2480",
    "address": " 5554 Burlwood Dr - Orlando, FL 32810",
    "location": "Lafayette"
  },
  {
    "dataYpid": "548195264",
    "name": "Wargo Works",
    "description": "Marketing Programs & Services",
    "phone": "(407) 917-0841",
    "address": " 3012 Plaza Terrace Dr - Orlando, FL 32803",
    "location": "Lafayette"
  },
  {
    "dataYpid": "483145817",
    "name": "for Rent Media Solutions",
    "description": "Advertising Agencies",
    "phone": "(407) 297-0832",
    "address": " 3165 Mccrory Pl - Orlando, FL 32803",
    "location": "Lafayette"
  },
  {
    "dataYpid": "462501297",
    "name": "Omar_Gutierrez",
    "description": "Advertising Specialties",
    "phone": "(407) 965-7253",
    "address": " 3479 Prairie Fox Ln - Orlando, FL 32812",
    "location": "Lafayette"
  },
  {
    "dataYpid": "527904113",
    "name": "Bigeye",
    "description": "Advertising Agencies",
    "phone": "(407) 839-8599",
    "address": " 3203 Lawton Rd - Orlando, FL 32803",
    "location": "Lafayette"
  },
  {
    "dataYpid": "563825782",
    "name": "Luma & Leaf",
    "description": "Advertising Agencies",
    "phone": "(407) 839-8599",
    "address": " 3203 Lawton Rd - Orlando, FL 32803",
    "location": "Lafayette"
  },
  {
    "dataYpid": "6664405",
    "name": "Monster Media",
    "description": "Advertising Agencies",
    "phone": "(407) 478-8163",
    "address": " 555 S Lake Destiny Dr Suite 100 - Orlando, FL 32810",
    "location": "Lafayette"
  },
  {
    "dataYpid": "516685688",
    "name": "Central Graphics",
    "description": "Signs",
    "phone": "(407) 877-4781",
    "address": " 417 S Dillard St - Winter Garden, FL 34787",
    "location": "Lafayette"
  },
  {
    "dataYpid": "6535110",
    "name": "Daily Graphics and Design",
    "description": "Graphic Designers",
    "phone": "(407) 877-7222",
    "address": " Po Box 770430 - Winter Garden, FL 34777",
    "location": "Lafayette"
  },
  {
    "dataYpid": "464279695",
    "name": "Jose Aldamuy Advertising",
    "description": "Advertising Agencies",
    "phone": "(407) 877-8451",
    "address": " 102 W Story Rd - Winter Garden, FL 34787",
    "location": "Lafayette"
  },
  {
    "dataYpid": "6306999",
    "name": "Alarie Design Associates Inc",
    "description": "Graphic Designers",
    "phone": "(407) 656-8879",
    "address": " 260 E Plant St - Winter Garden, FL 34787",
    "location": "Lafayette"
  },
  {
    "dataYpid": "677398",
    "name": "Anonymous Productions",
    "description": "Advertising Agencies",
    "phone": "(407) 654-9090",
    "address": " 130 S Main St - Winter Garden, FL 34787",
    "location": "Lafayette"
  },
  {
    "dataYpid": "552118485",
    "name": "My Website Spot - Winter Garden Web Design & SEO",
    "description": "Web Site Design & Services",
    "phone": "(407) 499-4008",
    "address": " 2968 Irish Peach Dr - Winter Garden, FL 34787",
    "location": "Lafayette"
  },
  {
    "dataYpid": "576279869",
    "name": "My Website Spot-Custom Tailored Web Design",
    "description": "Web Site Design & Services",
    "phone": "(407) 499-4008",
    "address": " 2968 Irish Peach Dr - Winter Garden, FL 34787",
    "location": "Lafayette"
  },
  {
    "dataYpid": "467639041",
    "name": "Plan A Pr Marketing Inc",
    "description": "Marketing Consultants",
    "phone": "(407) 905-0608",
    "address": " 132 W Plant St - Winter Garden, FL 34787",
    "location": "Lafayette"
  },
  {
    "dataYpid": "465706899",
    "name": "Vidaroo Corp",
    "description": "Advertising Agencies",
    "phone": "(321) 293-3360",
    "address": " 8 N Highland Ave - Winter Garden, FL 34787",
    "location": "Lafayette"
  },
  {
    "dataYpid": "568301026",
    "name": "Nicholas Prowse",
    "description": "Advertising Specialties",
    "phone": "(973) 886-7138",
    "address": " 2476 Sweet Viburnum Way - Ocoee, FL 34761",
    "location": "Lafayette"
  },
  {
    "dataYpid": "566481293",
    "name": "Fourcolor.net",
    "description": "Printing Services-Commercial",
    "phone": "(407) 877-7222",
    "address": " 1308 Vic Kay Ct - Winter Garden, FL 34787",
    "location": "Lafayette"
  },
  {
    "dataYpid": "561600686",
    "name": "Graphix Wizard Inc",
    "description": "Lithographers",
    "phone": "(407) 656-9742",
    "address": " 308 Valencia Ct - Winter Garden, FL 34787",
    "location": "Lafayette"
  },
  {
    "dataYpid": "22828175",
    "name": "Lawyers Group Advertising",
    "description": "Advertising Agencies",
    "phone": "(321) 972-5620",
    "address": " 2729 W Fairbanks Ave - Winter Park, FL 32789",
    "location": "Lafayette"
  },
  {
    "dataYpid": "454854720",
    "name": "Apopka Ink",
    "description": "Advertising Specialties",
    "phone": "(407) 299-0246",
    "address": " 2864 Clark St - Apopka, FL 32703",
    "location": "Lafayette"
  },
  {
    "dataYpid": "15846515",
    "name": "Com Marketing",
    "description": "Internet Marketing & Advertising",
    "phone": "(407) 774-4606",
    "address": " 400 N Wymore Rd - Winter Park, FL 32789",
    "location": "Lafayette"
  },
  {
    "dataYpid": "11082888",
    "name": "Ad Satisfaction",
    "description": "Advertising Agencies",
    "phone": "(407) 862-1228",
    "address": " 580 Ololu Dr - Winter Park, FL 32789",
    "location": "Lafayette"
  },
  {
    "dataYpid": "8856052",
    "name": "Hth Signs",
    "description": "Signs",
    "phone": "(407) 629-0012",
    "address": " 711 Jackson Ave - Winter Park, FL 32789",
    "location": "Lafayette"
  },
  {
    "dataYpid": "499488136",
    "name": "On Street Media",
    "description": "Advertising Specialties",
    "phone": "(407) 571-2144",
    "address": " 707 Nicolet Ave - Winter Park, FL 32789",
    "location": "Lafayette"
  },
  {
    "dataYpid": "17762937",
    "name": "Ken Bowser Design & Illustration",
    "description": "Commercial Artists",
    "phone": "(407) 644-9888",
    "address": " 922 Camellia Ave - Winter Park, FL 32789",
    "location": "Lafayette"
  },
  {
    "dataYpid": "513296406",
    "name": "CBS Outdoor",
    "description": "Signs",
    "phone": "(407) 975-0216",
    "address": " 2699 Lee Rd - Winter Park, FL 32789",
    "location": "Lafayette"
  },
  {
    "dataYpid": "543599042",
    "name": "The Brandon Agency",
    "description": "Advertising Agencies",
    "phone": "(843) 916-2000",
    "address": " 1477 W Fairbanks Ave - Winter Park, FL 32789",
    "location": "Lafayette"
  },
  {
    "dataYpid": "544366516",
    "name": "Tba Outdoors",
    "description": "Advertising Specialties",
    "phone": "(843) 916-2000",
    "address": " 1477 W Fairbanks Ave - Winter Park, FL 32789",
    "location": "Lafayette"
  },
  {
    "dataYpid": "10447429",
    "name": "Cash Stream Recovery",
    "description": "Advertising Agencies",
    "phone": "(407) 478-3785",
    "address": " 1290 Palmetto Ave - Winter Park, FL 32789",
    "location": "Lafayette"
  },
  {
    "dataYpid": "465677667",
    "name": "M Two Enterprises Inc",
    "description": "Advertising Agencies",
    "phone": "(407) 622-6224",
    "address": " 1400 W Fairbanks Ave Ste 101 - Winter Park, FL 32789",
    "location": "Lafayette"
  },
  {
    "dataYpid": "8256547",
    "name": "Chloe Lane",
    "description": "Embroidery",
    "phone": "(407) 644-3007",
    "address": " 839 S Orlando Ave - Winter Park, FL 32789",
    "location": "Lafayette"
  },
  {
    "dataYpid": "16221951",
    "name": "Hooah",
    "description": "Advertising Agencies",
    "phone": "(407) 362-7715",
    "address": " 807 S Orlando Ave - Winter Park, FL 32789",
    "location": "Lafayette"
  },
  {
    "dataYpid": "3981666",
    "name": "My Online Neighborhood",
    "description": "Advertising Specialties",
    "phone": "(800) 470-8730",
    "address": " 805 S Orlando Ave Ste J - Winter Park, FL 32789",
    "location": "Lafayette"
  },
  {
    "dataYpid": "574302339",
    "name": "Dat Media",
    "description": "Advertising Agencies",
    "phone": "(407) 759-5717",
    "address": " 2307 Lee Rd - Winter Park, FL 32789",
    "location": "Lafayette"
  },
  {
    "dataYpid": "7513510",
    "name": "Figment Signs & Vehicle Graphics",
    "description": "Advertising Specialties",
    "phone": "(321) 299-3831",
    "address": " 3956 W Town Center Blvd - Orlando, FL 32837",
    "location": "Lafayette"
  },
  {
    "dataYpid": "15534953",
    "name": "Signman Sez Inc",
    "description": "Signs",
    "phone": "(407) 898-5757",
    "address": " 3122 Corrine Dr - Orlando, FL 32803",
    "location": "Lafayette"
  },
  {
    "dataYpid": "14193793",
    "name": "Manic Images",
    "description": "Signs",
    "phone": "(407) 282-6561",
    "address": " 3851 Gatlin Ridge Dr - Orlando, FL 32812",
    "location": "Lafayette"
  },
  {
    "dataYpid": "530440924",
    "name": "Absolute Exhibits, Inc.",
    "description": "Trade Shows, Expositions & Fairs",
    "phone": "(407) 563-2595",
    "address": " 7297 S Conway Rd #900 - Orlando, FL 32812",
    "location": "Lafayette"
  },
  {
    "dataYpid": "8527956",
    "name": "Promo Only",
    "description": "Advertising Agencies",
    "phone": "(407) 838-2030",
    "address": " 257 S Lake Destiny Dr - Orlando, FL 32810",
    "location": "Lafayette"
  },
  {
    "dataYpid": "468129025",
    "name": "Mmgy Global",
    "description": "Marketing Programs & Services",
    "phone": "(407) 875-1111",
    "address": " 423 S Keller Rd Ste 100 - Orlando, FL 32810",
    "location": "Lafayette"
  },
  {
    "dataYpid": "7362125",
    "name": "Eclipse Studio",
    "description": "Signs",
    "phone": "(407) 353-0163",
    "address": " 5130 Curry Ford Rd - Orlando, FL 32812",
    "location": "Lafayette"
  },
  {
    "dataYpid": "3163143",
    "name": "Afforfdable Signs Of Central Florida",
    "description": "Signs",
    "phone": "(407) 299-1288",
    "address": " 8601 Forest City Rd - Orlando, FL 32810",
    "location": "Lafayette"
  },
  {
    "dataYpid": "503195208",
    "name": "Constituent Works Corp",
    "description": "Internet Marketing & Advertising",
    "phone": "(407) 270-4981",
    "address": " 14037 Fairway Island Dr - Orlando, FL 32837",
    "location": "Lafayette"
  },
  {
    "dataYpid": "498278723",
    "name": "Leda Group Inc",
    "description": "Advertising Specialties",
    "phone": "(407) 466-4114",
    "address": " 3674 Ocita Dr - Orlando, FL 32837",
    "location": "Lafayette"
  },
  {
    "dataYpid": "15999111",
    "name": "Reliable Experts Consulting",
    "description": "Advertising Agencies",
    "phone": "(321) 206-8881",
    "address": " 1800 Pembrook Dr - Orlando, FL 32810",
    "location": "Lafayette"
  },
  {
    "dataYpid": "453341715",
    "name": "Stadler-Green Advertising",
    "description": "Advertising Agencies",
    "phone": "(407) 667-4800",
    "address": " 1800 Pembrook Dr - Orlando, FL 32810",
    "location": "Lafayette"
  },
  {
    "dataYpid": "28861988",
    "name": "Hubner & Prado Corp",
    "description": "Advertising Agencies",
    "phone": "(407) 851-6060",
    "address": " 1537 Nestlewood Trl - Orlando, FL 32837",
    "location": "Lafayette"
  },
  {
    "dataYpid": "28860128",
    "name": "Tom Goetschius Seminar",
    "description": "Advertising Agencies",
    "phone": "(407) 826-0736",
    "address": " 3636 Molona Dr - Orlando, FL 32837",
    "location": "Lafayette"
  },
  {
    "dataYpid": "471839334",
    "name": "Perry Becker De Sign",
    "description": "Advertising Specialties",
    "phone": "(407) 960-4850",
    "address": " 4096 Wardell Pl - Orlando, FL 32814",
    "location": "Lafayette"
  },
  {
    "dataYpid": "537981525",
    "name": "Creative Why",
    "description": "Marketing Programs & Services",
    "phone": "(407) 601-3358",
    "address": " 4767 New Broad St - Orlando, FL 32814",
    "location": "Lafayette"
  },
  {
    "dataYpid": "534496203",
    "name": "Credit Upgrade Services",
    "description": "Advertising Agencies",
    "phone": "(407) 745-9007",
    "address": " 5815 Saint Charles Prado - Orlando, FL 32822",
    "location": "Lafayette"
  },
  {
    "dataYpid": "28870154",
    "name": "Dabbs Advertising",
    "description": "Advertising Agencies",
    "phone": "(407) 240-7096",
    "address": " 2714 Lone Feather Dr - Orlando, FL 32837",
    "location": "Lafayette"
  },
  {
    "dataYpid": "551090793",
    "name": "Synect",
    "description": "Advertising Agencies",
    "phone": "(407) 985-2547",
    "address": " 5752 S Semoran Blvd - Orlando, FL 32822",
    "location": "Lafayette"
  },
  {
    "dataYpid": "28707411",
    "name": "Ad Services & Consulting Inc",
    "description": "Advertising Agencies",
    "phone": "(407) 851-5529",
    "address": " 1835 Derby Glen Dr - Orlando, FL 32837",
    "location": "Lafayette"
  },
  {
    "dataYpid": "494996791",
    "name": "Creative Imaging Limited",
    "description": "Lithographers",
    "phone": "(813) 546-3558",
    "address": " 1618 Hookbill Ct - Orlando, FL 32837",
    "location": "Lafayette"
  },
  {
    "dataYpid": "513181852",
    "name": "MakeSense Advertising",
    "description": "Directory & Guide Advertising",
    "phone": "(407) 255-2515",
    "address": " 5027 Commander Dr - Orlando, FL 32822",
    "location": "Lafayette"
  },
  {
    "dataYpid": "531874312",
    "name": "All the way up Advertising & Promotions",
    "description": "Outdoor Advertising",
    "phone": "(585) 448-6804",
    "address": " 5969 Lee Vista Blvd - Orlando, FL 32822",
    "location": "Lafayette"
  },
  {
    "dataYpid": "469281379",
    "name": "Just Yard Signs",
    "description": "Signs",
    "phone": "(407) 401-9835",
    "address": " 4880 Distribution Ct - Orlando, FL 32822",
    "location": "Lafayette"
  },
  {
    "dataYpid": "22217446",
    "name": "Graphic Color Design Inc",
    "description": "Computer Graphics",
    "phone": "(407) 420-7989",
    "address": " 4701 Distribution Ct Ste 6 - Orlando, FL 32822",
    "location": "Lafayette"
  },
  {
    "dataYpid": "545370981",
    "name": "Fresh Ink",
    "description": "Advertising Specialties",
    "phone": "(407) 412-5905",
    "address": " 4729 Patch Rd - Orlando, FL 32822",
    "location": "Lafayette"
  },
  {
    "dataYpid": "502946454",
    "name": "Public Promotion Innovations Inc",
    "description": "Advertising Agencies",
    "phone": "(407) 930-0982",
    "address": " 6650 Hoffner Ave - Orlando, FL 32822",
    "location": "Lafayette"
  },
  {
    "dataYpid": "469667299",
    "name": "Asea",
    "description": "Advertising Agencies",
    "phone": "(407) 275-6518",
    "address": " 422 Southern Charm Dr - Orlando, FL 32807",
    "location": "Lafayette"
  },
  {
    "dataYpid": "458058536",
    "name": "Brandcomet",
    "description": "Advertising Agencies",
    "phone": "(407) 622-1993",
    "address": " 465 S Orlando Ave - Maitland, FL 32751",
    "location": "Lafayette"
  },
  {
    "dataYpid": "530775889",
    "name": "Conectar Agency Inc",
    "description": "Advertising Agencies",
    "phone": "(407) 801-0046",
    "address": " 1620 S Orlando Ave - Maitland, FL 32751",
    "location": "Lafayette"
  },
  {
    "dataYpid": "21801118",
    "name": "Elite Signs & Graphics",
    "description": "Signs",
    "phone": "(407) 898-0111",
    "address": " 240 N Orlando Ave - Winter Park, FL 32789",
    "location": "Lafayette"
  },
  {
    "dataYpid": "454872655",
    "name": "Custom signs & Embroidery LLC",
    "description": "Advertising Specialties",
    "phone": "(407) 396-9868",
    "address": " 5405 W Irlo Bronson Memorial Hwy - Kissimmee, FL 34746",
    "location": "Lafayette"
  },
  {
    "dataYpid": "467233753",
    "name": "Yellow Pages of Central Florida",
    "description": "Publishers-Directory & Guide",
    "phone": "(407) 667-4745",
    "address": " 101 Southhall Ln - Maitland, FL 32751",
    "location": "Lafayette"
  },
  {
    "dataYpid": "13502181",
    "name": "Continental Outdoor Advertising",
    "description": "Outdoor Advertising",
    "phone": "(407) 628-9988",
    "address": " 2250 Lee Rd - Winter Park, FL 32789",
    "location": "Lafayette"
  },
  {
    "dataYpid": "20269535",
    "name": "Logogram",
    "description": "Advertising Agencies",
    "phone": "(407) 740-5511",
    "address": " 2250 Lee Rd - Winter Park, FL 32789",
    "location": "Lafayette"
  },
  {
    "dataYpid": "504624082",
    "name": "Corporate Relations Group Inc",
    "description": "Advertising Agencies",
    "phone": "(407) 628-5700",
    "address": " 2649 Pemberton Dr - Apopka, FL 32703",
    "location": "Lafayette"
  },
  {
    "dataYpid": "3663122",
    "name": "Stalder Green Advertising",
    "description": "Advertising Agencies",
    "phone": "(407) 645-1113",
    "address": " 1101 N Kentucky Ave - Winter Park, FL 32789",
    "location": "Lafayette"
  },
  {
    "dataYpid": "483911438",
    "name": "MARSH8",
    "description": "Internet Marketing & Advertising",
    "phone": "(407) 255-2064",
    "address": " 2221 Lee Rd Ste 22 - Winter Park, FL 32789",
    "location": "Lafayette"
  },
  {
    "dataYpid": "462423031",
    "name": "Vital Signs Of Orlando Inc",
    "description": "Signs",
    "phone": "(407) 297-0680",
    "address": " 2674 Pemberton Dr - Apopka, FL 32703",
    "location": "Lafayette"
  },
  {
    "dataYpid": "521068714",
    "name": "Fifty & Five-Marketing Agency",
    "description": "Advertising Agencies",
    "phone": "(407) 745-5568",
    "address": " 227 S Orlando Ave - Winter Park, FL 32789",
    "location": "Lafayette"
  },
  {
    "dataYpid": "479360055",
    "name": "Ace Custom Signs of Winter Park Inc",
    "description": "Signs",
    "phone": "(407) 645-0977",
    "address": " 922 Orange Ave - Winter Park, FL 32789",
    "location": "Lafayette"
  },
  {
    "dataYpid": "574378653",
    "name": "Laughing Samura I",
    "description": "Advertising Agencies",
    "phone": "(321) 972-8660",
    "address": " 900 Orange Ave - Winter Park, FL 32789",
    "location": "Lafayette"
  },
  {
    "dataYpid": "464517656",
    "name": "Contemporary Management Solutions",
    "description": "Advertising Agencies",
    "phone": "(407) 644-7214",
    "address": " 251 Oakwood Way - Winter Park, FL 32789",
    "location": "Lafayette"
  },
  {
    "dataYpid": "551775840",
    "name": "RSVP Orlando",
    "description": "Direct Mail Advertising",
    "phone": "(407) 868-1741",
    "address": " 641 W Fairbanks Ave - Winter Park, FL 32789",
    "location": "Lafayette"
  },
  {
    "dataYpid": "464532267",
    "name": "Integrated Marketing Solutions",
    "description": "Marketing Programs & Services",
    "phone": "(407) 636-7200",
    "address": " 641 W Fairbanks Ave Ste 220 - Winter Park, FL 32789",
    "location": "Lafayette"
  },
  {
    "dataYpid": "504518896",
    "name": "Marketing Sales Dynamics Inc",
    "description": "Marketing Consultants",
    "phone": "(321) 203-4728",
    "address": " 629 Ellen Dr - Winter Park, FL 32789",
    "location": "Lafayette"
  },
  {
    "dataYpid": "467563518",
    "name": "Full Moon Productions",
    "description": "Directory & Guide Advertising",
    "phone": "(407) 389-0085",
    "address": " 861 W Morse Blvd - Winter Park, FL 32789",
    "location": "Lafayette"
  },
  {
    "dataYpid": "466987722",
    "name": "Bonnier Corporation",
    "description": "Publishers",
    "phone": "(407) 628-4802",
    "address": " 480 N Orlando Ave 236 - Winter Park, FL 32789",
    "location": "Lafayette"
  },
  {
    "dataYpid": "508739512",
    "name": "OMG Marketing",
    "description": "Marketing Programs & Services",
    "phone": "(407) 690-6690",
    "address": " 520 N Orlando Ave Ste 205 - Winter Park, FL 32789",
    "location": "Lafayette"
  },
  {
    "dataYpid": "467476435",
    "name": "Marketing Configurations",
    "description": "Advertising Agencies",
    "phone": "(407) 788-7538",
    "address": " 640 Douglas Ave - Winter Park, FL 32789",
    "location": "Lafayette"
  },
  {
    "dataYpid": "459299211",
    "name": "National Ad Mark Corporation",
    "description": "Advertising Agencies",
    "phone": "(407) 660-6684",
    "address": " 101 Southhall Ln - Maitland, FL 32751",
    "location": "Lafayette"
  },
  {
    "dataYpid": "7736710",
    "name": "The Ad Team",
    "description": "Advertising Agencies",
    "phone": "(407) 667-4708",
    "address": " 101 Southhall Ln - Maitland, FL 32751",
    "location": "Lafayette"
  },
  {
    "dataYpid": "475634674",
    "name": "Evolve Design Group",
    "description": "Marketing Programs & Services",
    "phone": "(407) 420-1234",
    "address": " 444 W New England Ave Ste 114 - Winter Park, FL 32789",
    "location": "Lafayette"
  },
  {
    "dataYpid": "513819038",
    "name": "Sonobi",
    "description": "Advertising Agencies",
    "phone": "(386) 320-5400",
    "address": " 444 W New England Ave - Winter Park, FL 32789",
    "location": "Lafayette"
  },
  {
    "dataYpid": "561707184",
    "name": "Purple Rock Sci Ssors",
    "description": "Advertising Agencies",
    "phone": "(407) 951-5934",
    "address": " 271 N Pennsylvania Ave - Winter Park, FL 32789",
    "location": "Lafayette"
  },
  {
    "dataYpid": "460538781",
    "name": "R & D",
    "description": "Advertising Specialties",
    "phone": "(407) 702-6655",
    "address": " 174 W Comstock Ave - Winter Park, FL 32789",
    "location": "Lafayette"
  },
  {
    "dataYpid": "12494766",
    "name": "Grb Enterprises",
    "description": "Advertising Agencies",
    "phone": "(407) 644-1612",
    "address": " 1150 Grove St - Maitland, FL 32751",
    "location": "Lafayette"
  },
  {
    "dataYpid": "445838",
    "name": "Anson Stoner",
    "description": "Marketing Programs & Services",
    "phone": "(407) 629-9484",
    "address": " 111 E Fairbanks Ave - Winter Park, FL 32789",
    "location": "Lafayette"
  },
  {
    "dataYpid": "545973120",
    "name": "Sydgan",
    "description": "Advertising Specialties",
    "phone": "(407) 644-3151",
    "address": " 120 Gem Lake Dr - Maitland, FL 32751",
    "location": "Lafayette"
  },
  {
    "dataYpid": "12770074",
    "name": "Nscope Multimedia",
    "description": "Advertising Agencies",
    "phone": "(407) 704-3640",
    "address": " 877 Grand Regency Pointe Unit 105 - Altamonte Springs, FL 32714",
    "location": "Lafayette"
  },
  {
    "dataYpid": "532764579",
    "name": "J W Berry Signs Inc",
    "description": "Signs",
    "phone": "(407) 628-1647",
    "address": " 151 S New York Ave - Winter Park, FL 32789",
    "location": "Lafayette"
  },
  {
    "dataYpid": "550196612",
    "name": "Sosocial.Com",
    "description": "Advertising Agencies",
    "phone": "(407) 628-0020",
    "address": " 151 S New York Ave - Winter Park, FL 32789",
    "location": "Lafayette"
  },
  {
    "dataYpid": "556418500",
    "name": "Envision Orlando",
    "description": "Signs",
    "phone": "(407) 951-5532",
    "address": " 1150 Solana Ave - Winter Park, FL 32789",
    "location": "Lafayette"
  },
  {
    "dataYpid": "561638977",
    "name": "Vantage Advertising Trade Show",
    "description": "Advertising Agencies",
    "phone": "(315) 350-3058",
    "address": " 6000 W Osceola Pkwy - Kissimmee, FL 34746",
    "location": "Lafayette"
  },
  {
    "dataYpid": "15477787",
    "name": "Jane Newnum and Associates",
    "description": "Advertising Agencies",
    "phone": "(407) 647-0442",
    "address": " 2107 N Park Ave - Winter Park, FL 32789",
    "location": "Lafayette"
  },
  {
    "dataYpid": "468645939",
    "name": "Winning Formula Marketing LLC",
    "description": "Internet Consultants",
    "phone": "(407) 928-9173",
    "address": " 555 Winderley Pl - Maitland, FL 32751",
    "location": "Lafayette"
  },
  {
    "dataYpid": "451040946",
    "name": "Patterson Bach Communications",
    "description": "Marketing Programs & Services",
    "phone": "(407) 645-1880",
    "address": " 2600 Maitland Center Pkwy Ste 360 - Maitland, FL 32751",
    "location": "Lafayette"
  },
  {
    "dataYpid": "464520871",
    "name": "US Associates Bright Hse Network",
    "description": "Advertising Agencies",
    "phone": "(407) 951-7254",
    "address": " 2600 Maitland Center Pkwy Ste 295 - Maitland, FL 32751",
    "location": "Lafayette"
  },
  {
    "dataYpid": "28674912",
    "name": "Comprehensive HR Solutions",
    "description": "Advertising Agencies",
    "phone": "(407) 578-8399",
    "address": " 696 Oak Hollow Way - Altamonte Springs, FL 32714",
    "location": "Lafayette"
  },
  {
    "dataYpid": "10972264",
    "name": "MLB Creative",
    "description": "Advertising Agencies",
    "phone": "(407) 645-4652",
    "address": " 1778 N Park Ave Ste 100 - Maitland, FL 32751",
    "location": "Lafayette"
  },
  {
    "dataYpid": "14601657",
    "name": "Graphic Marketing",
    "description": "Marketing Programs & Services",
    "phone": "(407) 647-8999",
    "address": " 941 N Pennsylvania Ave - Winter Park, FL 32789",
    "location": "Lafayette"
  },
  {
    "dataYpid": "459534532",
    "name": "Cutting Edge Communications",
    "description": "Advertising Agencies",
    "phone": "(407) 629-6366",
    "address": " 1300 Lyndale Blvd - Winter Park, FL 32789",
    "location": "Lafayette"
  },
  {
    "dataYpid": "454917756",
    "name": "Kingsland Henry & Assoc",
    "description": "Advertising Agencies",
    "phone": "(407) 629-0244",
    "address": " 284 N Park Ave - Winter Park, FL 32789",
    "location": "Lafayette"
  },
  {
    "dataYpid": "7519813",
    "name": "Designage",
    "description": "Signs",
    "phone": "(407) 647-2950",
    "address": " 311 Circle Dr - Maitland, FL 32751",
    "location": "Lafayette"
  },
  {
    "dataYpid": "7290332",
    "name": "Beech Outdoor",
    "description": "Transit Advertising",
    "phone": "(407) 645-2210",
    "address": " 291 Circle Dr - Maitland, FL 32751",
    "location": "Lafayette"
  },
  {
    "dataYpid": "558974561",
    "name": "iHeartMedia",
    "description": "Advertising Agencies",
    "phone": "(407) 916-7800",
    "address": " 2500 Maitland Center Pkwy - Maitland, FL 32751",
    "location": "Lafayette"
  },
  {
    "dataYpid": "6897150",
    "name": "Bbdo South Orlando",
    "description": "Advertising Specialties",
    "phone": "(407) 865-9393",
    "address": " 557 N Wymore Rd - Maitland, FL 32751",
    "location": "Lafayette"
  },
  {
    "dataYpid": "464244820",
    "name": "Fuera De Serie",
    "description": "Advertising Agencies",
    "phone": "(407) 507-5804",
    "address": " 2949 Vineland Rd - Kissimmee, FL 34746",
    "location": "Lafayette"
  },
  {
    "dataYpid": "505531394",
    "name": "Jerry Defalco Advertising",
    "description": "Advertising Agencies",
    "phone": "(407) 661-3131",
    "address": " 1060 Maitland Center Commons Blvd Ste 410 - Maitland, FL 32751",
    "location": "Lafayette"
  },
  {
    "dataYpid": "497027339",
    "name": "All Express Signs",
    "description": "Signs",
    "phone": "(407) 507-2635",
    "address": " 2930 Vineland Rd - Kissimmee, FL 34746",
    "location": "Lafayette"
  },
  {
    "dataYpid": "461647870",
    "name": "Maxmeda Outdoor Advertising",
    "description": "Advertising Agencies",
    "phone": "(407) 716-6547",
    "address": " 847 Golfview Ter - Winter Park, FL 32789",
    "location": "Lafayette"
  },
  {
    "dataYpid": "464532279",
    "name": "Abel Communications",
    "description": "Advertising Specialties",
    "phone": "(407) 539-3994",
    "address": " PO Box 146 - Winter Park, FL 32790",
    "location": "Lafayette"
  },
  {
    "dataYpid": "461093730",
    "name": "The Vacation Home Guy",
    "description": "Property Maintenance",
    "phone": "(407) 385-8022",
    "address": " 1101 Miranda Ln Ste 131 - Kissimmee, FL 34741",
    "location": "Lafayette"
  },
  {
    "dataYpid": "553395059",
    "name": "TKO-Terry/Kane Orlando Inc",
    "description": "Advertising Agencies",
    "phone": "(407) 649-8730",
    "address": " 1051 Winderley Pl - Maitland, FL 32751",
    "location": "Lafayette"
  },
  {
    "dataYpid": "19746378",
    "name": "Khan & Sons T's",
    "description": "Signs",
    "phone": "(407) 396-9868",
    "address": " 5405 W Irlo Bronson Memorial Hwy - Kissimmee, FL 34746",
    "location": "Lafayette"
  },
  {
    "dataYpid": "453348359",
    "name": "Uni International Company",
    "description": "Advertising Agencies",
    "phone": "(407) 390-1825",
    "address": " 5407 W Irlo Bronson Memorial Hwy - Kissimmee, FL 34746",
    "location": "Lafayette"
  },
  {
    "dataYpid": "17879683",
    "name": "Carlson Co",
    "description": "Advertising Agencies",
    "phone": "(407) 397-1040",
    "address": " 5034 W Irlo Bronson Memorial Hwy - Kissimmee, FL 34746",
    "location": "Lafayette"
  },
  {
    "dataYpid": "480049759",
    "name": "Total Business & Marketing Solutions",
    "description": "Marketing Programs & Services",
    "phone": "(407) 584-7703",
    "address": " 4924 W Irlo Bronson Memorial Hwy - Kissimmee, FL 34746",
    "location": "Lafayette"
  },
  {
    "dataYpid": "543433367",
    "name": "Affordable Advertising Kempf",
    "description": "Advertising Agencies",
    "phone": "(407) 239-1105",
    "address": " 5300 W Irlo Bronson Memorial Hwy - Kissimmee, FL 34746",
    "location": "Lafayette"
  },
  {
    "dataYpid": "475676756",
    "name": "Florida Apartment Assn",
    "description": "Advertising Agencies",
    "phone": "(407) 647-8839",
    "address": " 875 Concourse Pkwy S - Maitland, FL 32751",
    "location": "Lafayette"
  },
  {
    "dataYpid": "15800642",
    "name": "Dominion Enterprises",
    "description": "Advertising Agencies",
    "phone": "(407) 673-3466",
    "address": " 901 N Lake Destiny Rd - Maitland, FL 32751",
    "location": "Lafayette"
  },
  {
    "dataYpid": "549934129",
    "name": "Wilcox & Associates Inc",
    "description": "Advertising Agencies",
    "phone": "(407) 629-6746",
    "address": " 540 S Maitland Ave - Maitland, FL 32751",
    "location": "Lafayette"
  },
  {
    "dataYpid": "466776496",
    "name": "Bernard Hodes Advertising Inc",
    "description": "Advertising Agencies",
    "phone": "(407) 740-5002",
    "address": " 1101 N Lake Destiny Rd Ste 300 - Maitland, FL 32751",
    "location": "Lafayette"
  },
  {
    "dataYpid": "7419542",
    "name": "Fat Free Media",
    "description": "Advertising Specialties",
    "phone": "(407) 786-8669",
    "address": " 1162 Brantley Estates Dr - Altamonte Springs, FL 32714",
    "location": "Lafayette"
  },
  {
    "dataYpid": "451989912",
    "name": "4D Interactive Inc",
    "description": "Production Companies-Film, TV, Radio, Etc",
    "phone": "(407) 622-7536",
    "address": " 111 S Maitland Ave - Maitland, FL 32751",
    "location": "Lafayette"
  },
  {
    "dataYpid": "548108413",
    "name": "Rennew Media",
    "description": "Advertising Agencies",
    "phone": "(407) 900-7734",
    "address": " 151 N Maitland Ave - Maitland, FL 32751",
    "location": "Lafayette"
  },
  {
    "dataYpid": "469114628",
    "name": "Chason Associates Inc",
    "description": "Advertising Agencies",
    "phone": "(321) 794-2508",
    "address": " 626 S Lakemont Ave - Winter Park, FL 32792",
    "location": "Lafayette"
  },
  {
    "dataYpid": "460116883",
    "name": "Clement N G",
    "description": "Advertising Agencies",
    "phone": "(407) 507-3124",
    "address": " 2757 Club Cortile Cir - Kissimmee, FL 34746",
    "location": "Lafayette"
  },
  {
    "dataYpid": "477448615",
    "name": "CloudBurst Consulting",
    "description": "Interactive Media",
    "phone": "(407) 557-2380",
    "address": " 52 Riley Rd # 401 - Kissimmee, FL 34747",
    "location": "Lafayette"
  },
  {
    "dataYpid": "547424014",
    "name": "57 Clicks",
    "description": "Internet Marketing & Advertising",
    "phone": "(321) 750-9787",
    "address": " 902 Montecito Ct Apt 202 - Kissimmee, FL 34741",
    "location": "Lafayette"
  },
  {
    "dataYpid": "454936264",
    "name": "G A & Co",
    "description": "Advertising Agencies",
    "phone": "(407) 339-1736",
    "address": " 333 Croton Dr - Maitland, FL 32751",
    "location": "Lafayette"
  },
  {
    "dataYpid": "6617008",
    "name": "Patterson & Taylor Inc",
    "description": "Advertising Agencies",
    "phone": "(407) 339-0793",
    "address": " 145 S Orange Suite 8 Ave - Maitland, FL 32751",
    "location": "Lafayette"
  },
  {
    "dataYpid": "251455",
    "name": "Web Science",
    "description": "Internet Marketing & Advertising",
    "phone": "(407) 473-4039",
    "address": " 509 S Park Ave - Apopka, FL 32703",
    "location": "Lafayette"
  },
  {
    "dataYpid": "472738464",
    "name": "Reputation Savior Inc",
    "description": "Advertising Agencies",
    "phone": "(800) 826-1372",
    "address": " 1706 E Semoran Blvd Ste 112 - Apopka, FL 32703",
    "location": "Lafayette"
  },
  {
    "dataYpid": "2967304",
    "name": "Entryform Inc",
    "description": "Advertising Agencies",
    "phone": "(407) 975-0211",
    "address": " 1870 Aloma Ave - Winter Park, FL 32789",
    "location": "Lafayette"
  },
  {
    "dataYpid": "9536652",
    "name": "Larson Design Associates Inc",
    "description": "Designers-Industrial & Commercial",
    "phone": "(407) 566-1736",
    "address": " 223 Celebration Blvd - Kissimmee, FL 34747",
    "location": "Lafayette"
  },
  {
    "dataYpid": "3485915",
    "name": "Truth About Yellow Pages",
    "description": "Directory & Guide Advertising",
    "phone": "(407) 647-3990",
    "address": " 101 Mariner Way - Maitland, FL 32751",
    "location": "Lafayette"
  },
  {
    "dataYpid": "548300743",
    "name": "Salem Surround Orlando",
    "description": "Interactive Media",
    "phone": "(407) 618-1821",
    "address": " 1188 Lake View Dr - Altamonte Springs, FL 32714",
    "location": "Lafayette"
  },
  {
    "dataYpid": "571793140",
    "name": "Digital Space Marketing",
    "description": "Marketing Programs & Services",
    "phone": "(855) 611-0577",
    "address": " 240 Lookout Pl - Maitland, FL 32751",
    "location": "Lafayette"
  },
  {
    "dataYpid": "21780092",
    "name": "Kim Parrish Creative Services",
    "description": "Advertising Specialties",
    "phone": "(407) 880-0201",
    "address": " 314 S Central Ave - Apopka, FL 32703",
    "location": "Lafayette"
  },
  {
    "dataYpid": "453352781",
    "name": "Parrish Sena Group",
    "description": "Advertising Agencies",
    "phone": "(407) 880-0208",
    "address": " 314 S Central Ave - Apopka, FL 32703",
    "location": "Lafayette"
  },
  {
    "dataYpid": "472444882",
    "name": "Morgan Mary",
    "description": "Advertising Agencies",
    "phone": "(407) 644-6277",
    "address": " 1630 Mayfield Ave - Winter Park, FL 32789",
    "location": "Lafayette"
  },
  {
    "dataYpid": "183125",
    "name": "Oakley Signs & Graphics Inc",
    "description": "Signs",
    "phone": "(407) 262-8200",
    "address": " 550 Northlake Blvd - Altamonte Springs, FL 32701",
    "location": "Lafayette"
  },
  {
    "dataYpid": "467458478",
    "name": "AG Ad Agency",
    "description": "Advertising Agencies",
    "phone": "(407) 645-1950",
    "address": " 166 Lookout Pl Ste 101 - Maitland, FL 32751",
    "location": "Lafayette"
  },
  {
    "dataYpid": "565097755",
    "name": "Heritage Financial Service",
    "description": "Advertising Specialties",
    "phone": "(407) 702-6655",
    "address": " 166 Lookout Pl - Maitland, FL 32751",
    "location": "Lafayette"
  },
  {
    "dataYpid": "464514365",
    "name": "Local Phone Book",
    "description": "Directory & Guide Advertising",
    "phone": "(407) 884-0199",
    "address": " 54 E 2nd St - Apopka, FL 32703",
    "location": "Lafayette"
  },
  {
    "dataYpid": "5149784",
    "name": "Central Florida Sign Installers",
    "description": "Advertising Agencies",
    "phone": "(407) 880-7446",
    "address": " 54 E 2nd St - Apopka, FL 32703",
    "location": "Lafayette"
  },
  {
    "dataYpid": "2393690",
    "name": "Gregory Lang Inc",
    "description": "Advertising Agencies",
    "phone": "(407) 740-0527",
    "address": " 1985 Howell Branch Rd - Maitland, FL 32751",
    "location": "Lafayette"
  },
  {
    "dataYpid": "460338645",
    "name": "Technical Communications Group",
    "description": "Advertising Agencies",
    "phone": "(407) 831-2235",
    "address": " 403 Barclay Ave - Altamonte Springs, FL 32701",
    "location": "Lafayette"
  },
  {
    "dataYpid": "21791843",
    "name": "Sewing Studio Fabric Superstore",
    "description": "Quilting Machines",
    "phone": "(407) 910-2761",
    "address": " 9605 S Us Highway 17/92 - Maitland, FL 32751",
    "location": "Lafayette"
  },
  {
    "dataYpid": "543464189",
    "name": "The Apopka Chief",
    "description": "Advertising Specialties",
    "phone": "(407) 886-2777",
    "address": " 400 N Park Ave - Apopka, FL 32712",
    "location": "Lafayette"
  },
  {
    "dataYpid": "511795518",
    "name": "Higgins Marketing Group, Inc.",
    "description": "Marketing Consultants",
    "phone": "(407) 680-3735",
    "address": " 219 Duncan Trl - Longwood, FL 32779",
    "location": "Lafayette"
  },
  {
    "dataYpid": "455547425",
    "name": "Eagle Xp Marketing",
    "description": "Marketing Programs & Services",
    "phone": "(407) 677-9400",
    "address": " 6812 Hanging Moss Rd - Orlando, FL 32807",
    "location": "Lafayette"
  },
  {
    "dataYpid": "466545093",
    "name": "Boom Graphics",
    "description": "Signs",
    "phone": "(407) 306-9500",
    "address": " 207 N Goldenrod Rd Ste 800 - Orlando, FL 32807",
    "location": "Lafayette"
  },
  {
    "dataYpid": "16375690",
    "name": "J D Wilson Signs",
    "description": "Signs",
    "phone": "(407) 678-2592",
    "address": " 6948 Venture Cir - Orlando, FL 32807",
    "location": "Lafayette"
  },
  {
    "dataYpid": "472844434",
    "name": "Interstate Sign & Lights",
    "description": "Signs",
    "phone": "(407) 681-3989",
    "address": " 6958 Venture Cir - Orlando, FL 32807",
    "location": "Lafayette"
  },
  {
    "dataYpid": "561706627",
    "name": "Bps Signs & Graphics",
    "description": "Signs",
    "phone": "(407) 960-5691",
    "address": " 2200 N Forsyth Rd - Orlando, FL 32807",
    "location": "Lafayette"
  },
  {
    "dataYpid": "20285350",
    "name": "Treasures of Blessings",
    "description": "Advertising Agencies",
    "phone": "(321) 229-9703",
    "address": " 7314 E Colonial Dr - Orlando, FL 32807",
    "location": "Lafayette"
  },
  {
    "dataYpid": "451138764",
    "name": "Tesoros De Bendicion",
    "description": "Advertising Specialties",
    "phone": "(321) 229-9703",
    "address": " 7314 E Colonial Dr - Orlando, FL 32807",
    "location": "Lafayette"
  },
  {
    "dataYpid": "29140958",
    "name": "Johnston Ave Inc",
    "description": "Advertising Agencies",
    "phone": "(407) 401-2888",
    "address": " 2259 J Lawson Blvd - Orlando, FL 32824",
    "location": "Lafayette"
  },
  {
    "dataYpid": "14393879",
    "name": "Lightning Signs",
    "description": "Signs",
    "phone": "(407) 679-7339",
    "address": " 2447 N Forsyth Rd - Orlando, FL 32807",
    "location": "Lafayette"
  },
  {
    "dataYpid": "472426104",
    "name": "Central Florida Mobile Advertisement",
    "description": "Advertising Specialties",
    "phone": "(407) 883-3169",
    "address": " 344 Canoe Trail Ln - Orlando, FL 32825",
    "location": "Lafayette"
  },
  {
    "dataYpid": "457400292",
    "name": "Enjoy Taste",
    "description": "Interactive Media",
    "phone": "(407) 610-2374",
    "address": " 3245 S Chickasaw Trl - Orlando, FL 32829",
    "location": "Lafayette"
  },
  {
    "dataYpid": "451215169",
    "name": "Entrende",
    "description": "Advertising Agencies",
    "phone": "(407) 282-5566",
    "address": " 7480 Narcoossee Rd Ste G - Orlando, FL 32822",
    "location": "Lafayette"
  },
  {
    "dataYpid": "531498978",
    "name": "Cyndie Cox Copywriter",
    "description": "Advertising Agencies",
    "phone": "(407) 816-6720",
    "address": " 562 Mendoza Dr - Orlando, FL 32825",
    "location": "Lafayette"
  },
  {
    "dataYpid": "493031551",
    "name": "Brand 201",
    "description": "Advertising Specialties",
    "phone": "(678) 612-5683",
    "address": " 9556 Elm Forest Ln - Orlando, FL 32829",
    "location": "Lafayette"
  },
  {
    "dataYpid": "528091244",
    "name": "Royaltys.Inc",
    "description": "Advertising Agencies",
    "phone": "(407) 286-7312",
    "address": " 9307 New Heritage Rd - Orlando, FL 32825",
    "location": "Lafayette"
  },
  {
    "dataYpid": "10094199",
    "name": "Golf Media of Central Florida",
    "description": "Advertising Agencies",
    "phone": "(407) 282-4741",
    "address": " 400 N Econlockhatchee Trl - Orlando, FL 32825",
    "location": "Lafayette"
  },
  {
    "dataYpid": "3503855",
    "name": "USA Direct Marketing",
    "description": "Advertising Agencies",
    "phone": "(407) 678-7750",
    "address": " 9318 E Colonial Dr Ste A11 - Orlando, FL 32817",
    "location": "Lafayette"
  },
  {
    "dataYpid": "14085559",
    "name": "Strachan Art & Signs",
    "description": "Advertising Specialties",
    "phone": "(407) 671-4542",
    "address": " 3930 Port Simbor Ave - Orlando, FL 32817",
    "location": "Lafayette"
  },
  {
    "dataYpid": "547453171",
    "name": "Marketing Nutz",
    "description": "Advertising Agencies",
    "phone": "(813) 404-7145",
    "address": " 6555 Sanger Rd - Orlando, FL 32827",
    "location": "Lafayette"
  },
  {
    "dataYpid": "566296626",
    "name": "Deans Crossing Info Sign Up",
    "description": "Advertising Specialties",
    "phone": "(407) 925-9783",
    "address": " Dean Rd - Orlando, FL 32825",
    "location": "Lafayette"
  },
  {
    "dataYpid": "568307761",
    "name": "Blenzabi Web Design Seo",
    "description": "Web Site Design & Services",
    "phone": "(951) 461-1400",
    "address": " 10524 Moss Park Rd - Orlando, FL 32832",
    "location": "Lafayette"
  },
  {
    "dataYpid": "469952543",
    "name": "Signarama",
    "description": "Signs",
    "phone": "(407) 960-4700",
    "address": " 10037 University Blvd - Orlando, FL 32817",
    "location": "Lafayette"
  },
  {
    "dataYpid": "469277524",
    "name": "Sign & Design S",
    "description": "Advertising Specialties",
    "phone": "(407) 960-4750",
    "address": " 10037 University Blvd - Orlando, FL 32817",
    "location": "Lafayette"
  },
  {
    "dataYpid": "566372683",
    "name": "Central Florida Monthly",
    "description": "Advertising Agencies",
    "phone": "(407) 259-2363",
    "address": " 10016 Wellness Way - Orlando, FL 32832",
    "location": "Lafayette"
  },
  {
    "dataYpid": "483926273",
    "name": "VIP Management Consultants",
    "description": "Advertising Agencies",
    "phone": "(407) 277-8471",
    "address": " 448 S Alafaya Trl - Orlando, FL 32828",
    "location": "Lafayette"
  },
  {
    "dataYpid": "464528886",
    "name": "Crystal Clear Concepts",
    "description": "Advertising Agencies",
    "phone": "(407) 275-2280",
    "address": " 1259 Ballyshannon Pkwy - Orlando, FL 32828",
    "location": "Lafayette"
  },
  {
    "dataYpid": "3616538",
    "name": "Candace Crowe Design",
    "description": "Advertising Agencies",
    "phone": "(407) 384-7676",
    "address": " 3452 Lake Lynda Dr - Orlando, FL 32817",
    "location": "Lafayette"
  },
  {
    "dataYpid": "574894009",
    "name": "Gravitational Marketing",
    "description": "Marketing Consultants",
    "phone": "(407) 275-8667",
    "address": " 12301 Lake Underhill Rd Ste 247 - Orlando, FL 32828",
    "location": "Lafayette"
  },
  {
    "dataYpid": "475030190",
    "name": "TextSprout",
    "description": "Advertising Specialties",
    "phone": "(407) 512-5864",
    "address": " 1969 S Alafaya Trl - Orlando, FL 32828",
    "location": "Lafayette"
  },
  {
    "dataYpid": "18097835",
    "name": "Mentor Graphics Corp",
    "description": "Computer Software & Services",
    "phone": "(407) 999-2300",
    "address": " 12001 Research Pkwy Ste 244 - Orlando, FL 32826",
    "location": "Lafayette"
  },
  {
    "dataYpid": "528758376",
    "name": "Salt 1 to 1",
    "description": "Advertising Agencies",
    "phone": "(407) 751-4423",
    "address": " 11221 John Wycliffe Blvd - Orlando, FL 32832",
    "location": "Lafayette"
  },
  {
    "dataYpid": "528556231",
    "name": "Rich Dealers",
    "description": "Advertising Agencies",
    "phone": "(407) 275-8667",
    "address": " 12802 Science Dr - Orlando, FL 32826",
    "location": "Lafayette"
  },
  {
    "dataYpid": "480075810",
    "name": "Clickit Marketing Solutions",
    "description": "Marketing Programs & Services",
    "phone": "(407) 434-9104",
    "address": " 533 Hardwood Cir - Orlando, FL 32828",
    "location": "Lafayette"
  },
  {
    "dataYpid": "569517968",
    "name": "Wallob",
    "description": "Advertising Agencies",
    "phone": "(336) 203-7932",
    "address": " 1420 E. Altamonte Drive - Altamonte Springs, FL 32714",
    "location": "Lafayette"
  },
  {
    "dataYpid": "465692670",
    "name": "Sunrise Printing & Signs",
    "description": "Printing Services",
    "phone": "(321) 284-3803",
    "address": " 1220 Dyer Blvd - Kissimmee, FL 34741",
    "location": "Lafayette"
  },
  {
    "dataYpid": "468228079",
    "name": "TCS Media",
    "description": "Web Site Design & Services",
    "phone": "(407) 252-1026",
    "address": " 2333 Chinook Trl - Maitland, FL 32751",
    "location": "Lafayette"
  },
  {
    "dataYpid": "6633797",
    "name": "Mail Unlimited Inc",
    "description": "Mail & Shipping Services",
    "phone": "(407) 657-9333",
    "address": " 4607 Metric Dr - Winter Park, FL 32792",
    "location": "Lafayette"
  },
  {
    "dataYpid": "469607251",
    "name": "LocalListing Inc",
    "description": "Internet Marketing & Advertising",
    "phone": "(407) 478-5325",
    "address": " 2431 Aloma Ave - Winter Park, FL 32792",
    "location": "Lafayette"
  },
  {
    "dataYpid": "519291272",
    "name": "Maxmedia Digital Network",
    "description": "Advertising Agencies",
    "phone": "(407) 716-6547",
    "address": " 2431 Aloma Ave - Winter Park, FL 32792",
    "location": "Lafayette"
  },
  {
    "dataYpid": "526695785",
    "name": "Gotcha Creative Media",
    "description": "Advertising Agencies",
    "phone": "(407) 599-6800",
    "address": " 2431 Aloma Ave Ste 124 - Winter Park, FL 32792",
    "location": "Lafayette"
  },
  {
    "dataYpid": "548198999",
    "name": "FusionTech Media",
    "description": "Interactive Media",
    "phone": "(407) 512-0424",
    "address": " 237 S Westmonte Dr Ste 100-B - Altamonte Springs, FL 32714",
    "location": "Lafayette"
  },
  {
    "dataYpid": "4768407",
    "name": "Instant Banners & Signs Inc",
    "description": "Signs",
    "phone": "(407) 869-0662",
    "address": " 540 N State Road 434 - Altamonte Springs, FL 32714",
    "location": "Lafayette"
  },
  {
    "dataYpid": "464246664",
    "name": "Rw Mindrup & Assoc",
    "description": "Advertising Agencies",
    "phone": "(407) 774-0672",
    "address": " 725 Little Wekiva Cir - Altamonte Springs, FL 32714",
    "location": "Lafayette"
  },
  {
    "dataYpid": "549925604",
    "name": "Grandesign Media Services",
    "description": "Advertising Agencies",
    "phone": "(407) 599-0759",
    "address": " 1951 Palmer Ave - Winter Park, FL 32792",
    "location": "Lafayette"
  },
  {
    "dataYpid": "568260868",
    "name": "Acme Brand Studio",
    "description": "Advertising Agencies",
    "phone": "(321) 287-4186",
    "address": " 2825 Prince John Rd - Winter Park, FL 32792",
    "location": "Lafayette"
  },
  {
    "dataYpid": "546081959",
    "name": "Clickable Impact, Inc.",
    "description": "Internet Marketing & Advertising",
    "phone": "(407) 399-9811",
    "address": " 250 Lake Seminary Cir - Maitland, FL 32751",
    "location": "Lafayette"
  },
  {
    "dataYpid": "480698021",
    "name": "Yuppify",
    "description": "Advertising Agencies",
    "phone": "(407) 761-6952",
    "address": " 606 Lake Orienta Dr - Altamonte Springs, FL 32701",
    "location": "Lafayette"
  },
  {
    "dataYpid": "464445298",
    "name": "Intercon Global Inc",
    "description": "Advertising Agencies",
    "phone": "(407) 908-0009",
    "address": " 715 Celebration Ave - Kissimmee, FL 34747",
    "location": "Lafayette"
  },
  {
    "dataYpid": "527388594",
    "name": "Red Monkey Marketing",
    "description": "Marketing Consultants",
    "phone": "(407) 990-1975",
    "address": " 610 Sycamore St Ste 150 - Kissimmee, FL 34747",
    "location": "Lafayette"
  },
  {
    "dataYpid": "163336",
    "name": "MANUEL HERRERA SERVICES, INC.",
    "description": "Advertising Specialties",
    "phone": "(407) 722-6644",
    "address": " 824 Whalebone Bay Dr - Kissimmee, FL 34741",
    "location": "Lafayette"
  },
  {
    "dataYpid": "484365461",
    "name": "Reputation Savior",
    "description": "Advertising Agencies",
    "phone": "(407) 464-0036",
    "address": " 1661 Votaw Rd - Apopka, FL 32703",
    "location": "Lafayette"
  },
  {
    "dataYpid": "464235955",
    "name": "Gillman Advertising Specialties",
    "description": "Advertising Agencies",
    "phone": "(407) 331-5111",
    "address": " 657 Maitland Ave - Altamonte Springs, FL 32701",
    "location": "Lafayette"
  },
  {
    "dataYpid": "461916569",
    "name": "LocalNet360",
    "description": "Directory & Guide Advertising",
    "phone": "(888) 304-4060",
    "address": " 7862 W Irlo Bronson Memorial Hwy # 309 - Kissimmee, FL 34747",
    "location": "Lafayette"
  },
  {
    "dataYpid": "22998254",
    "name": "Jungle Network",
    "description": "Advertising Agencies",
    "phone": "(407) 389-2002",
    "address": " 479 Montgomery Pl - Altamonte Springs, FL 32714",
    "location": "Lafayette"
  },
  {
    "dataYpid": "482034950",
    "name": "Think Agency Inc",
    "description": "Marketing Programs & Services",
    "phone": "(407) 875-1999",
    "address": " 217 N Westmonte Dr Ste 3019 - Altamonte Springs, FL 32714",
    "location": "Lafayette"
  },
  {
    "dataYpid": "496798867",
    "name": "ETC Marketing",
    "description": "Marketing Consultants",
    "phone": "(877) 992-1313",
    "address": " 217 N Westmonte Dr Ste 2014 - Altamonte Springs, FL 32714",
    "location": "Lafayette"
  },
  {
    "dataYpid": "567148126",
    "name": "M77 Media",
    "description": "Advertising Agencies",
    "phone": "(833) 992-1313",
    "address": " 217 N Westmonte Dr - Altamonte Springs, FL 32714",
    "location": "Lafayette"
  },
  {
    "dataYpid": "457126447",
    "name": "Chameleon Web/Multimedia Design",
    "description": "Advertising Agencies",
    "phone": "(407) 616-2645",
    "address": " 315 Lakepointe Dr - Altamonte Springs, FL 32701",
    "location": "Lafayette"
  },
  {
    "dataYpid": "514342851",
    "name": "Cmts",
    "description": "Advertising Agencies",
    "phone": "(904) 739-9804",
    "address": " 608 Maitland Ave - Altamonte Springs, FL 32701",
    "location": "Lafayette"
  },
  {
    "dataYpid": "482214307",
    "name": "Thoughts Applied",
    "description": "Home Decor",
    "phone": "(407) 809-5575",
    "address": " 14900 E Orange Lake Blvd Unit 236 - Kissimmee, FL 34747",
    "location": "Lafayette"
  },
  {
    "dataYpid": "7217850",
    "name": "Creative Sign Works",
    "description": "Signs",
    "phone": "(407) 847-4949",
    "address": " 805 Parkway Plaza Blvd Ste A - Kissimmee, FL 34744",
    "location": "Lafayette"
  },
  {
    "dataYpid": "470403764",
    "name": "Sign and Drive",
    "description": "Advertising Specialties",
    "phone": "(407) 834-5637",
    "address": " 137 Candace Dr - Maitland, FL 32751",
    "location": "Lafayette"
  },
  {
    "dataYpid": "458023057",
    "name": "Great Impressions Signs Printing & Promotional Items",
    "description": "Signs",
    "phone": "(407) 647-5151",
    "address": " 633 Woodland St - Altamonte Springs, FL 32714",
    "location": "Lafayette"
  },
  {
    "dataYpid": "455257108",
    "name": "Jayco Signs",
    "description": "Signs",
    "phone": "(407) 339-5252",
    "address": " 149-151 Atlantic Dr - Maitland, FL 32751",
    "location": "Lafayette"
  },
  {
    "dataYpid": "528767",
    "name": "Channel Intelligence, Inc.",
    "description": "Internet Marketing & Advertising",
    "phone": "(866) 559-2300",
    "address": " 1180 Celebration Blvd Ste 101 - Kissimmee, FL 34747",
    "location": "Lafayette"
  },
  {
    "dataYpid": "17359559",
    "name": "Delisle & Associates",
    "description": "Advertising Agencies",
    "phone": "(407) 331-7705",
    "address": " 711 Ballard St - Altamonte Springs, FL 32701",
    "location": "Lafayette"
  },
  {
    "dataYpid": "633975",
    "name": "Help 4 You America Inc",
    "description": "Advertising Agencies",
    "phone": "(407) 265-7248",
    "address": " 241 Obrien Rd - Fern Park, FL 32730",
    "location": "Lafayette"
  },
  {
    "dataYpid": "464481276",
    "name": "Premier Development Construction",
    "description": "Advertising Agencies",
    "phone": "(407) 401-2504",
    "address": " 385 Douglas Ave Ste 2250 - Altamonte Springs, FL 32714",
    "location": "Lafayette"
  },
  {
    "dataYpid": "28742612",
    "name": "Sikorsky Sign & Display",
    "description": "Advertising Specialties",
    "phone": "(407) 933-2946",
    "address": " 312 E Jackson St - Kissimmee, FL 34744",
    "location": "Lafayette"
  },
  {
    "dataYpid": "472630418",
    "name": "Nationwide Marketing and Advertising",
    "description": "Advertising Agencies",
    "phone": "(407) 814-3929",
    "address": " 1077 W Orange Blossom Trl - Apopka, FL 32712",
    "location": "Lafayette"
  },
  {
    "dataYpid": "16259626",
    "name": "Corporate Image Bureau",
    "description": "Advertising Agencies",
    "phone": "(407) 774-1529",
    "address": " 445 Douglas Ave - Altamonte Springs, FL 32714",
    "location": "Lafayette"
  },
  {
    "dataYpid": "469599939",
    "name": "Tc Commercial Advertising Sales",
    "description": "Advertising Specialties",
    "phone": "(888) 224-4836",
    "address": " 911 N State Road 434 - Altamonte Springs, FL 32714",
    "location": "Lafayette"
  },
  {
    "dataYpid": "459596451",
    "name": "Yard Media",
    "description": "Advertising Agencies",
    "phone": "(407) 657-1361",
    "address": " 1964 Howell Branch Rd Ste 202 - Winter Park, FL 32792",
    "location": "Lafayette"
  },
  {
    "dataYpid": "451087881",
    "name": "Shape CD Inc",
    "description": "Advertising Specialties",
    "phone": "(407) 518-0444",
    "address": " 2642 Michigan Ave - Kissimmee, FL 34744",
    "location": "Lafayette"
  },
  {
    "dataYpid": "531943408",
    "name": "Medtech Momentum",
    "description": "Advertising Agencies",
    "phone": "(407) 960-2994",
    "address": " 377 Maitland Ave - Altamonte Springs, FL 32701",
    "location": "Lafayette"
  },
  {
    "dataYpid": "532591278",
    "name": "Roar! Internet Marketing",
    "description": "Internet Marketing & Advertising",
    "phone": "(407) 786-7330",
    "address": " 307 Cranes Roost Blvd Ste 2020 - Altamonte Springs, FL 32701",
    "location": "Lafayette"
  },
  {
    "dataYpid": "464392355",
    "name": "Newton's Force",
    "description": "Advertising Agencies",
    "phone": "(407) 682-7896",
    "address": " 478 E Altamonte Dr - Altamonte Springs, FL 32701",
    "location": "Lafayette"
  },
  {
    "dataYpid": "4571504",
    "name": "Memory Lanes",
    "description": "Advertising Specialties",
    "phone": "(407) 339-7771",
    "address": " Alt Spg - Altamonte Springs, FL 32701",
    "location": "Lafayette"
  },
  {
    "dataYpid": "530725225",
    "name": "Wizzao Distribution Corp",
    "description": "Advertising Specialties",
    "phone": "(407) 415-0426",
    "address": " 107 Mistywood Ct - Kissimmee, FL 34743",
    "location": "Lafayette"
  },
  {
    "dataYpid": "553240342",
    "name": "BCV Deals",
    "description": "Advertising Agencies",
    "phone": "(407) 571-2980",
    "address": " 260 Maitland Ave - Altamonte Springs, FL 32701",
    "location": "Lafayette"
  },
  {
    "dataYpid": "458647569",
    "name": "Affordable Display Products, Inc.",
    "description": "Advertising Specialties",
    "phone": "(866) 550-0656",
    "address": " 285 W Central Parkway Suite 1726 - Altamonte Springs, FL 32714",
    "location": "Lafayette"
  },
  {
    "dataYpid": "467129748",
    "name": "24 Seven Graphics",
    "description": "Graphic Designers",
    "phone": "(407) 679-0134",
    "address": " 7033 Stapoint Ct - Winter Park, FL 32792",
    "location": "Lafayette"
  },
  {
    "dataYpid": "11581886",
    "name": "Exiance",
    "description": "Advertising Agencies",
    "phone": "(407) 566-8823",
    "address": " 1119 Celebration Ave - Kissimmee, FL 34747",
    "location": "Lafayette"
  },
  {
    "dataYpid": "2123850",
    "name": "TCS Media Inc",
    "description": "Advertising Agencies",
    "phone": "(407) 252-1026",
    "address": " 2688 Queen Mary Pl - Maitland, FL 32751",
    "location": "Lafayette"
  },
  {
    "dataYpid": "457322248",
    "name": "Vea Creative",
    "description": "Signs",
    "phone": "(407) 847-8323",
    "address": " 2450 Smith St Ste P - Kissimmee, FL 34744",
    "location": "Lafayette"
  },
  {
    "dataYpid": "460668789",
    "name": "Premier Sign Design",
    "description": "Advertising Specialties",
    "phone": "(321) 295-7865",
    "address": " 658 Douglas Ave - Altamonte Springs, FL 32714",
    "location": "Lafayette"
  },
  {
    "dataYpid": "473330188",
    "name": "Genius Advertising & Marketing",
    "description": "Advertising Agencies",
    "phone": "(407) 682-3037",
    "address": " 864 Little Bend Rd - Altamonte Springs, FL 32714",
    "location": "Lafayette"
  },
  {
    "dataYpid": "479329299",
    "name": "Chance Advertising Agency",
    "description": "Advertising Agencies",
    "phone": "(321) 946-0666",
    "address": " 803 Trailwood Dr Suite 100 - Apopka, FL 32712",
    "location": "Lafayette"
  },
  {
    "dataYpid": "451700173",
    "name": "Sign Station",
    "description": "Advertising Specialties",
    "phone": "(407) 943-7309",
    "address": " 1138 E Donegan Ave - Kissimmee, FL 34744",
    "location": "Lafayette"
  },
  {
    "dataYpid": "497618546",
    "name": "Rm2 Project Inc",
    "description": "Advertising Agencies",
    "phone": "(800) 301-5420",
    "address": " 927 Greenlawn St - Kissimmee, FL 34747",
    "location": "Lafayette"
  },
  {
    "dataYpid": "453167901",
    "name": "Sunny Signs",
    "description": "Signs",
    "phone": "(407) 831-2888",
    "address": " 2345 Markingham Rd - Maitland, FL 32751",
    "location": "Lafayette"
  },
  {
    "dataYpid": "473339739",
    "name": "Richard Holland/southern Distr",
    "description": "Advertising Specialties",
    "phone": "(407) 331-9667",
    "address": " 2318 Castlewood Rd - Maitland, FL 32751",
    "location": "Lafayette"
  },
  {
    "dataYpid": "548645147",
    "name": "Push Button Productions",
    "description": "Advertising Agencies",
    "phone": "(888) 494-7874",
    "address": " 815 Orienta Ave Ste 1060 - Altamonte Springs, FL 32701",
    "location": "Lafayette"
  },
  {
    "dataYpid": "538412582",
    "name": "Image Graphics",
    "description": "Lithographers",
    "phone": "(407) 679-8900",
    "address": " 3500 Aloma Ave - Winter Park, FL 32792",
    "location": "Lafayette"
  },
  {
    "dataYpid": "486058409",
    "name": "Hess-Moore Enterprises Inc",
    "description": "Printing Services-Commercial",
    "phone": "(407) 671-6494",
    "address": " 3500 Aloma Ave - Winter Park, FL 32792",
    "location": "Lafayette"
  },
  {
    "dataYpid": "6461801",
    "name": "Capital Advantage",
    "description": "Advertising Agencies",
    "phone": "(407) 261-9002",
    "address": " 498 Palm Springs Dr - Altamonte Springs, FL 32701",
    "location": "Lafayette"
  },
  {
    "dataYpid": "8064688",
    "name": "Righter Communications",
    "description": "Advertising Agencies",
    "phone": "(407) 261-9001",
    "address": " 498 Palm Springs Dr - Altamonte Springs, FL 32701",
    "location": "Lafayette"
  },
  {
    "dataYpid": "496019121",
    "name": "Go Digital Advertising",
    "description": "Internet Marketing & Advertising",
    "phone": "(407) 497-7198",
    "address": " 2735 W State Road 434 - Longwood, FL 32779",
    "location": "Lafayette"
  },
  {
    "dataYpid": "480266004",
    "name": "Custom Signs & Embroidery Corp",
    "description": "Signs",
    "phone": "(407) 477-7722",
    "address": " 8548 W Irlo Bronson Memorial Hwy - Kissimmee, FL 34747",
    "location": "Lafayette"
  },
  {
    "dataYpid": "335712",
    "name": "Timeshare",
    "description": "Advertising Agencies",
    "phone": "(407) 831-0203",
    "address": " 1398 State Road 436 - Casselberry, FL 32707",
    "location": "Lafayette"
  },
  {
    "dataYpid": "472448193",
    "name": "Hughes Dralene",
    "description": "Advertising Agencies",
    "phone": "(407) 469-2155",
    "address": " 15935 Willo Pines Ln - Montverde, FL 34756",
    "location": "Lafayette"
  },
  {
    "dataYpid": "558167223",
    "name": "Azir Spares, Inc.",
    "description": "Directory & Guide Advertising",
    "phone": "(844) 267-2235",
    "address": " 1070 Montgomery Rd PMB 509 - Altamonte Springs, FL 32714",
    "location": "Lafayette"
  },
  {
    "dataYpid": "460530078",
    "name": "Mall Media Services, Inc.",
    "description": "Advertising Agencies",
    "phone": "(407) 443-2369",
    "address": " 412 E Citrus St - Altamonte Springs, FL 32701",
    "location": "Lafayette"
  },
  {
    "dataYpid": "503878824",
    "name": "DEALERPOSTER.ORG",
    "description": "New Car Dealers",
    "phone": "(855) 762-0900",
    "address": " PO Box 453212 - Kissimmee, FL 34745",
    "location": "Lafayette"
  },
  {
    "dataYpid": "478523",
    "name": "One Stop Displays",
    "description": "Signs",
    "phone": "(407) 629-0500",
    "address": " 4111 Metric Dr Ste 5 - Winter Park, FL 32792",
    "location": "Lafayette"
  },
  {
    "dataYpid": "464479969",
    "name": "Promos 4 U",
    "description": "Advertising Agencies",
    "phone": "(407) 695-0299",
    "address": " 6914 Aloma Ave - Winter Park, FL 32792",
    "location": "Lafayette"
  },
  {
    "dataYpid": "486299912",
    "name": "Sang of Central Florida Inc",
    "description": "Copying & Duplicating Service",
    "phone": "(407) 657-9090",
    "address": " 6976 Aloma Ave - Winter Park, FL 32792",
    "location": "Lafayette"
  },
  {
    "dataYpid": "17941251",
    "name": "Product Marketing Group",
    "description": "Advertising Agencies",
    "phone": "(407) 774-6363",
    "address": " 978 Douglas Ave - Altamonte Springs, FL 32714",
    "location": "Lafayette"
  },
  {
    "dataYpid": "453696040",
    "name": "Capital Business Strategies",
    "description": "Advertising Specialties",
    "phone": "(407) 953-6069",
    "address": " 267 Gardenia Rd - Kissimmee, FL 34743",
    "location": "Lafayette"
  },
  {
    "dataYpid": "564294219",
    "name": "JKR Advertising & Marketings",
    "description": "Advertising Agencies",
    "phone": "(321) 397-0777",
    "address": " 195 Wekiva Springs Rd - Longwood, FL 32779",
    "location": "Lafayette"
  },
  {
    "dataYpid": "588075",
    "name": "C & S Signs",
    "description": "Signs-Maintenance & Repair",
    "phone": "(407) 331-5299",
    "address": " 970 Shallowford St - Altamonte Springs, FL 32701",
    "location": "Lafayette"
  },
  {
    "dataYpid": "551378043",
    "name": "Charles Williams Business Group",
    "description": "Advertising Agencies",
    "phone": "(407) 764-8484",
    "address": " 407 Wekiva Springs Rd - Longwood, FL 32779",
    "location": "Lafayette"
  },
  {
    "dataYpid": "23041802",
    "name": "Wide Advertising",
    "description": "Advertising Agencies",
    "phone": "(407) 518-9712",
    "address": " 1700 Kelley Ave - Kissimmee, FL 34744",
    "location": "Lafayette"
  },
  {
    "dataYpid": "663287",
    "name": "7 Media One Inc",
    "description": "Advertising Specialties",
    "phone": "(407) 682-0000",
    "address": " 1180 Spring Centre South Blvd - Altamonte Springs, FL 32714",
    "location": "Lafayette"
  },
  {
    "dataYpid": "12793990",
    "name": "Cash Magazine Inc",
    "description": "Directory & Guide Advertising",
    "phone": "(407) 672-1700",
    "address": " 266 Wilshire Blvd - Casselberry, FL 32707",
    "location": "Lafayette"
  },
  {
    "dataYpid": "571654110",
    "name": "CDO Global",
    "description": "Advertising Specialties",
    "phone": "(321) 444-6865",
    "address": " 282 Wilshire Blvd - Casselberry, FL 32707",
    "location": "Lafayette"
  },
  {
    "dataYpid": "475026435",
    "name": "PIP Social",
    "description": "Internet Marketing & Advertising",
    "phone": "(407) 847-7324",
    "address": " 927 W Oak St - Kissimmee, FL 34741",
    "location": "Lafayette"
  },
  {
    "dataYpid": "17124894",
    "name": "Bickel's Sign Systems Inc",
    "description": "Signs",
    "phone": "(407) 657-9000",
    "address": " 7224 Sandscove Ct - Winter Park, FL 32792",
    "location": "Lafayette"
  },
  {
    "dataYpid": "518735384",
    "name": "Vital Signs Pshysicians",
    "description": "Advertising Specialties",
    "phone": "(407) 944-4458",
    "address": " 1320 N Main St Ste A - Kissimmee, FL 34744",
    "location": "Lafayette"
  },
  {
    "dataYpid": "550192205",
    "name": "Hispanic Yellow Pages Inc",
    "description": "Directory & Guide Advertising",
    "phone": "(407) 767-8300",
    "address": " 1033 State Road 436 - Casselberry, FL 32707",
    "location": "Lafayette"
  },
  {
    "dataYpid": "467191084",
    "name": "Evaluvest Banch Ops Inc",
    "description": "Advertising Agencies",
    "phone": "(407) 865-7408",
    "address": " 1150 Douglas Ave Ste 1070 - Altamonte Springs, FL 32714",
    "location": "Lafayette"
  },
  {
    "dataYpid": "451177442",
    "name": "Aladdin Signs & Lighting Inc",
    "description": "Signs",
    "phone": "(407) 932-1789",
    "address": " 1500 Damon Ave - Kissimmee, FL 34744",
    "location": "Lafayette"
  },
  {
    "dataYpid": "14927106",
    "name": "Pin Depot",
    "description": "Advertising Specialties",
    "phone": "(407) 673-8880",
    "address": " 7319 Sandscove Ct - Winter Park, FL 32792",
    "location": "Lafayette"
  },
  {
    "dataYpid": "549925673",
    "name": "Small Pond Media",
    "description": "Advertising Agencies",
    "phone": "(407) 951-8034",
    "address": " 126 Wilshire Blvd - Casselberry, FL 32707",
    "location": "Lafayette"
  },
  {
    "dataYpid": "441642",
    "name": "United Trophy",
    "description": "Trophies, Plaques & Medals",
    "phone": "(407) 834-9812",
    "address": " 345 State Road 436 - Fern Park, FL 32730",
    "location": "Lafayette"
  },
  {
    "dataYpid": "534462665",
    "name": "Combo Signs",
    "description": "Signs",
    "phone": "(407) 535-2509",
    "address": " 1123 E Vine St - Kissimmee, FL 34744",
    "location": "Lafayette"
  },
  {
    "dataYpid": "16135659",
    "name": "Lewellen Enterprises",
    "description": "Directory & Guide Advertising",
    "phone": "(407) 478-1964",
    "address": " 927 Fern St - Altamonte Springs, FL 32701",
    "location": "Lafayette"
  },
  {
    "dataYpid": "477421627",
    "name": "Bbg Design",
    "description": "Advertising Specialties",
    "phone": "(407) 870-0012",
    "address": " 1011 N Main St - Kissimmee, FL 34744",
    "location": "Lafayette"
  },
  {
    "dataYpid": "3390356",
    "name": "American Sign & Printing",
    "description": "Signs",
    "phone": "(407) 260-0034",
    "address": " 5580 S Us Highway 17/92 - Casselberry, FL 32707",
    "location": "Lafayette"
  },
  {
    "dataYpid": "504808114",
    "name": "Signal Out Door Advertising",
    "description": "Advertising Specialties",
    "phone": "(407) 856-7079",
    "address": " 101 Sunnytown Rd Ste 312 - Casselberry, FL 32707",
    "location": "Lafayette"
  },
  {
    "dataYpid": "17103296",
    "name": "Fresh Communications",
    "description": "Advertising Agencies",
    "phone": "(407) 998-5123",
    "address": " 1855 W State Road 434 - Longwood, FL 32750",
    "location": "Lafayette"
  },
  {
    "dataYpid": "28720294",
    "name": "Terpexpo",
    "description": "Advertising Specialties",
    "phone": "(407) 329-3677",
    "address": " 17105 Cypresswood Way - Clermont, FL 34714",
    "location": "Lafayette"
  },
  {
    "dataYpid": "561303975",
    "name": "My Website Spot - Casselberry Web Design & SEO",
    "description": "Web Site Design & Services",
    "phone": "(407) 499-4008",
    "address": " 513 Elm Dr - Casselberry, FL 32707",
    "location": "Lafayette"
  },
  {
    "dataYpid": "469091516",
    "name": "Slick Signs",
    "description": "Signs",
    "phone": "(407) 331-4334",
    "address": " 331 Oleander Way - Casselberry, FL 32707",
    "location": "Lafayette"
  },
  {
    "dataYpid": "482007881",
    "name": "Stellar Sign & Design",
    "description": "Signs",
    "phone": "(407) 660-3174",
    "address": " 331 Oleander Way - Casselberry, FL 32707",
    "location": "Lafayette"
  },
  {
    "dataYpid": "483635928",
    "name": "W G M Signs",
    "description": "Signs",
    "phone": "(321) 444-6511",
    "address": " 974 Explorer Cv Ste 144 - Altamonte Springs, FL 32701",
    "location": "Lafayette"
  },
  {
    "dataYpid": "459298965",
    "name": "Fax IT Advertising",
    "description": "Advertising Agencies",
    "phone": "(407) 339-4555",
    "address": " 1499 Robert St - Longwood, FL 32750",
    "location": "Lafayette"
  },
  {
    "dataYpid": "464517380",
    "name": "Rho Mar Marketing Inc",
    "description": "Advertising Agencies",
    "phone": "(407) 332-0926",
    "address": " PO Box 181504 - Casselberry, FL 32718",
    "location": "Lafayette"
  },
  {
    "dataYpid": "528395317",
    "name": "Inspire Visual",
    "description": "Web Site Design & Services",
    "phone": "(407) 476-1950",
    "address": " 1100 Us Highway 27 # 6774 - Clermont, FL 34713",
    "location": "Lafayette"
  },
  {
    "dataYpid": "498715953",
    "name": "K2 Evolution",
    "description": "Web Site Design & Services",
    "phone": "(321) 972-5915",
    "address": " 1355 Bennett Dr Unit 177 - Longwood, FL 32750",
    "location": "Lafayette"
  },
  {
    "dataYpid": "467424836",
    "name": "H B Production Services Inc",
    "description": "Production Companies-Film, TV, Radio, Etc",
    "phone": "(407) 339-9070",
    "address": " 1275 Bennett Dr - Longwood, FL 32750",
    "location": "Lafayette"
  },
  {
    "dataYpid": "464298154",
    "name": "Prime Media Now",
    "description": "Advertising Agencies",
    "phone": "(407) 331-7128",
    "address": " 1225 Bennett Dr - Longwood, FL 32750",
    "location": "Lafayette"
  },
  {
    "dataYpid": "536343395",
    "name": "H B Production Group",
    "description": "Video Production Services",
    "phone": "(407) 339-9070",
    "address": " 1225 Bennett Dr Unit 200 - Longwood, FL 32750",
    "location": "Lafayette"
  },
  {
    "dataYpid": "9380847",
    "name": "Americomics",
    "description": "Advertising Agencies",
    "phone": "(407) 767-0199",
    "address": " 1225 Bennett Dr Unit 111 - Longwood, FL 32750",
    "location": "Lafayette"
  },
  {
    "dataYpid": "504721426",
    "name": "Central Florida Graphic Design",
    "description": "Computer Graphics",
    "phone": "(321) 439-1356",
    "address": " 16744 Cagan Crossings Blvd - Clermont, FL 34714",
    "location": "Lafayette"
  },
  {
    "dataYpid": "481269119",
    "name": "In Motion Media Solutions",
    "description": "Advertising-Broadcast & Film",
    "phone": "(407) 960-1839",
    "address": " 3352 S Us Highway 17/92 - Casselberry, FL 32707",
    "location": "Lafayette"
  },
  {
    "dataYpid": "13115942",
    "name": "Creative Sign Designs",
    "description": "Signs",
    "phone": "(800) 804-4809",
    "address": " 285 National Pl - Longwood, FL 32750",
    "location": "Lafayette"
  },
  {
    "dataYpid": "533779344",
    "name": "Digital Graphics Plus",
    "description": "Graphic Designers",
    "phone": "(407) 869-0077",
    "address": " 205 National Pl - Longwood, FL 32750",
    "location": "Lafayette"
  },
  {
    "dataYpid": "16937901",
    "name": "Acculetters",
    "description": "Signs",
    "phone": "(407) 660-2228",
    "address": " 722 Savage Ct - Longwood, FL 32750",
    "location": "Lafayette"
  },
  {
    "dataYpid": "466394668",
    "name": "DG Productions",
    "description": "Advertising Specialties",
    "phone": "(407) 331-1066",
    "address": " 160 Hope St - Longwood, FL 32750",
    "location": "Lafayette"
  },
  {
    "dataYpid": "2824279",
    "name": "Rogers Signs",
    "description": "Signs",
    "phone": "(407) 331-1038",
    "address": " 230 W Marvin Ave Ste 100 - Longwood, FL 32750",
    "location": "Lafayette"
  },
  {
    "dataYpid": "6609354",
    "name": "Gallagher Promotional PRO",
    "description": "Advertising Specialties",
    "phone": "(407) 332-6826",
    "address": " 659 Florida Central Pkwy - Longwood, FL 32750",
    "location": "Lafayette"
  },
  {
    "dataYpid": "4682583",
    "name": "DeFalco Advertising",
    "description": "Advertising Agencies",
    "phone": "(407) 551-0303",
    "address": " 1441 S Grant St - Longwood, FL 32750",
    "location": "Lafayette"
  },
  {
    "dataYpid": "472621830",
    "name": "Barden Circulation",
    "description": "Advertising Specialties",
    "phone": "(321) 972-9974",
    "address": " 250 S Ronald Reagan Blvd Ste 118 - Longwood, FL 32750",
    "location": "Lafayette"
  },
  {
    "dataYpid": "4686344",
    "name": "Boone Sign Co",
    "description": "Signs",
    "phone": "(407) 344-9068",
    "address": " 2740 Lake Vista Dr - Kissimmee, FL 34744",
    "location": "Lafayette"
  },
  {
    "dataYpid": "29349957",
    "name": "Via Cindy",
    "description": "Advertising Agencies",
    "phone": "(407) 695-0183",
    "address": " 102 W Bahama Rd - Winter Springs, FL 32708",
    "location": "Lafayette"
  },
  {
    "dataYpid": "464373789",
    "name": "Strategic Minds Assoc Inc",
    "description": "Advertising Agencies",
    "phone": "(407) 823-7454",
    "address": " 262 Winghurst Blvd - Orlando, FL 32828",
    "location": "Lafayette"
  },
  {
    "dataYpid": "547533336",
    "name": "Urbander",
    "description": "Marketing Programs & Services",
    "phone": "(917) 589-4229",
    "address": " 2584 Dover Glen Cir - Orlando, FL 32828",
    "location": "Lafayette"
  },
  {
    "dataYpid": "468136651",
    "name": "EmbroidMe",
    "description": "Embroidery",
    "phone": "(407) 658-4451",
    "address": " 3536 Peppervine Dr - Orlando, FL 32828",
    "location": "Lafayette"
  },
  {
    "dataYpid": "28699558",
    "name": "Su Advertising Inc",
    "description": "Advertising Specialties",
    "phone": "(407) 737-3605",
    "address": " 1417 Sherman St Ste 202 - Orlando, FL 32828",
    "location": "Lafayette"
  },
  {
    "dataYpid": "6312889",
    "name": "CRM Marketing Inc",
    "description": "Product Design, Development & Marketing",
    "phone": "(407) 381-8422",
    "address": " 13025 Fernway Rd - Orlando, FL 32832",
    "location": "Lafayette"
  },
  {
    "dataYpid": "502810481",
    "name": "Visibility Pros",
    "description": "Internet Consultants",
    "phone": "(877) 781-2990",
    "address": " 17154 Long Boat Ln - Orlando, FL 32820",
    "location": "Lafayette"
  }
]