[
  {
    "dataYpid": "546873861",
    "name": "Brandworx",
    "description": "Advertising-Promotional Products",
    "phone": "(239) 793-3441",
    "address": " 104 Bordeaux Cir - Naples, FL 34112",
    "location": "Leon"
  },
  {
    "dataYpid": "2039745",
    "name": "Eagle Packaging Products Inc",
    "description": "Advertising-Promotional Products",
    "phone": "(239) 206-4023",
    "address": " 3161 Van Buren Ave - Naples, FL 34112",
    "location": "Leon"
  },
  {
    "dataYpid": "573319029",
    "name": "In Gear Creations",
    "description": "Advertising-Promotional Products",
    "phone": "(707) 544-7001",
    "address": " 2481 Breakwater Way - Naples, FL 34112",
    "location": "Leon"
  },
  {
    "dataYpid": "503608481",
    "name": "Jpt Pace Management",
    "description": "Advertising-Promotional Products",
    "phone": "(239) 601-5917",
    "address": " PO Box 8902 - Naples, FL 34101",
    "location": "Leon"
  },
  {
    "dataYpid": "527192411",
    "name": "Totes of the Town LLC",
    "description": "Advertising-Promotional Products",
    "phone": "(239) 878-3357",
    "address": " 2900 14th St N - Naples, FL 34103",
    "location": "Leon"
  },
  {
    "dataYpid": "505053380",
    "name": "Pup Scouts",
    "description": "Advertising-Promotional Products",
    "phone": "(239) 304-9306",
    "address": " 3757 Tamiami Trl N - Naples, FL 34103",
    "location": "Leon"
  },
  {
    "dataYpid": "5050691",
    "name": "Naples Envelope and Printing",
    "description": "Advertising-Promotional Products",
    "phone": "(239) 592-9377",
    "address": " 2052 J And C Blvd - Naples, FL 34109",
    "location": "Leon"
  },
  {
    "dataYpid": "571707833",
    "name": "Promote",
    "description": "Advertising-Promotional Products",
    "phone": "(667) 766-6838",
    "address": " 8820 Walter Way Unit 1319 - Naples, FL 34120",
    "location": "Leon"
  },
  {
    "dataYpid": "2486242",
    "name": "Water Line Products",
    "description": "Advertising-Promotional Products",
    "phone": "(239) 394-1574",
    "address": " 939 Chalmer Dr - Marco Island, FL 34145",
    "location": "Leon"
  },
  {
    "dataYpid": "499383028",
    "name": "Proforma Dynamic Image",
    "description": "Advertising-Promotional Products",
    "phone": "(239) 592-0086",
    "address": " 3160 Orange Grove Trl - Naples, FL 34120",
    "location": "Leon"
  },
  {
    "dataYpid": "29137590",
    "name": "Gear Promotions",
    "description": "Advertising-Promotional Products",
    "phone": "(239) 389-6156",
    "address": " 991 Mendel Ave - Marco Island, FL 34145",
    "location": "Leon"
  },
  {
    "dataYpid": "559536647",
    "name": "Naples Promo Deals",
    "description": "Advertising-Promotional Products",
    "phone": "(239) 348-2699",
    "address": " 5683 Rattlesnake Hammock Rd - Naples, FL 34113",
    "location": "Leon"
  },
  {
    "dataYpid": "571490647",
    "name": "Minuteman Press",
    "description": "Advertising-Promotional Products",
    "phone": "(239) 261-1198",
    "address": " 771 Airport Rd. N. Units 4 & 5 - Naples, FL 34104",
    "location": "Leon"
  },
  {
    "dataYpid": "533118777",
    "name": "Make It Personal",
    "description": "Advertising-Promotional Products",
    "phone": "(239) 234-5986",
    "address": " 3894 Mannix Dr Ste 216 - Naples, FL 34114",
    "location": "Leon"
  },
  {
    "dataYpid": "545958846",
    "name": "Fully Promoted Naples, FL",
    "description": "Advertising-Promotional Products",
    "phone": "(239) 593-2193",
    "address": " 4966 Tamiami Trl N - Naples, FL 34103",
    "location": "Leon"
  },
  {
    "dataYpid": "9651513",
    "name": "Proforma Dynamic Image Solutions",
    "description": "Advertising-Promotional Products",
    "phone": "(239) 592-0086",
    "address": " 5760 Shirley St Ste 18 - Naples, FL 34109",
    "location": "Leon"
  },
  {
    "dataYpid": "520024393",
    "name": "Marco Islander Magazine",
    "description": "Advertising-Promotional Products",
    "phone": "(239) 384-4017",
    "address": " 816 Manor Ter - Marco Island, FL 34145",
    "location": "Leon"
  },
  {
    "dataYpid": "477871190",
    "name": "Magnolia Advertising Spec",
    "description": "Advertising Agencies",
    "phone": "(239) 775-7070",
    "address": " 5346 Sholtz St - Naples, FL 34113",
    "location": "Leon"
  },
  {
    "dataYpid": "572311588",
    "name": "44i, Inc.",
    "description": "Advertising Agencies",
    "phone": "(239) 940-5781",
    "address": " 7523 Moorgate Point Way - Naples, FL 34113",
    "location": "Leon"
  },
  {
    "dataYpid": "465667263",
    "name": "Ad Depot",
    "description": "Advertising Agencies",
    "phone": "(239) 435-9410",
    "address": " 4670 Cardinal Way - Naples, FL 34112",
    "location": "Leon"
  },
  {
    "dataYpid": "464178295",
    "name": "Le Palavra Group",
    "description": "Advertising Agencies",
    "phone": "(239) 324-1084",
    "address": " 165 1st St - Naples, FL 34113",
    "location": "Leon"
  },
  {
    "dataYpid": "462390781",
    "name": "Shirley Calhoon Advertising",
    "description": "Advertising Specialties",
    "phone": "(239) 774-7457",
    "address": " 8914 Shenendoah Cir - Naples, FL 34113",
    "location": "Leon"
  },
  {
    "dataYpid": "464166106",
    "name": "Patricia McCann Advertising",
    "description": "Advertising Agencies",
    "phone": "(239) 465-8274",
    "address": " 3605 Boca Ciega Dr - Naples, FL 34112",
    "location": "Leon"
  },
  {
    "dataYpid": "512342876",
    "name": "Sunset Marketing",
    "description": "Internet Marketing & Advertising",
    "phone": "(727) 755-8239",
    "address": " 5972 cerromar dr - naples, FL 34112",
    "location": "Leon"
  },
  {
    "dataYpid": "574432272",
    "name": "Lasso Up",
    "description": "Web Site Design & Services",
    "phone": "(888) 700-9412",
    "address": " 6229 Union Island Way - Naples, FL 34113",
    "location": "Leon"
  },
  {
    "dataYpid": "28760689",
    "name": "Hydroproducts Co",
    "description": "Advertising Specialties",
    "phone": "(239) 455-8351",
    "address": " 7185 Dennis Cir Apt 204 - Naples, FL 34104",
    "location": "Leon"
  },
  {
    "dataYpid": "479353668",
    "name": "Paul R Sheahan Co",
    "description": "Advertising Agencies",
    "phone": "(239) 732-1704",
    "address": " 3073 Van Buren Ave - Naples, FL 34112",
    "location": "Leon"
  },
  {
    "dataYpid": "530283126",
    "name": "Ima Creative Inc",
    "description": "Advertising Agencies",
    "phone": "(239) 331-8122",
    "address": " 2853 Linda Dr - Naples, FL 34112",
    "location": "Leon"
  },
  {
    "dataYpid": "13811561",
    "name": "Valva George",
    "description": "Advertising Agencies",
    "phone": "(239) 774-2040",
    "address": " 770 Eagle Creek Dr - Naples, FL 34113",
    "location": "Leon"
  },
  {
    "dataYpid": "477835983",
    "name": "Leonard K Stark Consultant Service",
    "description": "Advertising Agencies",
    "phone": "(239) 793-4458",
    "address": " 511 Eagle Creek Dr - Naples, FL 34113",
    "location": "Leon"
  },
  {
    "dataYpid": "5756798",
    "name": "ID Advertising and Marketing",
    "description": "Advertising Agencies",
    "phone": "(239) 417-0734",
    "address": " 255 Glen Eagle Cir - Naples, FL 34104",
    "location": "Leon"
  },
  {
    "dataYpid": "465440191",
    "name": "Customer Finder Marketing",
    "description": "Internet Marketing & Advertising",
    "phone": "(727) 642-3315",
    "address": " 4001 Santa Barbara Blvd Ste 358 - Naples, FL 34104",
    "location": "Leon"
  },
  {
    "dataYpid": "464341664",
    "name": "John Caskey Jr Ofc",
    "description": "Advertising Agencies",
    "phone": "(239) 732-7440",
    "address": " 2595 Tarpon Rd - Naples, FL 34102",
    "location": "Leon"
  },
  {
    "dataYpid": "20797319",
    "name": "Sign of the Times",
    "description": "Signs",
    "phone": "(239) 825-9674",
    "address": " 2317 Davis Blvd - Naples, FL 34104",
    "location": "Leon"
  },
  {
    "dataYpid": "462403592",
    "name": "Diego Signs Inc",
    "description": "Truck Painting & Lettering",
    "phone": "(239) 435-1291",
    "address": " 2193 Kirkwood Ave - Naples, FL 34112",
    "location": "Leon"
  },
  {
    "dataYpid": "4114554",
    "name": "Media Display",
    "description": "Advertising Agencies",
    "phone": "(239) 530-7798",
    "address": " 2168 Tarpon Rd - Naples, FL 34102",
    "location": "Leon"
  },
  {
    "dataYpid": "455676372",
    "name": "Intech Printing & Direct Mail",
    "description": "Direct Mail Advertising",
    "phone": "(239) 643-3430",
    "address": " 4408 Corporate Sq - Naples, FL 34104",
    "location": "Leon"
  },
  {
    "dataYpid": "509588230",
    "name": "American Promotional Products",
    "description": "Advertising Specialties",
    "phone": "(239) 353-7731",
    "address": " 222 Industrial Blvd Ste 137 - Naples, FL 34104",
    "location": "Leon"
  },
  {
    "dataYpid": "544474547",
    "name": "American Led Technology",
    "description": "Signs",
    "phone": "(239) 234-6490",
    "address": " 3992 Prospect Ave - Naples, FL 34104",
    "location": "Leon"
  },
  {
    "dataYpid": "473169382",
    "name": "Visual Concepts",
    "description": "Signs",
    "phone": "(239) 213-0399",
    "address": " 4730 Enterprise Ave Ste 306 - Naples, FL 34104",
    "location": "Leon"
  },
  {
    "dataYpid": "529753647",
    "name": "Signs N Wraps",
    "description": "Signs",
    "phone": "(239) 228-7596",
    "address": " 4740 Enterprise Ave - Naples, FL 34104",
    "location": "Leon"
  },
  {
    "dataYpid": "15392343",
    "name": "Mega Graphx Inc",
    "description": "Signs",
    "phone": "(239) 304-8288",
    "address": " 4670 Enterprise Ave - Naples, FL 34104",
    "location": "Leon"
  },
  {
    "dataYpid": "8045548",
    "name": "Fiddler Productions Film Video",
    "description": "Video Production Services",
    "phone": "(239) 435-1818",
    "address": " 4707 Enterprise Ave - Naples, FL 34104",
    "location": "Leon"
  },
  {
    "dataYpid": "4212741",
    "name": "Streetwise Enterprises",
    "description": "Advertising Agencies",
    "phone": "(239) 775-9216",
    "address": " 1971 Holiday Ln - Naples, FL 34104",
    "location": "Leon"
  },
  {
    "dataYpid": "503159746",
    "name": "GpL Printing Company",
    "description": "Printers-Continuous & Individual Form",
    "phone": "(239) 331-9975",
    "address": " 1011 Radio Rd - Naples, FL 34104",
    "location": "Leon"
  },
  {
    "dataYpid": "473498043",
    "name": "Haute Image Internationale",
    "description": "Advertising Agencies",
    "phone": "(239) 692-9495",
    "address": " 1100 Commercial Blvd Ste 109 - Naples, FL 34104",
    "location": "Leon"
  },
  {
    "dataYpid": "6112483",
    "name": "Concierge's Image",
    "description": "Advertising Agencies",
    "phone": "(239) 403-4080",
    "address": " 1100 Commercial Blvd - Naples, FL 34104",
    "location": "Leon"
  },
  {
    "dataYpid": "520681907",
    "name": "Franken Signs",
    "description": "Signs",
    "phone": "(239) 692-8570",
    "address": " 4120 Enterprise Ave - Naples, FL 34104",
    "location": "Leon"
  },
  {
    "dataYpid": "467397654",
    "name": "Mabrelia Inc",
    "description": "Advertising Agencies",
    "phone": "(239) 263-1291",
    "address": " 3673 Exchange Ave - Naples, FL 34104",
    "location": "Leon"
  },
  {
    "dataYpid": "479306424",
    "name": "Leed Signs",
    "description": "Signs",
    "phone": "(239) 262-0793",
    "address": " 4063 Enterprise Ave - Naples, FL 34104",
    "location": "Leon"
  },
  {
    "dataYpid": "504997792",
    "name": "Avenue Visual",
    "description": "Publicity Service",
    "phone": "(239) 961-6810",
    "address": " 3606 Enterprise Ave Ste 307 - Naples, FL 34104",
    "location": "Leon"
  },
  {
    "dataYpid": "555806446",
    "name": "Boardroompr",
    "description": "Advertising Agencies",
    "phone": "(239) 360-9340",
    "address": " 3606 Enterprise Ave - Naples, FL 34104",
    "location": "Leon"
  },
  {
    "dataYpid": "559263261",
    "name": "Signs Now",
    "description": "Signs",
    "phone": "(239) 261-8970",
    "address": " 3435 Enterprise Ave Ste 29 - Naples, FL 34104",
    "location": "Leon"
  },
  {
    "dataYpid": "459040679",
    "name": "Gator Graphix",
    "description": "Advertising Specialties",
    "phone": "(239) 643-4902",
    "address": " 4106 Progress Ave - Naples, FL 34104",
    "location": "Leon"
  },
  {
    "dataYpid": "15525593",
    "name": "The Neon Shop",
    "description": "Signs",
    "phone": "(239) 643-5065",
    "address": " 3649 Progress Ave - Naples, FL 34104",
    "location": "Leon"
  },
  {
    "dataYpid": "562278446",
    "name": "Signs Craft",
    "description": "Signs",
    "phone": "(239) 643-1777",
    "address": " 3649 Progress Ave - Naples, FL 34104",
    "location": "Leon"
  },
  {
    "dataYpid": "15996879",
    "name": "Municipal Supply and Sign Co",
    "description": "Signs",
    "phone": "(239) 262-4639",
    "address": " 1095 5th Ave N - Naples, FL 34102",
    "location": "Leon"
  },
  {
    "dataYpid": "574469971",
    "name": "Budget Direct Ads",
    "description": "Advertising Agencies",
    "phone": "(239) 422-6468",
    "address": " 4511 32nd Ave SW - Naples, FL 34116",
    "location": "Leon"
  },
  {
    "dataYpid": "465662443",
    "name": "Hawkeye Sign Co",
    "description": "Signs",
    "phone": "(239) 643-4420",
    "address": " 3772 Arnold Ave - Naples, FL 34104",
    "location": "Leon"
  },
  {
    "dataYpid": "503500217",
    "name": "Municipal Supply and Signs Company",
    "description": "Signs",
    "phone": "(239) 262-4645",
    "address": " 1095 5th Ave S - Naples, FL 34102",
    "location": "Leon"
  },
  {
    "dataYpid": "534154837",
    "name": "L+C Creative Group",
    "description": "Advertising Agencies",
    "phone": "(239) 228-7372",
    "address": " 849 7th Ave S - Naples, FL 34102",
    "location": "Leon"
  },
  {
    "dataYpid": "548439412",
    "name": "Diamond Concierge",
    "description": "Advertising Specialties",
    "phone": "(239) 302-6041",
    "address": " 2488 River Reach Dr - Naples, FL 34104",
    "location": "Leon"
  },
  {
    "dataYpid": "29451043",
    "name": "Latino Advertising Inc",
    "description": "Advertising Agencies",
    "phone": "(239) 352-9972",
    "address": " 5424 27th Pl SW - Naples, FL 34116",
    "location": "Leon"
  },
  {
    "dataYpid": "459556305",
    "name": "Paradise",
    "description": "Advertising Specialties",
    "phone": "(239) 465-4972",
    "address": " 649 5th Ave S - Naples, FL 34102",
    "location": "Leon"
  },
  {
    "dataYpid": "569847401",
    "name": "4 What Interactive",
    "description": "Advertising Agencies",
    "phone": "(239) 495-3010",
    "address": " 501 Goodlette-Frank Rd N - Naples, FL 34102",
    "location": "Leon"
  },
  {
    "dataYpid": "557455279",
    "name": "Tintology Inc",
    "description": "Copying & Duplicating Service",
    "phone": "(239) 330-7921",
    "address": " 4766 Golden Gate Pkwy - Naples, FL 34116",
    "location": "Leon"
  },
  {
    "dataYpid": "4757296",
    "name": "Buttercup Studio",
    "description": "Advertising Agencies",
    "phone": "(239) 659-1032",
    "address": " 660 Tamiami Trl N - Naples, FL 34102",
    "location": "Leon"
  },
  {
    "dataYpid": "29029623",
    "name": "Wright Group",
    "description": "Advertising Agencies",
    "phone": "(239) 436-1992",
    "address": " 1302 Noble Heron Way - Naples, FL 34105",
    "location": "Leon"
  },
  {
    "dataYpid": "487956167",
    "name": "Dave Horton Advertising",
    "description": "Advertising Agencies",
    "phone": "(239) 687-9499",
    "address": " 2128 55th St SW - Naples, FL 34116",
    "location": "Leon"
  },
  {
    "dataYpid": "542362877",
    "name": "Gulf Bay Advertising Agency",
    "description": "Advertising Agencies",
    "phone": "(239) 732-9400",
    "address": " 8156 Fiddlers Creek Pkwy - Naples, FL 34114",
    "location": "Leon"
  },
  {
    "dataYpid": "464315791",
    "name": "Technological Inc",
    "description": "Advertising Agencies",
    "phone": "(239) 436-7242",
    "address": " 5571 Hunter Blvd - Naples, FL 34116",
    "location": "Leon"
  },
  {
    "dataYpid": "504196791",
    "name": "Billboards USA",
    "description": "Advertising Agencies",
    "phone": "(941) 629-1115",
    "address": " 6819 Del Mar Ter - Naples, FL 34105",
    "location": "Leon"
  },
  {
    "dataYpid": "550503676",
    "name": "Arma Communications, Inc.",
    "description": "Web Site Design & Services",
    "phone": "(239) 248-0460",
    "address": " 225 Banyan Blvd Ste 220 - Naples, FL 34102",
    "location": "Leon"
  },
  {
    "dataYpid": "16369019",
    "name": "Guest Informant",
    "description": "Directory & Guide Advertising",
    "phone": "(239) 434-8328",
    "address": " 2900 14th St N - Naples, FL 34103",
    "location": "Leon"
  },
  {
    "dataYpid": "457986608",
    "name": "Impact Marketing",
    "description": "Advertising Agencies",
    "phone": "(239) 304-2057",
    "address": " 2900 14th St N - Naples, FL 34103",
    "location": "Leon"
  },
  {
    "dataYpid": "502938560",
    "name": "Web Vocals Advertising Agency",
    "description": "Advertising Agencies",
    "phone": "(855) 977-8785",
    "address": " 4225 Heritage Cir - Naples, FL 34116",
    "location": "Leon"
  },
  {
    "dataYpid": "469305863",
    "name": "Naples Flags",
    "description": "Signs",
    "phone": "(239) 263-4337",
    "address": " 2335 Tamiami Trl N - Naples, FL 34103",
    "location": "Leon"
  },
  {
    "dataYpid": "17212565",
    "name": "Sign Up",
    "description": "Signs-Erectors & Hangers",
    "phone": "(239) 304-0025",
    "address": " 3575 19th Ave SW - Naples, FL 34117",
    "location": "Leon"
  },
  {
    "dataYpid": "12345605",
    "name": "Beasley Broadcast Group Inc",
    "description": "Advertising-Broadcast & Film",
    "phone": "(239) 263-5000",
    "address": " 3033 Riviera Dr Ste 200 - Naples, FL 34103",
    "location": "Leon"
  },
  {
    "dataYpid": "11192101",
    "name": "Smart Markiting",
    "description": "Product Design, Development & Marketing",
    "phone": "(239) 403-7556",
    "address": " 3033 Riviera Dr - Naples, FL 34103",
    "location": "Leon"
  },
  {
    "dataYpid": "533382153",
    "name": "Elephant Marketing & Media",
    "description": "Advertising Agencies",
    "phone": "(239) 449-6107",
    "address": " 3510 Kraft Rd Ste 200 - Naples, FL 34105",
    "location": "Leon"
  },
  {
    "dataYpid": "10206779",
    "name": "Ad Designs of Naples Inc",
    "description": "Advertising Agencies",
    "phone": "(239) 263-2021",
    "address": " 838 Anchor Rode Dr - Naples, FL 34103",
    "location": "Leon"
  },
  {
    "dataYpid": "576728659",
    "name": "The Drivers World",
    "description": "Advertising Agencies",
    "phone": "(630) 489-9339",
    "address": " 1766 Bald Eagle Dr - Naples, FL 34105",
    "location": "Leon"
  },
  {
    "dataYpid": "461563648",
    "name": "DREAMFly Marketing",
    "description": "Marketing Programs & Services",
    "phone": "(239) 682-0082",
    "address": " 6145 Montelena Cir Apt 5102 - Naples, FL 34119",
    "location": "Leon"
  },
  {
    "dataYpid": "479363475",
    "name": "Life Christian Church",
    "description": "Advertising Agencies",
    "phone": "(239) 304-9255",
    "address": " 1005 Shady Rest Ln - Naples, FL 34103",
    "location": "Leon"
  },
  {
    "dataYpid": "464380485",
    "name": "Southern Rail MANAGEMENT",
    "description": "Advertising Agencies",
    "phone": "(239) 649-6922",
    "address": " 523 Turtle Hatch Ln - Naples, FL 34103",
    "location": "Leon"
  },
  {
    "dataYpid": "572601822",
    "name": "The Sailboat Agency",
    "description": "Advertising Agencies",
    "phone": "(239) 710-2197",
    "address": " 4850 Tamiami Trl N - Naples, FL 34103",
    "location": "Leon"
  },
  {
    "dataYpid": "571808076",
    "name": "Cheetah Agency",
    "description": "Advertising Agencies",
    "phone": "(239) 329-0202",
    "address": " 4851 Tamiami Trl N - Naples, FL 34103",
    "location": "Leon"
  },
  {
    "dataYpid": "3703127",
    "name": "Awesome Signs of SWFL",
    "description": "Signs",
    "phone": "(239) 514-7446",
    "address": " 5430 Jaeger Rd Ste 103 - Naples, FL 34109",
    "location": "Leon"
  },
  {
    "dataYpid": "29120352",
    "name": "I Center Advertising",
    "description": "Advertising Specialties",
    "phone": "(239) 593-6110",
    "address": " 1415 Panther Ln - Naples, FL 34109",
    "location": "Leon"
  },
  {
    "dataYpid": "483310243",
    "name": "AdSource",
    "description": "Advertising Agencies",
    "phone": "(239) 495-0007",
    "address": " 1415 Panther Ln Suite 159 - Naples, FL 34109",
    "location": "Leon"
  },
  {
    "dataYpid": "13840001",
    "name": "Lykins Signtek Inc",
    "description": "Signs",
    "phone": "(239) 594-8494",
    "address": " 5935 Taylor Rd - Naples, FL 34109",
    "location": "Leon"
  },
  {
    "dataYpid": "506002881",
    "name": "Signpro Graphics",
    "description": "Signs",
    "phone": "(239) 597-0390",
    "address": " 6222 Lee Ann Ln - Naples, FL 34109",
    "location": "Leon"
  },
  {
    "dataYpid": "564372988",
    "name": "FabLocal",
    "description": "Advertising Agencies",
    "phone": "(888) 945-5999",
    "address": " 6640 Willow Park Dr - Naples, FL 34109",
    "location": "Leon"
  },
  {
    "dataYpid": "462421806",
    "name": "Artful Signs",
    "description": "Signs",
    "phone": "(239) 431-7356",
    "address": " 6345 Janes Ln - Naples, FL 34109",
    "location": "Leon"
  },
  {
    "dataYpid": "526242911",
    "name": "Smart Marketing",
    "description": "Marketing Programs & Services",
    "phone": "(239) 403-7755",
    "address": " 6240 Shirley St - Naples, FL 34109",
    "location": "Leon"
  },
  {
    "dataYpid": "469345377",
    "name": "Industrial Distribution Resources",
    "description": "Distributing Service-Circular, Sample, Etc",
    "phone": "(239) 591-3777",
    "address": " 6609 Willow Park Dr - Naples, FL 34109",
    "location": "Leon"
  },
  {
    "dataYpid": "459408016",
    "name": "Proforma Dynamic Image Solutions Ll C",
    "description": "Advertising Specialties",
    "phone": "(239) 592-0086",
    "address": " 2277 Trade Center Way - Naples, FL 34109",
    "location": "Leon"
  },
  {
    "dataYpid": "455403422",
    "name": "Schlesinger Advertising",
    "description": "Advertising Agencies",
    "phone": "(239) 261-1146",
    "address": " 5203 Starfish Ave - Naples, FL 34103",
    "location": "Leon"
  },
  {
    "dataYpid": "2327573",
    "name": "Nature Trade Ctr Inc",
    "description": "Advertising Specialties",
    "phone": "(239) 592-0753",
    "address": " 1915 Trade Center Way - Naples, FL 34109",
    "location": "Leon"
  },
  {
    "dataYpid": "458652774",
    "name": "Hanalex Corp",
    "description": "Directory & Guide Advertising",
    "phone": "(239) 643-5545",
    "address": " 545 Wedgewood Way - Naples, FL 34119",
    "location": "Leon"
  },
  {
    "dataYpid": "15950107",
    "name": "Digital Marketing & Imaging",
    "description": "Marketing Consultants",
    "phone": "(239) 597-0002",
    "address": " 6729 Autumn Woods Blvd - Naples, FL 34109",
    "location": "Leon"
  },
  {
    "dataYpid": "533672493",
    "name": "Funky BubbleGum Marketing",
    "description": "Advertising Agencies",
    "phone": "(954) 600-1663",
    "address": " 1236 Laurel Ct - Marco Island, FL 34145",
    "location": "Leon"
  },
  {
    "dataYpid": "481331562",
    "name": "Tca Graphics Inc",
    "description": "Graphic Designers",
    "phone": "(239) 325-9857",
    "address": " 6835 Lantana Bridge Rd - Naples, FL 34109",
    "location": "Leon"
  },
  {
    "dataYpid": "486433720",
    "name": "Gulf Media Advertising Agency",
    "description": "Advertising Agencies",
    "phone": "(239) 860-5300",
    "address": " 2430 Vanderbilt Beach Rd Ste 108-103 - Naples, FL 34109",
    "location": "Leon"
  },
  {
    "dataYpid": "523713986",
    "name": "Astute Marketing and Consulting",
    "description": "Marketing Consultants",
    "phone": "(239) 284-2340",
    "address": " 2430 Vanderbilt Beach Rd - Naples, FL 34109",
    "location": "Leon"
  },
  {
    "dataYpid": "468235759",
    "name": "Market This",
    "description": "Advertising Specialties",
    "phone": "(239) 431-6524",
    "address": " 864 Turtle Ct - Naples, FL 34108",
    "location": "Leon"
  },
  {
    "dataYpid": "4296070",
    "name": "Lister-Kemp Advertising",
    "description": "Advertising Specialties",
    "phone": "(239) 455-0863",
    "address": " 95 17th St SW - Naples, FL 34117",
    "location": "Leon"
  },
  {
    "dataYpid": "531713716",
    "name": "Wilson Creative Group",
    "description": "Advertising Agencies",
    "phone": "(239) 597-9480",
    "address": " 2343 Vanderbilt Beach Rd - Naples, FL 34109",
    "location": "Leon"
  },
  {
    "dataYpid": "565054872",
    "name": "Naples Digital Marketing Agency Fannit",
    "description": "Internet Marketing & Advertising",
    "phone": "(239) 345-3680",
    "address": " 811 Wilson Blvd S - Naples, FL 34117",
    "location": "Leon"
  },
  {
    "dataYpid": "538438843",
    "name": "Pop Advertising Partners",
    "description": "Advertising Agencies",
    "phone": "(908) 963-7766",
    "address": " 60 Emerald Woods Dr - Naples, FL 34108",
    "location": "Leon"
  },
  {
    "dataYpid": "547839944",
    "name": "Scaleup Media",
    "description": "Advertising Agencies",
    "phone": "(239) 259-7474",
    "address": " 8805 Tamiami Trl N - Naples, FL 34108",
    "location": "Leon"
  },
  {
    "dataYpid": "550027792",
    "name": "Absher Design Group/Adg",
    "description": "Advertising Agencies",
    "phone": "(239) 596-4770",
    "address": " 5870 Spanish Oaks Ln - Naples, FL 34119",
    "location": "Leon"
  },
  {
    "dataYpid": "573179937",
    "name": "Effectv",
    "description": "Advertising Agencies",
    "phone": "(888) 877-9799",
    "address": " 999 Vanderbilt Beach Rd - Naples, FL 34108",
    "location": "Leon"
  },
  {
    "dataYpid": "462395222",
    "name": "Mona Lisa Graphic Design",
    "description": "Graphic Designers",
    "phone": "(239) 325-1860",
    "address": " 999 Vanderbilt Beach Rd Ste 200 - Naples, FL 34108",
    "location": "Leon"
  },
  {
    "dataYpid": "469091591",
    "name": "Mediabrains Inc",
    "description": "Advertising Agencies",
    "phone": "(239) 594-3200",
    "address": " 999 Vanderbilt Beach Rd Ste 607 - Naples, FL 34108",
    "location": "Leon"
  },
  {
    "dataYpid": "549520088",
    "name": "Dragon Horse Ad Agency",
    "description": "Advertising Specialties",
    "phone": "(305) 306-3992",
    "address": " 999 Vanderbilt Beach Rd Ste 200 - Naples, FL 34108",
    "location": "Leon"
  },
  {
    "dataYpid": "29075040",
    "name": "Nancy Tuck",
    "description": "Advertising Agencies",
    "phone": "(239) 593-8646",
    "address": " 1590 Clermont Dr Unit 205 - Naples, FL 34109",
    "location": "Leon"
  },
  {
    "dataYpid": "514893852",
    "name": "Naples Herald Inc",
    "description": "Advertising Specialties",
    "phone": "(877) 498-4400",
    "address": " 9128 Strada Pl Ste 10115 - Naples, FL 34108",
    "location": "Leon"
  },
  {
    "dataYpid": "530479885",
    "name": "Discount Emails USA",
    "description": "Internet Marketing & Advertising",
    "phone": "(239) 248-0049",
    "address": " 2290 Saturnia Grande Dr - Naples, FL 34119",
    "location": "Leon"
  },
  {
    "dataYpid": "459663087",
    "name": "Gulfshore Life Magazine",
    "description": "Directory & Guide Advertising",
    "phone": "(239) 594-9980",
    "address": " 9051 Tamiami Trl N Ste 202 - Naples, FL 34108",
    "location": "Leon"
  },
  {
    "dataYpid": "559527670",
    "name": "Koller Marketing Group",
    "description": "Marketing Consultants",
    "phone": "(239) 293-4659",
    "address": " 8710 Ibis Cove Cir - Naples, FL 34119",
    "location": "Leon"
  },
  {
    "dataYpid": "6874025",
    "name": "Paulich Specialty Company Inc",
    "description": "Advertising Specialties",
    "phone": "(239) 597-4636",
    "address": " 9331 Tamiami Trl N - Naples, FL 34108",
    "location": "Leon"
  },
  {
    "dataYpid": "536615230",
    "name": "B3 Marketing Naples Fl Office",
    "description": "Marketing Consultants",
    "phone": "(561) 405-1299",
    "address": " 7925 Preserve Cir Apt 328 - Naples, FL 34119",
    "location": "Leon"
  },
  {
    "dataYpid": "20138285",
    "name": "Valpak of Southwest Florida",
    "description": "Direct Mail Advertising",
    "phone": "(239) 594-3531",
    "address": " 10681 Airport-Pulling Rd Suite 21 - Naples, FL 34109",
    "location": "Leon"
  },
  {
    "dataYpid": "2956620",
    "name": "B-Squared Advertising",
    "description": "Print Advertising",
    "phone": "(239) 593-3600",
    "address": " 5675 Strand Ct - Naples, FL 34110",
    "location": "Leon"
  },
  {
    "dataYpid": "531867590",
    "name": "B2 Advertising",
    "description": "Advertising Agencies",
    "phone": "(239) 593-3600",
    "address": " 5675 Strand Ct - Naples, FL 34110",
    "location": "Leon"
  },
  {
    "dataYpid": "497424824",
    "name": "Laissez-Faire Media Group",
    "description": "Advertising-Broadcast & Film",
    "phone": "(239) 227-9537",
    "address": " 5633 Strand Blvd - Naples, FL 34110",
    "location": "Leon"
  },
  {
    "dataYpid": "472997808",
    "name": "Art Sellers Signs",
    "description": "Signs",
    "phone": "(239) 389-5269",
    "address": " 812 E Elkcam Cir - Marco Island, FL 34145",
    "location": "Leon"
  },
  {
    "dataYpid": "534583671",
    "name": "Sunshine Stitchers",
    "description": "Embroidery",
    "phone": "(239) 970-0200",
    "address": " 1106 N Collier Blvd - Marco Island, FL 34145",
    "location": "Leon"
  },
  {
    "dataYpid": "12297559",
    "name": "Salad Werks",
    "description": "Advertising Agencies",
    "phone": "(239) 642-0790",
    "address": " 950 N Collier Blvd Ste 414 - Marco Island, FL 34145",
    "location": "Leon"
  },
  {
    "dataYpid": "512466838",
    "name": "Magee Sign Service",
    "description": "Advertising Specialties",
    "phone": "(239) 259-2010",
    "address": " 1069 N Collier Blvd Ste 209 - Marco Island, FL 34145",
    "location": "Leon"
  },
  {
    "dataYpid": "7597446",
    "name": "Sign Artist",
    "description": "Signs",
    "phone": "(239) 394-8974",
    "address": " 47 Front St - Marco Island, FL 34145",
    "location": "Leon"
  },
  {
    "dataYpid": "464478473",
    "name": "Vacation Store",
    "description": "Advertising Agencies",
    "phone": "(239) 394-3444",
    "address": " 1857 San Marco Rd - Marco Island, FL 34145",
    "location": "Leon"
  },
  {
    "dataYpid": "14325914",
    "name": "A Flag It",
    "description": "Signs",
    "phone": "(239) 396-4342",
    "address": " 27261 South Riverside Drive - Bonita Springs, FL 34135",
    "location": "Leon"
  },
  {
    "dataYpid": "2807252",
    "name": "O K Koral Marketing",
    "description": "Marketing Consultants",
    "phone": "(239) 250-0071",
    "address": " 11398 Phoenix Way - Naples, FL 34119",
    "location": "Leon"
  },
  {
    "dataYpid": "18023355",
    "name": "Abovewater Public Relations",
    "description": "Public Relations Counselors",
    "phone": "(239) 596-9149",
    "address": " 107 Madison Dr - Naples, FL 34110",
    "location": "Leon"
  },
  {
    "dataYpid": "504727105",
    "name": "Blackfrog Agency",
    "description": "Advertising Agencies",
    "phone": "(888) 799-6003",
    "address": " 2211 Noble Ct - Naples, FL 34110",
    "location": "Leon"
  },
  {
    "dataYpid": "503669876",
    "name": "Reverb Media Inc",
    "description": "Media Brokers",
    "phone": "(239) 919-3353",
    "address": " 930 Everglades Blvd S - Naples, FL 34117",
    "location": "Leon"
  },
  {
    "dataYpid": "576835949",
    "name": "Glenn Torres | The Godfather Of Marketing",
    "description": "Marketing Programs & Services",
    "phone": "(239) 567-9937",
    "address": " 16230 Allura Cir - Naples, FL 34110",
    "location": "Leon"
  },
  {
    "dataYpid": "560214125",
    "name": "Lokal-Naples FL",
    "description": "Advertising Agencies",
    "phone": "(239) 784-0939",
    "address": " 1085 Business Ln - Naples, FL 34110",
    "location": "Leon"
  },
  {
    "dataYpid": "478341595",
    "name": "Inline Printing L.L.C.",
    "description": "Print Advertising",
    "phone": "(239) 431-0747",
    "address": " 1085 Business Ln Ste 1 - Naples, FL 34110",
    "location": "Leon"
  },
  {
    "dataYpid": "543359870",
    "name": "ActiveData Digital Marketing",
    "description": "Marketing Programs & Services",
    "phone": "(239) 465-0310",
    "address": " 1004 Collier Center Way Ste 206 - Naples, FL 34110",
    "location": "Leon"
  },
  {
    "dataYpid": "464275711",
    "name": "SMS Consultants Inc",
    "description": "Advertising Agencies",
    "phone": "(239) 455-3831",
    "address": " 2819 Orange Grove Trl - Naples, FL 34120",
    "location": "Leon"
  },
  {
    "dataYpid": "479375848",
    "name": "Designs Signs & Woodwork",
    "description": "Signs",
    "phone": "(239) 597-6441",
    "address": " 1320 Rail Head Blvd - Naples, FL 34110",
    "location": "Leon"
  },
  {
    "dataYpid": "560981710",
    "name": "Spin Advertising",
    "description": "Advertising Agencies",
    "phone": "(734) 730-3374",
    "address": " 1360 Sweetwater Cv - Naples, FL 34110",
    "location": "Leon"
  },
  {
    "dataYpid": "571242139",
    "name": "Maximum Potential Marketing",
    "description": "Marketing Programs & Services",
    "phone": "(239) 323-1885",
    "address": " 4570 20th St NE - Naples, FL 34120",
    "location": "Leon"
  },
  {
    "dataYpid": "464440748",
    "name": "Elektrosign",
    "description": "Advertising Specialties",
    "phone": "(239) 390-1579",
    "address": " 28910 Bermuda Pointe Cir - Bonita Springs, FL 34134",
    "location": "Leon"
  }
]