[
  {
    "dataYpid": "2440685",
    "name": "SK Company",
    "description": "Advertising-Promotional Products",
    "phone": "(941) 749-7487",
    "address": " 424 12th St W - Bradenton, FL 34205",
    "location": "Manatee"
  },
  {
    "dataYpid": "2340269",
    "name": "Riptide",
    "description": "Advertising-Promotional Products",
    "phone": "(941) 727-4860",
    "address": " 2896 48th Way E - Bradenton, FL 34203",
    "location": "Manatee"
  },
  {
    "dataYpid": "3290796",
    "name": "Spectrum Chemical",
    "description": "Advertising-Promotional Products",
    "phone": "(941) 751-5151",
    "address": " 3010 59th Avenue Dr E - Bradenton, FL 34203",
    "location": "Manatee"
  },
  {
    "dataYpid": "572062504",
    "name": "Impressed Shop Custom Gifts, Apparel and Promotional Items",
    "description": "Advertising-Promotional Products",
    "phone": "(941) 448-5096",
    "address": " 6160 State Road 70 E - Bradenton, FL 34203",
    "location": "Manatee"
  },
  {
    "dataYpid": "8480126",
    "name": "Katie-Dids Originals Inc",
    "description": "Advertising-Promotional Products",
    "phone": "(941) 756-8338",
    "address": " 6851 Whitfield Industrial Ave - Sarasota, FL 34243",
    "location": "Manatee"
  },
  {
    "dataYpid": "2276945",
    "name": "Royal Tiara Towels & Robes",
    "description": "Advertising-Promotional Products",
    "phone": "(941) 351-8880",
    "address": " 7326 38th Ct E - Sarasota, FL 34243",
    "location": "Manatee"
  },
  {
    "dataYpid": "466584033",
    "name": "Proforma Waterlilies",
    "description": "Advertising-Promotional Products",
    "phone": "(941) 359-0300",
    "address": " Sarasota FL 34243 - Sarasota, FL 34243",
    "location": "Manatee"
  },
  {
    "dataYpid": "19324282",
    "name": "Elias Promotional Marketing, Inc.",
    "description": "Advertising-Promotional Products",
    "phone": "(941) 224-5175",
    "address": " 11523 Palmbrush Trl - Lakewood Ranch, FL 34202",
    "location": "Manatee"
  },
  {
    "dataYpid": "4570816",
    "name": "Koala Tee Inc",
    "description": "Advertising-Promotional Products",
    "phone": "(941) 954-7700",
    "address": " 2160 17th St - Sarasota, FL 34234",
    "location": "Manatee"
  },
  {
    "dataYpid": "3348789",
    "name": "D L & Associates Inc",
    "description": "Advertising-Promotional Products",
    "phone": "(941) 355-8477",
    "address": " 2628 17th St - Sarasota, FL 34234",
    "location": "Manatee"
  },
  {
    "dataYpid": "531059816",
    "name": "Suncoast Print & Promotions Inc.",
    "description": "Advertising-Promotional Products",
    "phone": "(941) 366-1123",
    "address": " 1045 N Lime Ave - Sarasota, FL 34237",
    "location": "Manatee"
  },
  {
    "dataYpid": "29481512",
    "name": "Rogue Promotions",
    "description": "Advertising-Promotional Products",
    "phone": "(704) 765-2860",
    "address": " 242 S Washington Blvd - Sarasota, FL 34236",
    "location": "Manatee"
  },
  {
    "dataYpid": "574383552",
    "name": "Lonetix Corporation",
    "description": "Advertising-Promotional Products",
    "phone": "(941) 260-9419",
    "address": " 2000 S Tamiami Trl - Sarasota, FL 34239",
    "location": "Manatee"
  },
  {
    "dataYpid": "526443625",
    "name": "Stark Enterprises",
    "description": "Advertising-Promotional Products",
    "phone": "(941) 960-2868",
    "address": " 4785 Maid Marian Ln - Sarasota, FL 34232",
    "location": "Manatee"
  },
  {
    "dataYpid": "465680106",
    "name": "EmbroidMe Sarasota",
    "description": "Advertising-Promotional Products",
    "phone": "(941) 312-5494",
    "address": " 5931 Palmer Blvd - Sarasota, FL 34232",
    "location": "Manatee"
  },
  {
    "dataYpid": "13252836",
    "name": "TNT Tops-N-Tees",
    "description": "Advertising-Promotional Products",
    "phone": "(941) 924-6699",
    "address": " 2257 Bee Ridge Rd - Sarasota, FL 34239",
    "location": "Manatee"
  },
  {
    "dataYpid": "542514101",
    "name": "T-N-T Tops-N-Tees",
    "description": "Advertising-Promotional Products",
    "phone": "(941) 914-5096",
    "address": " 2636 Bee Ridge Rd - Sarasota, FL 34239",
    "location": "Manatee"
  },
  {
    "dataYpid": "10404783",
    "name": "Florida Knife Co",
    "description": "Advertising-Promotional Products",
    "phone": "(941) 371-2104",
    "address": " 1735 Apex Rd - Sarasota, FL 34240",
    "location": "Manatee"
  },
  {
    "dataYpid": "468405972",
    "name": "We Are One World",
    "description": "Advertising-Promotional Products",
    "phone": "(941) 718-3258",
    "address": " 1707 1st St E - Bradenton, FL 34208",
    "location": "Manatee"
  },
  {
    "dataYpid": "10129028",
    "name": "Keeton's Office Supply Co",
    "description": "Advertising-Promotional Products",
    "phone": "(941) 747-2995",
    "address": " 817 Manatee Ave W - Bradenton, FL 34205",
    "location": "Manatee"
  },
  {
    "dataYpid": "3452492",
    "name": "Straight Line Services",
    "description": "Advertising-Promotional Products",
    "phone": "(941) 746-6117",
    "address": " 1505 6th Ave W - Bradenton, FL 34205",
    "location": "Manatee"
  },
  {
    "dataYpid": "5845055",
    "name": "Printing Post",
    "description": "Advertising-Promotional Products",
    "phone": "(941) 753-1046",
    "address": " 5409 15th Street E - Bradenton, FL 34203",
    "location": "Manatee"
  },
  {
    "dataYpid": "547620962",
    "name": "Image360 Bradenton",
    "description": "Advertising-Promotional Products",
    "phone": "(941) 792-4453",
    "address": " 4230 26th St W - Bradenton, FL 34205",
    "location": "Manatee"
  },
  {
    "dataYpid": "506495583",
    "name": "WSM Distributin G",
    "description": "Advertising-Promotional Products",
    "phone": "(941) 238-0965",
    "address": " 1899 60th Pl E - Bradenton, FL 34203",
    "location": "Manatee"
  },
  {
    "dataYpid": "457886607",
    "name": "Pompano Sign Company",
    "description": "Advertising-Promotional Products",
    "phone": "(941) 592-4033",
    "address": " 6105 31st St E - Bradenton, FL 34203",
    "location": "Manatee"
  },
  {
    "dataYpid": "495379265",
    "name": "NutsITLab, L.L.C.",
    "description": "Advertising-Promotional Products",
    "phone": "(941) 524-4401",
    "address": " 6150 State Road 70 E - Bradenton, FL 34203",
    "location": "Manatee"
  },
  {
    "dataYpid": "563796969",
    "name": "Minuteman Press",
    "description": "Advertising-Promotional Products",
    "phone": "(941) 739-6602",
    "address": " 5103 Lena Rd Unit 107 - Bradenton, FL 34211",
    "location": "Manatee"
  },
  {
    "dataYpid": "19559851",
    "name": "ProspectsPLUS!",
    "description": "Advertising-Promotional Products",
    "phone": "(941) 723-2400",
    "address": " 10510 Portal Crossing Ste 107, Lakewood Ranch Commerce Park - Bradenton, FL 34211",
    "location": "Manatee"
  },
  {
    "dataYpid": "473820466",
    "name": "The Printery",
    "description": "Advertising-Promotional Products",
    "phone": "(941) 758-5734",
    "address": " 6452 Parkland Dr - Sarasota, FL 34243",
    "location": "Manatee"
  },
  {
    "dataYpid": "5425786",
    "name": "Brel International",
    "description": "Advertising-Promotional Products",
    "phone": "(941) 758-7500",
    "address": " 2001 Whitfield Park Ave - Sarasota, FL 34243",
    "location": "Manatee"
  },
  {
    "dataYpid": "542891573",
    "name": "Douglas Stewart Co",
    "description": "Advertising-Promotional Products",
    "phone": "(941) 210-7469",
    "address": " 7245 16th St E - Sarasota, FL 34243",
    "location": "Manatee"
  },
  {
    "dataYpid": "538303483",
    "name": "WebSearchFX",
    "description": "Advertising-Promotional Products",
    "phone": "(941) 877-0205",
    "address": " 12715 Nightshade Pl - Bradenton, FL 34202",
    "location": "Manatee"
  },
  {
    "dataYpid": "469024813",
    "name": "Rooks Advertising",
    "description": "Advertising-Promotional Products",
    "phone": "(941) 747-2021",
    "address": " 6958 Professional Pkwy E - Lakewood Ranch, FL 34240",
    "location": "Manatee"
  },
  {
    "dataYpid": "495330184",
    "name": "DC Graphics By Design",
    "description": "Advertising-Promotional Products",
    "phone": "(941) 705-2134",
    "address": " 6972 Professional Pkwy E - Lakewood Ranch, FL 34240",
    "location": "Manatee"
  },
  {
    "dataYpid": "469024815",
    "name": "Dandrea Provision of Sarasot",
    "description": "Advertising-Promotional Products",
    "phone": "(941) 907-0759",
    "address": " 7025 Professional Pkwy - Lakewood Ranch, FL 34240",
    "location": "Manatee"
  },
  {
    "dataYpid": "555613710",
    "name": "RSVP Advertising of Sarasota",
    "description": "Advertising-Promotional Products",
    "phone": "(941) 360-2145",
    "address": " 16535 County Road 675 - Parrish, FL 34219",
    "location": "Manatee"
  },
  {
    "dataYpid": "8789601",
    "name": "Lifejackets Productions",
    "description": "Advertising-Promotional Products",
    "phone": "(941) 927-6500",
    "address": " 3250 Espanola Dr - Sarasota, FL 34239",
    "location": "Manatee"
  },
  {
    "dataYpid": "469259068",
    "name": "Made U Look Promotions",
    "description": "Advertising-Promotional Products",
    "phone": "(941) 343-9070",
    "address": " 2069 Siesta Dr - Sarasota, FL 34239",
    "location": "Manatee"
  },
  {
    "dataYpid": "531785779",
    "name": "Elite Laser Engraving Inc",
    "description": "Advertising-Promotional Products",
    "phone": "(941) 227-0130",
    "address": " 6222 Tower Ln Unit A8 - Sarasota, FL 34240",
    "location": "Manatee"
  },
  {
    "dataYpid": "22244977",
    "name": "Accubeam Laser Marking",
    "description": "Advertising-Promotional Products",
    "phone": "(941) 371-2104",
    "address": " 1735 Apex Rd - Sarasota, FL 34240",
    "location": "Manatee"
  },
  {
    "dataYpid": "11866119",
    "name": "Tropic Supply Inc",
    "description": "Advertising-Promotional Products",
    "phone": "(941) 377-3172",
    "address": " 1892 Barber Rd - Sarasota, FL 34240",
    "location": "Manatee"
  },
  {
    "dataYpid": "549519836",
    "name": "Pro-Motion Notions",
    "description": "Advertising-Promotional Products",
    "phone": "(941) 952-1119",
    "address": " 4411 Bee Ridge Rd - Sarasota, FL 34233",
    "location": "Manatee"
  },
  {
    "dataYpid": "12940154",
    "name": "Decision Management International",
    "description": "Advertising Agencies",
    "phone": "(941) 748-8100",
    "address": " 1111 3rd St W - Bradenton, FL 34205",
    "location": "Manatee"
  },
  {
    "dataYpid": "3083245",
    "name": "Confluent Creative",
    "description": "Advertising Specialties",
    "phone": "(941) 722-0317",
    "address": " 717 Manatee Ave W Ste 100 - Bradenton, FL 34205",
    "location": "Manatee"
  },
  {
    "dataYpid": "12865756",
    "name": "Manatee Apparel Graphics",
    "description": "Printing Services",
    "phone": "(941) 746-6353",
    "address": " 1130 9th St W - Bradenton, FL 34205",
    "location": "Manatee"
  },
  {
    "dataYpid": "687966",
    "name": "Nolan Group",
    "description": "Public Relations Counselors",
    "phone": "(941) 744-0660",
    "address": " 431 12th St W Unit 203 - Bradenton, FL 34205",
    "location": "Manatee"
  },
  {
    "dataYpid": "531728481",
    "name": "Deckard & Company",
    "description": "Marketing Consultants",
    "phone": "(941) 462-4546",
    "address": " 1201 6th Ave W Ste 100 - Bradenton, FL 34205",
    "location": "Manatee"
  },
  {
    "dataYpid": "572984581",
    "name": "Net Sphere",
    "description": "Advertising Agencies",
    "phone": "(941) 300-0531",
    "address": " 1201 6th Ave W - Bradenton, FL 34205",
    "location": "Manatee"
  },
  {
    "dataYpid": "569922584",
    "name": "Offercio",
    "description": "Advertising Agencies",
    "phone": "(866) 932-3250",
    "address": " 1201 6th Ave W Ste 100 - Bradenton, FL 34205",
    "location": "Manatee"
  },
  {
    "dataYpid": "574924500",
    "name": "Movers Digital Marketers",
    "description": "Advertising Agencies",
    "phone": "(941) 600-7323",
    "address": " 1201 6th Ave W - Bradenton, FL 34205",
    "location": "Manatee"
  },
  {
    "dataYpid": "15504859",
    "name": "Jeffcoat Blueprinting",
    "description": "Blueprinting",
    "phone": "(941) 747-6499",
    "address": " 1325 Tamiami Trl - Bradenton, FL 34205",
    "location": "Manatee"
  },
  {
    "dataYpid": "520268010",
    "name": "Signs 2 Go Inc",
    "description": "Advertising Specialties",
    "phone": "(941) 748-9400",
    "address": " 2854 Manatee Ave E - Bradenton, FL 34208",
    "location": "Manatee"
  },
  {
    "dataYpid": "541262780",
    "name": "Build Signs Online",
    "description": "Signs",
    "phone": "(941) 748-9400",
    "address": " 2854 Manatee Avenue East - Bradenton, FL 34208",
    "location": "Manatee"
  },
  {
    "dataYpid": "475291834",
    "name": "Speed King Signs",
    "description": "Signs",
    "phone": "(941) 722-7446",
    "address": " 411 7th St W Ste 2 - Palmetto, FL 34221",
    "location": "Manatee"
  },
  {
    "dataYpid": "533131923",
    "name": "Signs 4 R Times Inc",
    "description": "Signs",
    "phone": "(941) 722-8888",
    "address": " 937 10th St E - Palmetto, FL 34221",
    "location": "Manatee"
  },
  {
    "dataYpid": "546288526",
    "name": "Discount Signs and Wraps",
    "description": "Signs",
    "phone": "(941) 896-9651",
    "address": " 3322 Manatee Ave W - Bradenton, FL 34205",
    "location": "Manatee"
  },
  {
    "dataYpid": "28813472",
    "name": "Suncheer Marketing",
    "description": "Advertising Agencies",
    "phone": "(941) 751-6376",
    "address": " 1013 47th Ave E - Bradenton, FL 34203",
    "location": "Manatee"
  },
  {
    "dataYpid": "481978459",
    "name": "Mastovich Design",
    "description": "Animation Services",
    "phone": "(941) 730-7073",
    "address": " 3210 20th Ave W - Bradenton, FL 34205",
    "location": "Manatee"
  },
  {
    "dataYpid": "16596358",
    "name": "Iagulli Signs & Craft Pennants Manufacturing",
    "description": "Signs",
    "phone": "(941) 753-4549",
    "address": " 2404 43rd Ave W - Bradenton, FL 34205",
    "location": "Manatee"
  },
  {
    "dataYpid": "29040014",
    "name": "K D Marketing",
    "description": "Advertising Agencies",
    "phone": "(941) 756-0640",
    "address": " 3611 Cambridge Dr W - Bradenton, FL 34205",
    "location": "Manatee"
  },
  {
    "dataYpid": "475437356",
    "name": "Signs Now",
    "description": "Signs",
    "phone": "(941) 792-4453",
    "address": " 4230 26th St W - Bradenton, FL 34205",
    "location": "Manatee"
  },
  {
    "dataYpid": "3362695",
    "name": "Budget Signs",
    "description": "Signs",
    "phone": "(941) 755-6719",
    "address": " 4537 26th St W - Bradenton, FL 34207",
    "location": "Manatee"
  },
  {
    "dataYpid": "504733474",
    "name": "NF Creative Solutions",
    "description": "Internet Marketing & Advertising",
    "phone": "(941) 780-0702",
    "address": " 3409 Cortez Rd W - Bradenton, FL 34210",
    "location": "Manatee"
  },
  {
    "dataYpid": "544793997",
    "name": "FASTSIGNS",
    "description": "Signs",
    "phone": "(941) 243-3947",
    "address": " 3501 Cortez Rd W - Bradenton, FL 34210",
    "location": "Manatee"
  },
  {
    "dataYpid": "457267543",
    "name": "F 1 Consultations Inc",
    "description": "Advertising Agencies",
    "phone": "(941) 896-8876",
    "address": " 1077 57th Ave W - Bradenton, FL 34207",
    "location": "Manatee"
  },
  {
    "dataYpid": "472129773",
    "name": "Atlas Solutions",
    "description": "Advertising Agencies",
    "phone": "(941) 727-1014",
    "address": " 2071 58th Avenue Cir E - Bradenton, FL 34203",
    "location": "Manatee"
  },
  {
    "dataYpid": "2904562",
    "name": "The Sign Factory",
    "description": "Signs",
    "phone": "(941) 792-4830",
    "address": " 6600 Manatee Ave W - Bradenton, FL 34209",
    "location": "Manatee"
  },
  {
    "dataYpid": "464186354",
    "name": "West Coast Signs",
    "description": "Signs",
    "phone": "(941) 755-5686",
    "address": " 6216 28th St E Ste A - Bradenton, FL 34203",
    "location": "Manatee"
  },
  {
    "dataYpid": "23137317",
    "name": "Sport About Inc",
    "description": "Advertising Specialties",
    "phone": "(941) 730-1021",
    "address": " 6606 36th Avenue Dr W - Bradenton, FL 34209",
    "location": "Manatee"
  },
  {
    "dataYpid": "560715067",
    "name": "Printavizion",
    "description": "Advertising Agencies",
    "phone": "(813) 803-5200",
    "address": " 4524 Marlin Ln - Palmetto, FL 34221",
    "location": "Manatee"
  },
  {
    "dataYpid": "526051151",
    "name": "Beach Lion Studios",
    "description": "Internet Marketing & Advertising",
    "phone": "(727) 207-1108",
    "address": " Po Box 416 - Ellenton, FL 34222",
    "location": "Manatee"
  },
  {
    "dataYpid": "521549479",
    "name": "Construction Marketing Inc.",
    "description": "Marketing Consultants",
    "phone": "(941) 312-7801",
    "address": " 2526 Trailmate Dr - Sarasota, FL 34243",
    "location": "Manatee"
  },
  {
    "dataYpid": "561702983",
    "name": "Vivid Studios",
    "description": "Web Site Design & Services",
    "phone": "(941) 896-5219",
    "address": " 2524 Trailmate Dr - Sarasota, FL 34243",
    "location": "Manatee"
  },
  {
    "dataYpid": "574939920",
    "name": "TruReach Marketing",
    "description": "Marketing Programs & Services",
    "phone": "(888) 315-4769",
    "address": " 7322 Manatee Ave W - Bradenton, FL 34209",
    "location": "Manatee"
  },
  {
    "dataYpid": "5761571",
    "name": "Right Idea Promotions",
    "description": "Advertising Specialties",
    "phone": "(941) 758-0182",
    "address": " 6435 26th St W - Bradenton, FL 34207",
    "location": "Manatee"
  },
  {
    "dataYpid": "542741084",
    "name": "Reel Deal Advertising",
    "description": "Advertising Agencies",
    "phone": "(877) 899-7865",
    "address": " 6728 26th St W - Bradenton, FL 34207",
    "location": "Manatee"
  },
  {
    "dataYpid": "519732519",
    "name": "Jsi Worldwide Inc",
    "description": "Marketing Consultants",
    "phone": "(941) 749-5883",
    "address": " 7754 Camden Harbour Dr - Bradenton, FL 34212",
    "location": "Manatee"
  },
  {
    "dataYpid": "526857875",
    "name": "5 For Fighting",
    "description": "Internet Marketing & Advertising",
    "phone": "(941) 744-7599",
    "address": " 8205 Haven Harbour Way - Bradenton, FL 34212",
    "location": "Manatee"
  },
  {
    "dataYpid": "22663023",
    "name": "The Waterlefe Directory",
    "description": "Advertising Agencies",
    "phone": "(941) 708-6734",
    "address": " 512 Mossy Branch Ln - Bradenton, FL 34212",
    "location": "Manatee"
  },
  {
    "dataYpid": "19363229",
    "name": "My Corner Now.Com",
    "description": "Advertising Agencies",
    "phone": "(941) 755-9600",
    "address": " 5454 Lena Rd Unit 106 - Bradenton, FL 34211",
    "location": "Manatee"
  },
  {
    "dataYpid": "536968172",
    "name": "Cactus Sky Communicationss",
    "description": "Advertising Agencies",
    "phone": "(941) 756-1932",
    "address": " 5454 Lena Rd Unit 104 - Bradenton, FL 34211",
    "location": "Manatee"
  },
  {
    "dataYpid": "10214940",
    "name": "Bell Graphics",
    "description": "Graphic Designers",
    "phone": "(941) 792-6030",
    "address": " 10226 46th Ave W - Bradenton, FL 34210",
    "location": "Manatee"
  },
  {
    "dataYpid": "459193886",
    "name": "American Sign Co",
    "description": "Signs",
    "phone": "(941) 921-5511",
    "address": " 6611 26th Ct E - Sarasota, FL 34243",
    "location": "Manatee"
  },
  {
    "dataYpid": "554073886",
    "name": "Now Thats A Wrap",
    "description": "Signs",
    "phone": "(941) 751-1920",
    "address": " 2017 Whitfield Park Dr - Sarasota, FL 34243",
    "location": "Manatee"
  },
  {
    "dataYpid": "10082106",
    "name": "Homeflex",
    "description": "Advertising Specialties",
    "phone": "(941) 809-1681",
    "address": " 6914 Magellan Way - Sarasota, FL 34243",
    "location": "Manatee"
  },
  {
    "dataYpid": "503438212",
    "name": "Mp Usa",
    "description": "Advertising Agencies",
    "phone": "(941) 727-7700",
    "address": " 2319 72nd Ave E - Sarasota, FL 34243",
    "location": "Manatee"
  },
  {
    "dataYpid": "544358144",
    "name": "Marketing By Design",
    "description": "Advertising Agencies",
    "phone": "(941) 907-6060",
    "address": " 6504 Palm Leaf Ct - Sarasota, FL 34243",
    "location": "Manatee"
  },
  {
    "dataYpid": "563886438",
    "name": "Blue Diamond Webs",
    "description": "Web Site Design & Services",
    "phone": "(907) 355-8883",
    "address": " 8111 Lemonwood Dr. South - Ellenton, FL 34222",
    "location": "Manatee"
  },
  {
    "dataYpid": "29053037",
    "name": "Valpak",
    "description": "Advertising Agencies",
    "phone": "(941) 776-8019",
    "address": " 2802 89th Ave E - Parrish, FL 34219",
    "location": "Manatee"
  },
  {
    "dataYpid": "464491126",
    "name": "Cpm Us",
    "description": "Advertising Agencies",
    "phone": "(941) 351-7583",
    "address": " 7425 16th St E - Sarasota, FL 34243",
    "location": "Manatee"
  },
  {
    "dataYpid": "5838552",
    "name": "Scott Signs Systems Inc",
    "description": "Signs",
    "phone": "(941) 355-5171",
    "address": " 7524 Commerce Pl - Sarasota, FL 34243",
    "location": "Manatee"
  },
  {
    "dataYpid": "481404139",
    "name": "Road Signs Inc",
    "description": "Signs",
    "phone": "(941) 355-4747",
    "address": " 1243 Tallevast Rd - Sarasota, FL 34243",
    "location": "Manatee"
  },
  {
    "dataYpid": "503600872",
    "name": "Nuestar Mobile Marketing",
    "description": "Advertising Agencies",
    "phone": "(727) 560-9698",
    "address": " 5207 72nd St E - Palmetto, FL 34221",
    "location": "Manatee"
  },
  {
    "dataYpid": "29107475",
    "name": "Dock29 Marketing",
    "description": "Internet Marketing & Advertising",
    "phone": "(941) 776-1925",
    "address": " 3823 91st Ave E - Parrish, FL 34219",
    "location": "Manatee"
  },
  {
    "dataYpid": "462417193",
    "name": "Glass Advertising Inc",
    "description": "Advertising Agencies",
    "phone": "(941) 351-4516",
    "address": " 8051 N Tamiami Trl - Sarasota, FL 34243",
    "location": "Manatee"
  },
  {
    "dataYpid": "469044630",
    "name": "Pro Net Marketing",
    "description": "Advertising Agencies",
    "phone": "(941) 351-9177",
    "address": " 7924 Oak Grove Cir - Sarasota, FL 34243",
    "location": "Manatee"
  },
  {
    "dataYpid": "530231831",
    "name": "Suncoast Skyview Photography",
    "description": "Aerial Photographers",
    "phone": "(941) 730-4461",
    "address": " 7108 Coachlight St - Sarasota, FL 34243",
    "location": "Manatee"
  },
  {
    "dataYpid": "561706660",
    "name": "Lakewood Ranch Signs & More",
    "description": "Signs",
    "phone": "(941) 251-7911",
    "address": " 10530 Portal Xing - Lakewood Ranch, FL 34211",
    "location": "Manatee"
  },
  {
    "dataYpid": "3010500",
    "name": "Sarasota Herald-Tribune",
    "description": "Advertising Specialties",
    "phone": "(941) 953-7755",
    "address": " 1800 University Pkwy - Sarasota, FL 34243",
    "location": "Manatee"
  },
  {
    "dataYpid": "464496978",
    "name": "Neathawk Dubuque & Packett",
    "description": "Advertising Agencies",
    "phone": "(941) 531-4414",
    "address": " 9219 63rd Ct E - Parrish, FL 34219",
    "location": "Manatee"
  },
  {
    "dataYpid": "504441863",
    "name": "Lakewood Ranch Signs and More",
    "description": "Signs",
    "phone": "(941) 251-5912",
    "address": " 2555 Lakewood Ranch Blvd - Bradenton, FL 34211",
    "location": "Manatee"
  },
  {
    "dataYpid": "497005805",
    "name": "Local Digital First",
    "description": "Advertising Agencies",
    "phone": "(941) 777-7701",
    "address": " 11015 Gatewood Dr - Bradenton, FL 34211",
    "location": "Manatee"
  },
  {
    "dataYpid": "482439330",
    "name": "Ad Exact Advertising",
    "description": "Advertising Agencies",
    "phone": "(941) 777-7701",
    "address": " 11015 Gatewood Dr - Bradenton, FL 34211",
    "location": "Manatee"
  },
  {
    "dataYpid": "8712932",
    "name": "Fox Business Group",
    "description": "Marketing Consultants",
    "phone": "(941) 758-2404",
    "address": " 6004 93rd Street Cir E - Bradenton, FL 34202",
    "location": "Manatee"
  },
  {
    "dataYpid": "552128262",
    "name": "Island Bold Advertising",
    "description": "Advertising Agencies",
    "phone": "(833) 361-5243",
    "address": " 9232 66th Avenue Dr E - Bradenton, FL 34202",
    "location": "Manatee"
  },
  {
    "dataYpid": "473397360",
    "name": "Ralph J Bloch & Associates Inc",
    "description": "Advertising Agencies",
    "phone": "(941) 306-5298",
    "address": " 7132 Dornough Ln - Bradenton, FL 34202",
    "location": "Manatee"
  },
  {
    "dataYpid": "464611379",
    "name": "Blue Wave Multi Media Advertising",
    "description": "Internet Consultants",
    "phone": "(800) 253-1272",
    "address": " 11523 Saw Palm Creek Trl - Bradenton, FL 34211",
    "location": "Manatee"
  },
  {
    "dataYpid": "488743040",
    "name": "SignZoo",
    "description": "Advertising Specialties",
    "phone": "(941) 355-5653",
    "address": " 4139 N Washington Blvd - Sarasota, FL 34234",
    "location": "Manatee"
  },
  {
    "dataYpid": "478398382",
    "name": "AdEmporia.com",
    "description": "Directory & Guide Advertising",
    "phone": "(408) 471-7237",
    "address": " 8437 Tuttle Ave # 316 - Sarasota, FL 34243",
    "location": "Manatee"
  },
  {
    "dataYpid": "16067455",
    "name": "Jennings & Company",
    "description": "Advertising Agencies",
    "phone": "(941) 351-1005",
    "address": " 436 Woodland Dr - Sarasota, FL 34234",
    "location": "Manatee"
  },
  {
    "dataYpid": "551914271",
    "name": "B K Sales Co",
    "description": "Advertising Specialties",
    "phone": "(941) 776-0600",
    "address": " 166 Begonia Ter - Parrish, FL 34219",
    "location": "Manatee"
  },
  {
    "dataYpid": "268204",
    "name": "Gulf Coast Signs of Sarasota, Inc.",
    "description": "Signs",
    "phone": "(941) 355-8841",
    "address": " 1713 Northgate Blvd - Sarasota, FL 34234",
    "location": "Manatee"
  },
  {
    "dataYpid": "469028765",
    "name": "Sign Service Company",
    "description": "Signs",
    "phone": "(941) 351-5565",
    "address": " 1928 Northgate Blvd - Sarasota, FL 34234",
    "location": "Manatee"
  },
  {
    "dataYpid": "479188897",
    "name": "Positively Mainstreet Graphics Advertising",
    "description": "Advertising Agencies",
    "phone": "(941) 360-6839",
    "address": " 1225 39th St - Sarasota, FL 34234",
    "location": "Manatee"
  },
  {
    "dataYpid": "556752400",
    "name": "99 Calls",
    "description": "Internet Marketing & Advertising",
    "phone": "(800) 717-4669",
    "address": " 10930 State Road 70 E - Lakewood Ranch, FL 34202",
    "location": "Manatee"
  },
  {
    "dataYpid": "458740258",
    "name": "Chuck Carey Design",
    "description": "Advertising Agencies",
    "phone": "(941) 870-2036",
    "address": " 11161 E State Road 70 Ste 110-123 - Lakewood Ranch, FL 34202",
    "location": "Manatee"
  },
  {
    "dataYpid": "29157047",
    "name": "Den Bone Barbeque",
    "description": "Advertising Agencies",
    "phone": "(941) 359-1587",
    "address": " 5312 Durango Ave - Sarasota, FL 34235",
    "location": "Manatee"
  },
  {
    "dataYpid": "28830631",
    "name": "Rossriter Marketing",
    "description": "Advertising Agencies",
    "phone": "(941) 383-2523",
    "address": " 591 Hibiscus Way - Longboat Key, FL 34228",
    "location": "Manatee"
  },
  {
    "dataYpid": "566632532",
    "name": "B 2B Resource Team",
    "description": "Advertising Agencies",
    "phone": "(941) 256-2229",
    "address": " Beaurivage Ave - Sarasota, FL 34243",
    "location": "Manatee"
  },
  {
    "dataYpid": "472133909",
    "name": "M & M Group Enterprises Inc",
    "description": "Advertising Agencies",
    "phone": "(941) 360-9397",
    "address": " 5015 Habana Dr - Sarasota, FL 34235",
    "location": "Manatee"
  },
  {
    "dataYpid": "482313059",
    "name": "Boldindesign",
    "description": "Print Advertising",
    "phone": "(941) 780-5385",
    "address": " 12806 24th Street Cir E - Parrish, FL 34219",
    "location": "Manatee"
  },
  {
    "dataYpid": "469049777",
    "name": "Rxmedspa.Com",
    "description": "Signs",
    "phone": "(941) 952-0500",
    "address": " 2800 Tamiami Trl - Sarasota, FL 34239",
    "location": "Manatee"
  },
  {
    "dataYpid": "1324799",
    "name": "Aker Marketing",
    "description": "Marketing Consultants",
    "phone": "(941) 552-7890",
    "address": " 9040 Town Center Pkwy - Lakewood Ranch, FL 34202",
    "location": "Manatee"
  },
  {
    "dataYpid": "554008429",
    "name": "Michaels Signs",
    "description": "Advertising Specialties",
    "phone": "(941) 365-7729",
    "address": " 2066 1/2 17th St - Sarasota, FL 34234",
    "location": "Manatee"
  },
  {
    "dataYpid": "7344573",
    "name": "Michael's Signs",
    "description": "Signs",
    "phone": "(941) 365-7729",
    "address": " 2066 1/2 17th St - Sarasota, FL 34234",
    "location": "Manatee"
  },
  {
    "dataYpid": "538640598",
    "name": "Sign Me Up",
    "description": "Advertising Specialties",
    "phone": "(941) 554-8988",
    "address": " 2347 17th St - Sarasota, FL 34234",
    "location": "Manatee"
  },
  {
    "dataYpid": "468199908",
    "name": "AlignDESIGN",
    "description": "Print Advertising",
    "phone": "(941) 747-2051",
    "address": " 307 167th Blvd ne - Bradenton, FL 34212",
    "location": "Manatee"
  },
  {
    "dataYpid": "465492690",
    "name": "Foster Business Development, LLC",
    "description": "Marketing Programs & Services",
    "phone": "(941) 962-3827",
    "address": " 8374 Market St # 189 - Lakewood Ranch, FL 34202",
    "location": "Manatee"
  },
  {
    "dataYpid": "538675449",
    "name": "Wayne Marketing",
    "description": "Advertising Agencies",
    "phone": "(941) 702-2126",
    "address": " 1962 Main St - Sarasota, FL 34236",
    "location": "Manatee"
  },
  {
    "dataYpid": "532252671",
    "name": "Get Found In Town",
    "description": "Advertising Agencies",
    "phone": "(941) 312-1130",
    "address": " 1922 Oak St Unit A - Sarasota, FL 34236",
    "location": "Manatee"
  },
  {
    "dataYpid": "464707513",
    "name": "Artistic Neon Sign Company",
    "description": "Signs",
    "phone": "(941) 364-9457",
    "address": " 2493 15th St - Sarasota, FL 34237",
    "location": "Manatee"
  },
  {
    "dataYpid": "467696217",
    "name": "Serbin Printing, Inc.",
    "description": "Printing Services",
    "phone": "(941) 366-0755",
    "address": " 1500 N Washington Blvd - Sarasota, FL 34236",
    "location": "Manatee"
  },
  {
    "dataYpid": "9378903",
    "name": "Mail-It",
    "description": "Direct Mail Advertising",
    "phone": "(941) 365-6245",
    "address": " 1500 N Washington Blvd - Sarasota, FL 34236",
    "location": "Manatee"
  },
  {
    "dataYpid": "455887853",
    "name": "Valpak of The Suncoast",
    "description": "Advertising Specialties",
    "phone": "(941) 776-8838",
    "address": " 8374 Market St # 157 - Lakewood Ranch, FL 34202",
    "location": "Manatee"
  },
  {
    "dataYpid": "556794157",
    "name": "Frankly",
    "description": "Internet Marketing & Advertising",
    "phone": "(732) 682-6164",
    "address": " Address On File With Bbb - Sarasota, FL 34235",
    "location": "Manatee"
  },
  {
    "dataYpid": "548121315",
    "name": "Fahrenheit 10 Inc",
    "description": "Advertising Agencies",
    "phone": "(941) 955-0151",
    "address": " 1161 N Tamiami Trl - Sarasota, FL 34236",
    "location": "Manatee"
  },
  {
    "dataYpid": "531543794",
    "name": "Niagara Sign Service",
    "description": "Advertising Specialties",
    "phone": "(941) 465-7461",
    "address": " 2491 15th St - Sarasota, FL 34237",
    "location": "Manatee"
  },
  {
    "dataYpid": "550004644",
    "name": "Salem Surround Sarasota",
    "description": "Advertising Agencies",
    "phone": "(813) 288-0805",
    "address": " 8130 Lakewood Main St Ste 103 - Lakewood Ranch, FL 34202",
    "location": "Manatee"
  },
  {
    "dataYpid": "469019608",
    "name": "Signature Signs of Sarasota",
    "description": "Signs",
    "phone": "(941) 951-0622",
    "address": " 2039 12th St - Sarasota, FL 34237",
    "location": "Manatee"
  },
  {
    "dataYpid": "537488099",
    "name": "Main Street Search Marketing",
    "description": "Internet Marketing & Advertising",
    "phone": "(844) 326-4080",
    "address": " 8130 Lakewood Main St, #321 - Lakewood Ranch, FL 34202",
    "location": "Manatee"
  },
  {
    "dataYpid": "547207120",
    "name": "Green Gem Advertising Inc",
    "description": "Advertising Agencies",
    "phone": "(833) 787-5724",
    "address": " 1058 N Tamiami Trl - Sarasota, FL 34236",
    "location": "Manatee"
  },
  {
    "dataYpid": "503388646",
    "name": "Where Is Ricky",
    "description": "Advertising Agencies",
    "phone": "(941) 822-5153",
    "address": " 1500 N Lockwood Ridge Rd Apt 24 - Sarasota, FL 34237",
    "location": "Manatee"
  },
  {
    "dataYpid": "571064761",
    "name": "NetReputation",
    "description": "Internet Marketing & Advertising",
    "phone": "(941) 229-3696",
    "address": " 1100 N Tuttle Ave - Sarasota, FL 34237",
    "location": "Manatee"
  },
  {
    "dataYpid": "550454541",
    "name": "Relativity SEO",
    "description": "Internet Marketing & Advertising",
    "phone": "(941) 251-5267",
    "address": " 517 72nd St - Holmes Beach, FL 34217",
    "location": "Manatee"
  },
  {
    "dataYpid": "563124990",
    "name": "Digital 941",
    "description": "Digital Printing & Imaging",
    "phone": "(941) 867-0442",
    "address": " 710 N Lemon Ave - Sarasota, FL 34236",
    "location": "Manatee"
  },
  {
    "dataYpid": "469017909",
    "name": "GRM Mgmt For Enterprise",
    "description": "Advertising Agencies",
    "phone": "(941) 361-1050",
    "address": " 8430 Enterprise Cir - Lakewood Ranch, FL 34202",
    "location": "Manatee"
  },
  {
    "dataYpid": "495839628",
    "name": "Nuevo Advertising Group Inc",
    "description": "Advertising Agencies",
    "phone": "(941) 752-4433",
    "address": " 677 N Washington Blvd - Sarasota, FL 34236",
    "location": "Manatee"
  },
  {
    "dataYpid": "468992699",
    "name": "Atlarge Inc",
    "description": "Advertising Agencies",
    "phone": "(941) 365-9200",
    "address": " 513 Central Ave - Sarasota, FL 34236",
    "location": "Manatee"
  },
  {
    "dataYpid": "13667976",
    "name": "Burgess Signs Inc",
    "description": "Signs",
    "phone": "(941) 955-7454",
    "address": " 735 N Lime Ave - Sarasota, FL 34237",
    "location": "Manatee"
  },
  {
    "dataYpid": "473528869",
    "name": "Be Creative USA Inc",
    "description": "Graphic Designers",
    "phone": "(941) 366-8800",
    "address": " 1419 5th St Ste D - Sarasota, FL 34236",
    "location": "Manatee"
  },
  {
    "dataYpid": "470677610",
    "name": "Sarasota Sign Machine",
    "description": "Signs",
    "phone": "(941) 302-4275",
    "address": " 601 N Washington Blvd - Sarasota, FL 34236",
    "location": "Manatee"
  },
  {
    "dataYpid": "12008493",
    "name": "Smith Advertising & Associates",
    "description": "Advertising Agencies",
    "phone": "(941) 955-7094",
    "address": " 1133 4th St Ste 205 - Sarasota, FL 34236",
    "location": "Manatee"
  },
  {
    "dataYpid": "12443226",
    "name": "Stockhouse Media Corp",
    "description": "Internet Marketing & Advertising",
    "phone": "(941) 365-5719",
    "address": " 1133 4th St - Sarasota, FL 34236",
    "location": "Manatee"
  },
  {
    "dataYpid": "483614051",
    "name": "Wilde Productions",
    "description": "Advertising Agencies",
    "phone": "(941) 316-9888",
    "address": " 461 N Orange Ave - Sarasota, FL 34236",
    "location": "Manatee"
  },
  {
    "dataYpid": "546034820",
    "name": "Hub Media",
    "description": "Advertising Agencies",
    "phone": "(941) 914-0117",
    "address": " 227 Central Ave - Sarasota, FL 34236",
    "location": "Manatee"
  },
  {
    "dataYpid": "559464712",
    "name": "Localyze Marketing",
    "description": "Advertising Agencies",
    "phone": "(941) 500-4045",
    "address": " 1680 Fruitville Rd - Sarasota, FL 34236",
    "location": "Manatee"
  },
  {
    "dataYpid": "470104696",
    "name": "Lift Off Strategy & Creative",
    "description": "Advertising Agencies",
    "phone": "(941) 753-4044",
    "address": " 6539 Field Sparrow Gln - Lakewood Ranch, FL 34202",
    "location": "Manatee"
  },
  {
    "dataYpid": "507576280",
    "name": "Gulf Rayz Media",
    "description": "Advertising Agencies",
    "phone": "(941) 365-1112",
    "address": " 1800 2nd St - Sarasota, FL 34236",
    "location": "Manatee"
  },
  {
    "dataYpid": "483327336",
    "name": "Spot Link",
    "description": "Advertising Agencies",
    "phone": "(941) 366-6281",
    "address": " 1605 Main St - Sarasota, FL 34236",
    "location": "Manatee"
  },
  {
    "dataYpid": "551948364",
    "name": "On Ideas",
    "description": "Advertising Agencies",
    "phone": "(941) 365-2710",
    "address": " 1605 Main St - Sarasota, FL 34236",
    "location": "Manatee"
  },
  {
    "dataYpid": "562127085",
    "name": "Web Presence",
    "description": "Internet Marketing & Advertising",
    "phone": "(844) 917-0925",
    "address": " 1440 Main St Fl 3 - Sarasota, FL 34236",
    "location": "Manatee"
  },
  {
    "dataYpid": "914922",
    "name": "Positively Main Street Graphics Advertising Art & Design",
    "description": "Advertising Agencies",
    "phone": "(941) 366-4959",
    "address": " 1460 Main St - Sarasota, FL 34236",
    "location": "Manatee"
  },
  {
    "dataYpid": "548177030",
    "name": "Shannon Post",
    "description": "Video Production Services",
    "phone": "(703) 732-2096",
    "address": " 100 N Washington Blvd - Sarasota, FL 34236",
    "location": "Manatee"
  },
  {
    "dataYpid": "547609996",
    "name": "Image360 Sarasota Central",
    "description": "Signs",
    "phone": "(941) 951-7888",
    "address": " 1693 Main St - Sarasota, FL 34236",
    "location": "Manatee"
  },
  {
    "dataYpid": "528623331",
    "name": "Nextiny Marketing",
    "description": "Advertising Agencies",
    "phone": "(941) 870-0623",
    "address": " 1819 Main St Ste 235 - Sarasota, FL 34236",
    "location": "Manatee"
  },
  {
    "dataYpid": "6669442",
    "name": "Baskerville Swirles & Ward",
    "description": "Advertising Agencies",
    "phone": "(941) 366-3888",
    "address": " 1740 Main St - Sarasota, FL 34236",
    "location": "Manatee"
  },
  {
    "dataYpid": "527911379",
    "name": "Next-Mark",
    "description": "Advertising Agencies",
    "phone": "(941) 544-2765",
    "address": " 40 S Pineapple Ave - Sarasota, FL 34236",
    "location": "Manatee"
  },
  {
    "dataYpid": "5713489",
    "name": "Genuity Group",
    "description": "Advertising Agencies",
    "phone": "(941) 955-1800",
    "address": " 1991 Main St Ste 248 - Sarasota, FL 34236",
    "location": "Manatee"
  },
  {
    "dataYpid": "570422022",
    "name": "Spredx",
    "description": "Advertising Agencies",
    "phone": "(941) 227-4857",
    "address": " 1343 Main St Ste 312 - Sarasota, FL 34236",
    "location": "Manatee"
  },
  {
    "dataYpid": "576248334",
    "name": "RevSurge Digital",
    "description": "Advertising Agencies",
    "phone": "(941) 402-7442",
    "address": " 1343 Main St Ste 705 - Sarasota, FL 34236",
    "location": "Manatee"
  },
  {
    "dataYpid": "469037565",
    "name": "Modus Direct",
    "description": "Advertising Agencies",
    "phone": "(941) 552-6770",
    "address": " 1343 Main St Ste 301 - Sarasota, FL 34236",
    "location": "Manatee"
  },
  {
    "dataYpid": "7729238",
    "name": "Ziegler Capital Markets",
    "description": "Internet Marketing & Advertising",
    "phone": "(941) 955-0769",
    "address": " 1341 Main St - Sarasota, FL 34236",
    "location": "Manatee"
  },
  {
    "dataYpid": "470773721",
    "name": "Cap Brand Marketing",
    "description": "Marketing Consultants",
    "phone": "(941) 953-9191",
    "address": " 1962 Main St - Sarasota, FL 34236",
    "location": "Manatee"
  },
  {
    "dataYpid": "502302864",
    "name": "Acrobatrix Worldwide",
    "description": "Advertising Agencies",
    "phone": "(941) 953-9155",
    "address": " 1962 Main St - Sarasota, FL 34236",
    "location": "Manatee"
  },
  {
    "dataYpid": "552179284",
    "name": "Ad Nerds Media",
    "description": "Advertising Agencies",
    "phone": "(941) 244-5015",
    "address": " 1990 Main St - Sarasota, FL 34236",
    "location": "Manatee"
  },
  {
    "dataYpid": "558588963",
    "name": "The Click Depot",
    "description": "Internet Marketing & Advertising",
    "phone": "(941) 306-3055",
    "address": " 1990 Main St Ste 772-A - Sarasota, FL 34236",
    "location": "Manatee"
  },
  {
    "dataYpid": "571805222",
    "name": "Cheetah Agency",
    "description": "Advertising Agencies",
    "phone": "(941) 662-4242",
    "address": " 1990 Main St - Sarasota, FL 34236",
    "location": "Manatee"
  },
  {
    "dataYpid": "507764364",
    "name": "Hill Industries America Inc",
    "description": "Advertising Specialties",
    "phone": "(941) 358-3100",
    "address": " 1990 Main St - Sarasota, FL 34236",
    "location": "Manatee"
  },
  {
    "dataYpid": "4597344",
    "name": "Smith And Associates Advertising",
    "description": "Advertising Agencies",
    "phone": "(941) 355-7900",
    "address": " 33 S Palm Ave - Sarasota, FL 34236",
    "location": "Manatee"
  },
  {
    "dataYpid": "451714288",
    "name": "Links Management Inc",
    "description": "Advertising Agencies",
    "phone": "(941) 366-2086",
    "address": " 22 S Links Ave - Sarasota, FL 34236",
    "location": "Manatee"
  },
  {
    "dataYpid": "3977562",
    "name": "Inter Ad Agency",
    "description": "Advertising Agencies",
    "phone": "(941) 365-5200",
    "address": " 45 S Palm Ave - Sarasota, FL 34236",
    "location": "Manatee"
  },
  {
    "dataYpid": "526892884",
    "name": "Clark Signs",
    "description": "Advertising Specialties",
    "phone": "(941) 955-2000",
    "address": " 1701 Ringling Blvd - Sarasota, FL 34236",
    "location": "Manatee"
  },
  {
    "dataYpid": "504974390",
    "name": "Group Z Signs",
    "description": "Signs",
    "phone": "(941) 706-3448",
    "address": " 2283 Ringling Blvd - Sarasota, FL 34237",
    "location": "Manatee"
  },
  {
    "dataYpid": "460321647",
    "name": "Infinity Designs & The Logo Shop",
    "description": "Advertising Agencies",
    "phone": "(941) 373-9797",
    "address": " 1938 Adams Ln - Sarasota, FL 34236",
    "location": "Manatee"
  },
  {
    "dataYpid": "480626717",
    "name": "Odato Marketing Group, Inc.",
    "description": "Internet Marketing & Advertising",
    "phone": "(941) 954-0345",
    "address": " 330 S Pineapple Ave Ste 203 - Sarasota, FL 34236",
    "location": "Manatee"
  },
  {
    "dataYpid": "4068489",
    "name": "Marketing by Design",
    "description": "Marketing Consultants",
    "phone": "(941) 907-6060",
    "address": " 6001 Business Blvd - Lakewood Ranch, FL 34240",
    "location": "Manatee"
  },
  {
    "dataYpid": "514996168",
    "name": "Mosiac Studios Inc",
    "description": "Advertising Agencies",
    "phone": "(941) 907-9639",
    "address": " 7307 Merchant Ct - Lakewood Ranch, FL 34240",
    "location": "Manatee"
  },
  {
    "dataYpid": "472299124",
    "name": "Adgals Inc",
    "description": "Advertising Agencies",
    "phone": "(941) 554-8245",
    "address": " 533 S Pineapple Ave - Sarasota, FL 34236",
    "location": "Manatee"
  },
  {
    "dataYpid": "451717216",
    "name": "Advice",
    "description": "Public Relations Counselors",
    "phone": "(941) 907-9507",
    "address": " 7365 Merchant Ct Ste 4 - Lakewood Ranch, FL 34240",
    "location": "Manatee"
  },
  {
    "dataYpid": "29143383",
    "name": "Logan & Long Inc",
    "description": "Advertising Agencies",
    "phone": "(941) 366-0995",
    "address": " 1902 Oak St - Sarasota, FL 34236",
    "location": "Manatee"
  },
  {
    "dataYpid": "454925639",
    "name": "Cc Direct",
    "description": "Advertising Agencies",
    "phone": "(941) 552-6770",
    "address": " 7361 International Pl - Lakewood Ranch, FL 34240",
    "location": "Manatee"
  },
  {
    "dataYpid": "480768950",
    "name": "Griffin Marketing Services",
    "description": "Marketing Consultants",
    "phone": "(941) 312-5350",
    "address": " 7357 International Pl Ste 102 - Lakewood Ranch, FL 34240",
    "location": "Manatee"
  },
  {
    "dataYpid": "492651184",
    "name": "New Vision Advertising",
    "description": "Advertising Agencies",
    "phone": "(941) 366-3757",
    "address": " 1751 Mound St - Sarasota, FL 34236",
    "location": "Manatee"
  },
  {
    "dataYpid": "152333",
    "name": "Grapevine Communication",
    "description": "Advertising Agencies",
    "phone": "(941) 351-0024",
    "address": " 5201 Paylor Ln - Lakewood Ranch, FL 34240",
    "location": "Manatee"
  },
  {
    "dataYpid": "469030429",
    "name": "Create Marketing Group",
    "description": "Marketing Consultants",
    "phone": "(941) 479-4919",
    "address": " 1568 Hickory View Cir - Parrish, FL 34219",
    "location": "Manatee"
  },
  {
    "dataYpid": "503687083",
    "name": "Matt Made Media",
    "description": "Media Brokers",
    "phone": "(941) 552-9402",
    "address": " 2274 Bay St - Sarasota, FL 34237",
    "location": "Manatee"
  },
  {
    "dataYpid": "23154017",
    "name": "Snider Marketing Service",
    "description": "Advertising Specialties",
    "phone": "(941) 371-0951",
    "address": " 1123 Stoeber Ave - Sarasota, FL 34232",
    "location": "Manatee"
  },
  {
    "dataYpid": "475645158",
    "name": "Adblaze",
    "description": "Advertising Specialties",
    "phone": "(941) 256-0777",
    "address": " 5317 Fruitville Rd Ste 113 - Sarasota, FL 34232",
    "location": "Manatee"
  },
  {
    "dataYpid": "462375846",
    "name": "Key Advertising",
    "description": "Advertising Agencies",
    "phone": "(941) 377-3488",
    "address": " 1415 Ranchero Dr - Sarasota, FL 34240",
    "location": "Manatee"
  },
  {
    "dataYpid": "560824383",
    "name": "CustomerClicks Company of Sarasota, Digital Marketing, Website Design",
    "description": "Marketing Consultants",
    "phone": "(941) 500-4282",
    "address": " 1501 S Shade Ave - Sarasota, FL 34239",
    "location": "Manatee"
  },
  {
    "dataYpid": "480726027",
    "name": "Knight Marketing",
    "description": "Advertising Agencies",
    "phone": "(941) 361-3070",
    "address": " 2032 Hawthorne St - Sarasota, FL 34239",
    "location": "Manatee"
  },
  {
    "dataYpid": "562111409",
    "name": "Edelsbacher Design Group Inc",
    "description": "Advertising Agencies",
    "phone": "(941) 925-4921",
    "address": " 430 N Cattlemen Rd - Sarasota, FL 34232",
    "location": "Manatee"
  },
  {
    "dataYpid": "571823067",
    "name": "Eruptr",
    "description": "Advertising Agencies",
    "phone": "(888) 378-7871",
    "address": " 16417 Cornwall Ln - Bradenton, FL 34202",
    "location": "Manatee"
  },
  {
    "dataYpid": "566648573",
    "name": "G Force Media",
    "description": "Advertising Agencies",
    "phone": "(941) 877-2272",
    "address": " 20400 E State Road 64 - Bradenton, FL 34212",
    "location": "Manatee"
  },
  {
    "dataYpid": "564524976",
    "name": "Ad America SEO & Web Design",
    "description": "Internet Marketing & Advertising",
    "phone": "(941) 203-3100",
    "address": " 8306 Curlew Ct. - Bradenton, FL 34202",
    "location": "Manatee"
  },
  {
    "dataYpid": "11809536",
    "name": "Signs in One Day",
    "description": "Signs",
    "phone": "(941) 231-2081",
    "address": " 4118 Bee Ridge Rd - Sarasota, FL 34233",
    "location": "Manatee"
  },
  {
    "dataYpid": "10166288",
    "name": "Aquarius Silk Screen Inc",
    "description": "Screen Printing",
    "phone": "(941) 377-3059",
    "address": " 5931 Palmer Blvd - Sarasota, FL 34232",
    "location": "Manatee"
  },
  {
    "dataYpid": "15139154",
    "name": "King Signs",
    "description": "Signs",
    "phone": "(941) 924-8456",
    "address": " 2920 Hyde Park St - Sarasota, FL 34239",
    "location": "Manatee"
  },
  {
    "dataYpid": "2878187",
    "name": "Simply Strategy",
    "description": "Advertising Agencies",
    "phone": "(941) 320-3182",
    "address": " 1837 Mid Ocean Cir - Sarasota, FL 34239",
    "location": "Manatee"
  },
  {
    "dataYpid": "475264628",
    "name": "Drive Digital Group",
    "description": "Advertising Agencies",
    "phone": "(941) 379-0002",
    "address": " 371 Interstate Blvd - Sarasota, FL 34240",
    "location": "Manatee"
  },
  {
    "dataYpid": "505422129",
    "name": "Sarasota Sign Shop",
    "description": "Signs",
    "phone": "(941) 377-8259",
    "address": " 410 Interstate Ct - Sarasota, FL 34240",
    "location": "Manatee"
  },
  {
    "dataYpid": "464364354",
    "name": "Healthcare Management Dcsns",
    "description": "Advertising Agencies",
    "phone": "(941) 346-1030",
    "address": " 3336 Higel Ave - Sarasota, FL 34242",
    "location": "Manatee"
  },
  {
    "dataYpid": "554411407",
    "name": "Aquarius Graphics",
    "description": "Advertising Specialties",
    "phone": "(941) 981-2623",
    "address": " 5931 Palmer Blvd - Sarasota, FL 34232",
    "location": "Manatee"
  },
  {
    "dataYpid": "472675046",
    "name": "Indigo Design",
    "description": "Typesetting",
    "phone": "(941) 882-1731",
    "address": " 2531 Siesta Dr - Sarasota, FL 34239",
    "location": "Manatee"
  },
  {
    "dataYpid": "569623425",
    "name": "SEO Counselors",
    "description": "Advertising Agencies",
    "phone": "(941) 444-6099",
    "address": " 3230 Southgate Circle Suite #102 - Sarasota, FL 34236",
    "location": "Manatee"
  },
  {
    "dataYpid": "531963923",
    "name": "Triple M Media Inc",
    "description": "Advertising Agencies",
    "phone": "(941) 323-7080",
    "address": " 6222 Tower Ln - Sarasota, FL 34240",
    "location": "Manatee"
  },
  {
    "dataYpid": "28732263",
    "name": "GT Alliance",
    "description": "Advertising Agencies",
    "phone": "(941) 726-0486",
    "address": " 999 Cattlemen Rd - Sarasota, FL 34232",
    "location": "Manatee"
  },
  {
    "dataYpid": "475467591",
    "name": "Leedom Group",
    "description": "Advertising Agencies",
    "phone": "(941) 955-1597",
    "address": " 3700 S Tamiami Trl Ste 1 - Sarasota, FL 34239",
    "location": "Manatee"
  },
  {
    "dataYpid": "18979681",
    "name": "B 2 B Signs",
    "description": "Advertising Specialties",
    "phone": "(941) 228-3600",
    "address": " 1177 Cattlemen Rd - Sarasota, FL 34232",
    "location": "Manatee"
  },
  {
    "dataYpid": "458568487",
    "name": "Admart Media",
    "description": "Advertising Agencies",
    "phone": "(941) 487-8825",
    "address": " 15 Paradise Plz Fl 34239 - Sarasota, FL 34239",
    "location": "Manatee"
  },
  {
    "dataYpid": "468993083",
    "name": "Time Right",
    "description": "Advertising Specialties",
    "phone": "(941) 927-6537",
    "address": " 15 Paradise Plz - Sarasota, FL 34239",
    "location": "Manatee"
  },
  {
    "dataYpid": "509511650",
    "name": "Premium Advertising",
    "description": "Advertising Agencies",
    "phone": "(941) 702-8607",
    "address": " 1235 Sarasota Center Blvd - Sarasota, FL 34240",
    "location": "Manatee"
  },
  {
    "dataYpid": "495302370",
    "name": "Sharper Advertising",
    "description": "Marketing Programs & Services",
    "phone": "(941) 702-8607",
    "address": " 1235 Sarasota Center Blvd - Sarasota, FL 34240",
    "location": "Manatee"
  },
  {
    "dataYpid": "18893821",
    "name": "Innovative Agent Service",
    "description": "Internet Marketing & Advertising",
    "phone": "(941) 921-5027",
    "address": " 2945 Bee Ridge Rd - Sarasota, FL 34239",
    "location": "Manatee"
  },
  {
    "dataYpid": "2401723",
    "name": "Nielubowicz & Associates Inc",
    "description": "Advertising Agencies",
    "phone": "(941) 924-5077",
    "address": " 1900 Glengary St - Sarasota, FL 34231",
    "location": "Manatee"
  },
  {
    "dataYpid": "2961126",
    "name": "Direct Corporate Solutions, Inc.",
    "description": "Advertising Specialties",
    "phone": "(941) 377-3600",
    "address": " 1850 Porter Lake Dr Ste 103 - Sarasota, FL 34240",
    "location": "Manatee"
  },
  {
    "dataYpid": "576574421",
    "name": "Brown Pine Cone",
    "description": "Advertising Agencies",
    "phone": "(941) 999-1399",
    "address": " 6321 Porter Rd Ste 4 - Sarasota, FL 34240",
    "location": "Manatee"
  },
  {
    "dataYpid": "462398629",
    "name": "KSC Inc",
    "description": "Advertising Agencies",
    "phone": "(941) 906-1555",
    "address": " 40 Sarasota Center Blvd - Sarasota, FL 34240",
    "location": "Manatee"
  },
  {
    "dataYpid": "545681915",
    "name": "Fpra",
    "description": "Advertising Agencies",
    "phone": "(941) 365-2135",
    "address": " 40 Sarasota Center Blvd - Sarasota, FL 34240",
    "location": "Manatee"
  },
  {
    "dataYpid": "21813785",
    "name": "Cornerstone Signs & Graphics",
    "description": "Signs",
    "phone": "(941) 921-9478",
    "address": " 8120 Uzita Dr - Sarasota, FL 34240",
    "location": "Manatee"
  },
  {
    "dataYpid": "465684241",
    "name": "Bbhw Media Group",
    "description": "Advertising Agencies",
    "phone": "(941) 377-2249",
    "address": " 2147 Porter Lake Dr - Sarasota, FL 34240",
    "location": "Manatee"
  },
  {
    "dataYpid": "475286769",
    "name": "World Consumer Alliance",
    "description": "Advertising Agencies",
    "phone": "(941) 444-7184",
    "address": " 2201 Cantu Ct Ste 102 - Sarasota, FL 34232",
    "location": "Manatee"
  },
  {
    "dataYpid": "542027660",
    "name": "Ebsco Sign Group",
    "description": "Advertising Specialties",
    "phone": "(941) 378-4242",
    "address": " 2201 Cantu Ct - Sarasota, FL 34232",
    "location": "Manatee"
  },
  {
    "dataYpid": "560131574",
    "name": "J M Stewart Corporation",
    "description": "Advertising Specialties",
    "phone": "(941) 378-4242",
    "address": " 2201 Cantu Ct Ste 215 - Sarasota, FL 34232",
    "location": "Manatee"
  },
  {
    "dataYpid": "6176365",
    "name": "Signs Plus",
    "description": "Signs",
    "phone": "(941) 378-4262",
    "address": " 4242 Mcintosh Ln - Sarasota, FL 34232",
    "location": "Manatee"
  },
  {
    "dataYpid": "13836830",
    "name": "Adventures In Advertising Tropical Promotions",
    "description": "Advertising Specialties",
    "phone": "(941) 955-9508",
    "address": " 4411 Bee Ridge Rd - Sarasota, FL 34233",
    "location": "Manatee"
  },
  {
    "dataYpid": "460716472",
    "name": "Precision Signs Inc",
    "description": "Signs",
    "phone": "(941) 342-9401",
    "address": " 2427 Porter Lake Dr - Sarasota, FL 34240",
    "location": "Manatee"
  },
  {
    "dataYpid": "472472105",
    "name": "Siesta Key Sign and Design",
    "description": "Signs",
    "phone": "(941) 371-4932",
    "address": " 2427 Porter Lake Dr - Sarasota, FL 34240",
    "location": "Manatee"
  },
  {
    "dataYpid": "5260260",
    "name": "Children's World & Children's World Uniform Supply",
    "description": "Uniforms",
    "phone": "(941) 955-6999",
    "address": " 4525 Bee Ridge Rd - Sarasota, FL 34233",
    "location": "Manatee"
  },
  {
    "dataYpid": "6314788",
    "name": "Designs Unlimited Custom Screen Printing",
    "description": "Uniforms",
    "phone": "(941) 923-4840",
    "address": " 4070 Sawyer Ct - Sarasota, FL 34233",
    "location": "Manatee"
  },
  {
    "dataYpid": "1538625",
    "name": "The Sarasota Home Mag Inc",
    "description": "Directory & Guide Advertising",
    "phone": "(941) 379-8780",
    "address": " 5540 Bee Ridge Rd - Sarasota, FL 34233",
    "location": "Manatee"
  },
  {
    "dataYpid": "503084565",
    "name": "Infobankmedia",
    "description": "Internet Consultants",
    "phone": "(941) 313-6614",
    "address": " 4040 Longhorn Dr - Sarasota, FL 34233",
    "location": "Manatee"
  }
]