[
  {
    "dataYpid": "462377676",
    "name": "The Swapper",
    "description": "Print Advertising",
    "phone": "(850) 973-6653",
    "address": " 115 SE Madison St - Madison, FL 32340",
    "location": "Marion"
  },
  {
    "dataYpid": "504392902",
    "name": "The Enterprise Recorder",
    "description": "Advertising Agencies",
    "phone": "(850) 973-4143",
    "address": " 1695 S State Road 53 - Madison, FL 32340",
    "location": "Marion"
  },
  {
    "dataYpid": "460349556",
    "name": "Enterprise Recorder",
    "description": "Advertising Agencies",
    "phone": "(850) 973-4143",
    "address": " 1695 N State Road 53 - Madison, FL 32340",
    "location": "Marion"
  },
  {
    "dataYpid": "573752715",
    "name": "Hbs Florida Specialties",
    "description": "Advertising-Promotional Products",
    "phone": "(229) 559-5625",
    "address": " 281 Hickory Grove Rd - Lake Park, GA 31636",
    "location": "Marion"
  },
  {
    "dataYpid": "572062502",
    "name": "Diamond S Designs",
    "description": "Advertising-Promotional Products",
    "phone": "(386) 227-6022",
    "address": " 18701 104th St - Live Oak, FL 32060",
    "location": "Marion"
  },
  {
    "dataYpid": "518476239",
    "name": "1804 Entertainment Alliance",
    "description": "Web Site Hosting",
    "phone": "(866) 937-1804",
    "address": " PO Box 0000 - Valdosta, GA 31603",
    "location": "Marion"
  },
  {
    "dataYpid": "562342291",
    "name": "Seorank Agency",
    "description": "Advertising Agencies",
    "phone": "(850) 223-1210",
    "address": " 3454 San Pedro Rd - Perry, FL 32347",
    "location": "Marion"
  },
  {
    "dataYpid": "2365435",
    "name": "Fairway Outdoor Advertising",
    "description": "Transit Advertising",
    "phone": "(229) 219-4489",
    "address": " 369 Enterprise Dr - Valdosta, GA 31601",
    "location": "Marion"
  },
  {
    "dataYpid": "4730268",
    "name": "Connors Sign & Graphic Art",
    "description": "Signs",
    "phone": "(850) 838-5944",
    "address": " 11942 SW Overstreet Ave - Lamont, FL 32336",
    "location": "Marion"
  },
  {
    "dataYpid": "7487864",
    "name": "Creative Stitches Signs & More",
    "description": "Signs",
    "phone": "(850) 997-2334",
    "address": " 1400 E Washington St - Monticello, FL 32344",
    "location": "Marion"
  },
  {
    "dataYpid": "547451163",
    "name": "Digital Enterprises",
    "description": "Signs",
    "phone": "(386) 362-1753",
    "address": " 19740 Us Highway 90 - Live Oak, FL 32060",
    "location": "Marion"
  },
  {
    "dataYpid": "505081228",
    "name": "The Cellular Advantage",
    "description": "Coupon Advertising",
    "phone": "(386) 249-0615",
    "address": " 16575 County Road 132 - Live Oak, FL 32060",
    "location": "Marion"
  },
  {
    "dataYpid": "524580565",
    "name": "Anchored Media Marketing",
    "description": "Internet Marketing & Advertising",
    "phone": "(702) 506-2211",
    "address": " 4013 Johnston Rd - Valdosta, GA 31606",
    "location": "Marion"
  },
  {
    "dataYpid": "2015805",
    "name": "Southeast Sales",
    "description": "Advertising Agencies",
    "phone": "(229) 253-1440",
    "address": " 3020 Us Highway 41 S - Valdosta, GA 31601",
    "location": "Marion"
  },
  {
    "dataYpid": "1491684",
    "name": "South Georgia Sign Co",
    "description": "Signs",
    "phone": "(229) 245-8209",
    "address": " 3772 Little John Cir - Valdosta, GA 31606",
    "location": "Marion"
  },
  {
    "dataYpid": "492708376",
    "name": "Ricks Signs",
    "description": "Advertising Specialties",
    "phone": "(229) 251-8093",
    "address": " 2456 Us Highway 41 S - Valdosta, GA 31601",
    "location": "Marion"
  },
  {
    "dataYpid": "534504203",
    "name": "Japser Sign & Specialty Products",
    "description": "Signs",
    "phone": "(386) 792-1354",
    "address": " 111 Sw Jasper Ave - Jasper, FL 32052",
    "location": "Marion"
  },
  {
    "dataYpid": "534607553",
    "name": "D & S Signs",
    "description": "Advertising Specialties",
    "phone": "(386) 792-1354",
    "address": " 6425 Nw Us Highway 41 - Jasper, FL 32052",
    "location": "Marion"
  },
  {
    "dataYpid": "1038578",
    "name": "Amiot Signs",
    "description": "Signs",
    "phone": "(229) 242-8056",
    "address": " 204 Tucker Rd - Valdosta, GA 31601",
    "location": "Marion"
  },
  {
    "dataYpid": "503096445",
    "name": "Embroidme",
    "description": "Advertising-Promotional Products",
    "phone": "(229) 588-3411",
    "address": " 413 Connell Rd Ste G - Valdosta, GA 31602",
    "location": "Marion"
  },
  {
    "dataYpid": "14523815",
    "name": "Colson Printing Co",
    "description": "Direct Mail Advertising",
    "phone": "(229) 242-7015",
    "address": " 711 N Oak St - Valdosta, GA 31601",
    "location": "Marion"
  },
  {
    "dataYpid": "457151783",
    "name": "Carter Sign Company",
    "description": "Signs-Maintenance & Repair",
    "phone": "(229) 247-1482",
    "address": " 1306 Edgewood Dr - Valdosta, GA 31601",
    "location": "Marion"
  },
  {
    "dataYpid": "1258543",
    "name": "Sessions Sign Company",
    "description": "Signs",
    "phone": "(229) 259-9595",
    "address": " 205 W Hill Ave - Valdosta, GA 31601",
    "location": "Marion"
  },
  {
    "dataYpid": "505772190",
    "name": "Nick Alan SEO",
    "description": "Internet Marketing & Advertising",
    "phone": "(229) 469-8155",
    "address": " 100 N Patterson St # 101 - Valdosta, GA 31601",
    "location": "Marion"
  },
  {
    "dataYpid": "469103687",
    "name": "Express Sign Company",
    "description": "Signs",
    "phone": "(229) 219-7446",
    "address": " 3302 Woodmen Cir - Valdosta, GA 31602",
    "location": "Marion"
  },
  {
    "dataYpid": "10401063",
    "name": "Fusion Creative Marketing",
    "description": "Advertising Agencies",
    "phone": "(229) 460-0479",
    "address": " 210 E Alden Ave - Valdosta, GA 31602",
    "location": "Marion"
  },
  {
    "dataYpid": "9304515",
    "name": "Claramente Cristiano Inc",
    "description": "Advertising Agencies",
    "phone": "(386) 792-1400",
    "address": " 12160 SE County Road 137 - Jasper, FL 32052",
    "location": "Marion"
  },
  {
    "dataYpid": "476047523",
    "name": "5Linx",
    "description": "Advertising Agencies",
    "phone": "(229) 329-1707",
    "address": " 503 1/2 E Gordon St - Valdosta, GA 31601",
    "location": "Marion"
  },
  {
    "dataYpid": "473996684",
    "name": "Kexby House",
    "description": "Advertising Specialties",
    "phone": "(850) 342-1444",
    "address": " 1115 E Pearl St - Monticello, FL 32344",
    "location": "Marion"
  },
  {
    "dataYpid": "530438171",
    "name": "Connors Signs & T-Shirts",
    "description": "Signs",
    "phone": "(850) 838-6942",
    "address": " 306 E Ellis St - Perry, FL 32347",
    "location": "Marion"
  },
  {
    "dataYpid": "464435275",
    "name": "Action Advertising",
    "description": "Advertising Agencies",
    "phone": "(850) 997-2577",
    "address": " 100 N Jefferson St - Monticello, FL 32344",
    "location": "Marion"
  },
  {
    "dataYpid": "536536260",
    "name": "Ryan's Sign Company",
    "description": "Signs",
    "phone": "(850) 838-7249",
    "address": " 4053 S Byron Butler Pkwy - Perry, FL 32348",
    "location": "Marion"
  },
  {
    "dataYpid": "451121984",
    "name": "Spearman Agency",
    "description": "Advertising Agencies",
    "phone": "(229) 386-0216",
    "address": " 115 2nd Ave - Valdosta, GA 31601",
    "location": "Marion"
  },
  {
    "dataYpid": "495318893",
    "name": "Hampton Jim",
    "description": "Advertising Agencies",
    "phone": "(229) 253-8939",
    "address": " 2947 New Statenville Hwy - Valdosta, GA 31606",
    "location": "Marion"
  },
  {
    "dataYpid": "451121887",
    "name": "Artist Management Inc",
    "description": "Advertising Specialties",
    "phone": "(229) 382-1804",
    "address": " 192 Church St - Valdosta, GA 31601",
    "location": "Marion"
  },
  {
    "dataYpid": "451122028",
    "name": "Progress Records",
    "description": "Advertising Specialties",
    "phone": "(229) 382-1804",
    "address": " 192 Church St - Valdosta, GA 31601",
    "location": "Marion"
  },
  {
    "dataYpid": "516911044",
    "name": "Express Sign Company & Repairs",
    "description": "Signs-Maintenance & Repair",
    "phone": "(229) 219-7446",
    "address": " 200 W Valley St - Valdosta, GA 31601",
    "location": "Marion"
  },
  {
    "dataYpid": "7930714",
    "name": "Quick Copy Printing",
    "description": "Copying & Duplicating Service",
    "phone": "(229) 293-0656",
    "address": " 1587 Baytree Rd - Valdosta, GA 31602",
    "location": "Marion"
  },
  {
    "dataYpid": "459320936",
    "name": "J L Concepts",
    "description": "Advertising Agencies",
    "phone": "(229) 247-5731",
    "address": " 2092 S Sherwood Dr - Valdosta, GA 31602",
    "location": "Marion"
  },
  {
    "dataYpid": "475567361",
    "name": "V Su F C A",
    "description": "Advertising Agencies",
    "phone": "(229) 232-4139",
    "address": " 304 Baytree Rd - Valdosta, GA 31602",
    "location": "Marion"
  },
  {
    "dataYpid": "9621502",
    "name": "Jordan Custom Signs",
    "description": "Signs",
    "phone": "(229) 247-8254",
    "address": " 208 Herbert St - Valdosta, GA 31601",
    "location": "Marion"
  },
  {
    "dataYpid": "16800864",
    "name": "Engravographics",
    "description": "Signs",
    "phone": "(229) 242-1238",
    "address": " 1601 N Ashley St - Valdosta, GA 31602",
    "location": "Marion"
  },
  {
    "dataYpid": "2168955",
    "name": "Trantham, Max D",
    "description": "Signs",
    "phone": "(229) 242-2204",
    "address": " 2410 Jerry Jones Dr - Valdosta, GA 31602",
    "location": "Marion"
  },
  {
    "dataYpid": "464343239",
    "name": "Thigpen Consulting",
    "description": "Advertising Agencies",
    "phone": "(229) 242-8108",
    "address": " 2206 Deborah Dr - Valdosta, GA 31602",
    "location": "Marion"
  },
  {
    "dataYpid": "458929042",
    "name": "Roger Budd Signs & Billboards",
    "description": "Signs",
    "phone": "(229) 244-3300",
    "address": " 2907 N Patterson St - Valdosta, GA 31602",
    "location": "Marion"
  }
]