[
  {
    "name": "Sunshine Promo Usa Inc",
    "description": "Advertising-Promotional Products",
    "phone": "(850) 995-4053",
    "address": " 4000 Highway 90 - Milton, FL 32571",
    "location": "Pasco"
  },
  {
    "name": "Baker Creative Advertising",
    "description": "Advertising-Promotional Products",
    "phone": "(850) 995-9557",
    "address": " 4233 Hazelhurst Dr - Milton, FL 32571",
    "location": "Pasco"
  },
  {
    "name": "A+ Sign Station",
    "description": "Signs-Erectors & Hangers",
    "phone": "(850) 994-6600",
    "address": " 3655 Highway 90 - Milton, FL 32571",
    "location": "Pasco"
  },
  {
    "name": "Personal Appraiser Guide",
    "description": "Advertising Specialties",
    "phone": "(850) 308-5904",
    "address": " 5345 Willow Oak Dr - Milton, FL 32571",
    "location": "Pasco"
  },
  {
    "name": "Bill Salter Advertising Inc",
    "description": "Outdoor Advertising",
    "phone": "(850) 994-4611",
    "address": " 5547 Highway 90 - Milton, FL 32571",
    "location": "Pasco"
  },
  {
    "name": "3SIXTY Marketing",
    "description": "Marketing Programs & Services",
    "phone": "(850) 393-4605",
    "address": " 350 W Cedar St Ste 300C - Pensacola, FL 32502",
    "location": "Pasco"
  },
  {
    "name": "Sign Crafters",
    "description": "Signs",
    "phone": "(850) 995-0010",
    "address": " 5273 Highway 90 - Milton, FL 32571",
    "location": "Pasco"
  },
  {
    "name": "Conquest Graphics",
    "description": "Graphic Designers",
    "phone": "(850) 607-0997",
    "address": " 5675 Highway 90 - Milton, FL 32583",
    "location": "Pasco"
  },
  {
    "name": "Appleyard Agency",
    "description": "Advertising Specialties",
    "phone": "(850) 494-2194",
    "address": " 4400 Bayou Blvd - Pensacola, FL 32503",
    "location": "Pasco"
  },
  {
    "name": "Logo Masters International Inc",
    "description": "Advertising-Promotional Products",
    "phone": "(850) 937-6770",
    "address": " 3018 Stefani Road, Bldg. 2 - Cantonment, FL 32533",
    "location": "Pasco"
  },
  {
    "name": "Logo Masters",
    "description": "Advertising-Promotional Products",
    "phone": "(850) 937-6770",
    "address": " 3069 Turners Meadow Rd - Pensacola, FL 32514",
    "location": "Pasco"
  },
  {
    "name": "MPB Today",
    "description": "Advertising-Promotional Products",
    "phone": "(919) 344-6637",
    "address": " 2401 Langley Ave - Pensacola, FL 32504",
    "location": "Pasco"
  },
  {
    "name": "Paradigm Promotions",
    "description": "Advertising-Promotional Products",
    "phone": "(850) 304-0510",
    "address": " 7761 Northpointe Blvd - Pensacola, FL 32514",
    "location": "Pasco"
  },
  {
    "name": "Currin Graphics",
    "description": "Advertising-Promotional Products",
    "phone": "(850) 505-0955",
    "address": " 2814 Copter Rd - Pensacola, FL 32514",
    "location": "Pasco"
  },
  {
    "name": "Apostolic Voice Magazine",
    "description": "Advertising-Promotional Products",
    "phone": "(850) 292-2350",
    "address": " 1024 Sawyer St - Pensacola, FL 32534",
    "location": "Pasco"
  },
  {
    "name": "Gulfstar Advertising Brochure Distribution",
    "description": "Advertising-Promotional Products",
    "phone": "(850) 983-0018",
    "address": " 5914 Hogans Aly - Milton, FL 32570",
    "location": "Pasco"
  },
  {
    "name": "Blue Onyx Marketing",
    "description": "Advertising-Promotional Products",
    "phone": "(850) 529-1438",
    "address": " 5365 Park Ln - Milton, FL 32570",
    "location": "Pasco"
  },
  {
    "name": "Gary Summitt Promotions",
    "description": "Advertising-Promotional Products",
    "phone": "(850) 484-2812",
    "address": " 621 Copper Ridge Dr - Cantonment, FL 32533",
    "location": "Pasco"
  },
  {
    "name": "Fsi Group",
    "description": "Advertising-Promotional Products",
    "phone": "(850) 434-2597",
    "address": " 3700 Creighton Rd Ste 3 - Pensacola, FL 32504",
    "location": "Pasco"
  },
  {
    "name": "Nai Print Solutions",
    "description": "Advertising-Promotional Products",
    "phone": "(850) 637-1260",
    "address": " 457 Strandview Dr - Pensacola, FL 32534",
    "location": "Pasco"
  },
  {
    "name": "FASTSIGNS",
    "description": "Signs",
    "phone": "(850) 477-9744",
    "address": " 6060 Tippin Ave - Pensacola, FL 32504",
    "location": "Pasco"
  },
  {
    "name": "Shopper The",
    "description": "Copying & Duplicating Service",
    "phone": "(850) 478-2222",
    "address": " 3041 E Olive Rd - Pensacola, FL 32514",
    "location": "Pasco"
  },
  {
    "name": "Gator Grafix Signs & Printing",
    "description": "Signs",
    "phone": "(850) 478-0486",
    "address": " 8447 Pensacola Blvd - Pensacola, FL 32534",
    "location": "Pasco"
  },
  {
    "name": "Prosperous I.M.",
    "description": "Internet Marketing & Advertising",
    "phone": "(850) 475-4460",
    "address": " 180 E Burgess Rd Ste E - Pensacola, FL 32503",
    "location": "Pasco"
  },
  {
    "name": "Cox Media",
    "description": "Television Stations & Broadcast Companies",
    "phone": "(850) 432-1403",
    "address": " 3405 McLemore Dr - Pensacola, FL 32514",
    "location": "Pasco"
  },
  {
    "name": "The Original Clark's Flea Market U.S.A",
    "description": "Advertising Agencies",
    "phone": "(850) 968-9595",
    "address": " 2345 Pompano Rd - Cantonment, FL 32533",
    "location": "Pasco"
  },
  {
    "name": "Hilight Electronic Displays",
    "description": "Advertising Specialties",
    "phone": "(850) 484-9829",
    "address": " 10030 Autumn Ln - Pensacola, FL 32514",
    "location": "Pasco"
  },
  {
    "name": "Ted Frazier Marketing",
    "description": "Internet Marketing & Advertising",
    "phone": "(850) 583-0638",
    "address": " 5418 Alabama St - Milton, FL 32570",
    "location": "Pasco"
  },
  {
    "name": "Hip Creative Agency",
    "description": "Advertising Agencies",
    "phone": "(850) 359-3081",
    "address": " 2690 S Highway 95a - Cantonment, FL 32533",
    "location": "Pasco"
  },
  {
    "name": "US Digital Media Inc",
    "description": "Advertising Agencies",
    "phone": "(850) 473-8886",
    "address": " 9100 Hamman Ave - Pensacola, FL 32514",
    "location": "Pasco"
  },
  {
    "name": "Saritus",
    "description": "Advertising Agencies",
    "phone": "(850) 291-6837",
    "address": " 1765 E Nine Mile Rd - Pensacola, FL 32514",
    "location": "Pasco"
  },
  {
    "name": "AC Advertising",
    "description": "Advertising Agencies",
    "phone": "(850) 437-3301",
    "address": " 1401 E Olive Rd Apt 3 - Pensacola, FL 32514",
    "location": "Pasco"
  },
  {
    "name": "Goodson Racing",
    "description": "Advertising Agencies",
    "phone": "(850) 477-0994",
    "address": " 89 W Hood Dr - Pensacola, FL 32534",
    "location": "Pasco"
  },
  {
    "name": "Hutchinson Communications",
    "description": "Internet Marketing & Advertising",
    "phone": "(850) 572-3172",
    "address": " 5350 Flax Rd - Pensacola, FL 32504",
    "location": "Pasco"
  },
  {
    "name": "McCall Duncan",
    "description": "Advertising Agencies",
    "phone": "(850) 476-5035",
    "address": " 4400 Bayou Blvd - Pensacola, FL 32503",
    "location": "Pasco"
  },
  {
    "name": "C & S Signs",
    "description": "Advertising Specialties",
    "phone": "(850) 983-9540",
    "address": " 5983 Commerce Rd - Milton, FL 32583",
    "location": "Pasco"
  },
  {
    "name": "JBT Service",
    "description": "Advertising Agencies",
    "phone": "(850) 994-1643",
    "address": " 5765 Highland Lake Dr - Milton, FL 32583",
    "location": "Pasco"
  },
  {
    "name": "Southern Media Inc",
    "description": "Advertising Agencies",
    "phone": "(850) 477-3995",
    "address": " 9165 Roe St - Pensacola, FL 32514",
    "location": "Pasco"
  },
  {
    "name": "Bill Salter Advertise",
    "description": "Advertising Agencies",
    "phone": "(850) 994-4611",
    "address": " 5692 Trevino Dr - Milton, FL 32570",
    "location": "Pasco"
  },
  {
    "name": "Paradigm Training Systems Inc",
    "description": "Advertising Specialties",
    "phone": "(850) 475-9147",
    "address": " 8048 Eastwood Ln - Pensacola, FL 32514",
    "location": "Pasco"
  },
  {
    "name": "Lea Personnel Management",
    "description": "Advertising Agencies",
    "phone": "(850) 494-9168",
    "address": " 6210 Maybelle Dr - Pensacola, FL 32504",
    "location": "Pasco"
  },
  {
    "name": "Pensacola Instant Promotions",
    "description": "Advertising Specialties",
    "phone": "(850) 434-1528",
    "address": " 7145 N 9th Ave - Pensacola, FL 32504",
    "location": "Pasco"
  },
  {
    "name": "Hitman Advertising",
    "description": "Advertising Specialties",
    "phone": "(850) 474-1110",
    "address": " 1116 E Olive Rd - Pensacola, FL 32514",
    "location": "Pasco"
  },
  {
    "name": "Consult 4",
    "description": "Interactive Media",
    "phone": "(850) 430-9805",
    "address": " 4752 Livingston Dr - Pensacola, FL 32504",
    "location": "Pasco"
  },
  {
    "name": "Bruno Marketing & Design",
    "description": "Marketing Consultants",
    "phone": "(850) 477-5885",
    "address": " 4340 Costa Mesa - Pensacola, FL 32504",
    "location": "Pasco"
  },
  {
    "name": "Signature Selections",
    "description": "Embroidery",
    "phone": "(850) 937-9090",
    "address": " 2450 S Highway 29 Ste 4 - Cantonment, FL 32533",
    "location": "Pasco"
  },
  {
    "name": "Hensley Signs & T's",
    "description": "Signs",
    "phone": "(850) 221-1452",
    "address": " 1921 Creighton Rd - Pensacola, FL 32504",
    "location": "Pasco"
  },
  {
    "name": "Sign Supply USA",
    "description": "Advertising Specialties",
    "phone": "(850) 476-0084",
    "address": " 9900 N Palafox St - Pensacola, FL 32534",
    "location": "Pasco"
  },
  {
    "name": "Williams Signs",
    "description": "Signs",
    "phone": "(850) 968-0427",
    "address": " 1350 E Kingsfield Rd - Cantonment, FL 32533",
    "location": "Pasco"
  },
  {
    "name": "ELW Consulting",
    "description": "Advertising Agencies",
    "phone": "(850) 476-1646",
    "address": " 6311 Dunlieth Pl - Pensacola, FL 32504",
    "location": "Pasco"
  },
  {
    "name": "Advertising Internet",
    "description": "Internet Service Providers (ISP)",
    "phone": "(850) 479-3966",
    "address": " 7100 Plantation Rd - Pensacola, FL 32504",
    "location": "Pasco"
  },
  {
    "name": "Gator Express Signs",
    "description": "Advertising Specialties",
    "phone": "(850) 473-9143",
    "address": " 6159 N 9th Ave - Pensacola, FL 32504",
    "location": "Pasco"
  },
  {
    "name": "Clear Channel Airports",
    "description": "Advertising Agencies",
    "phone": "(850) 433-1118",
    "address": " 2430 Airport Blvd - Pensacola, FL 32504",
    "location": "Pasco"
  },
  {
    "name": "Interspace Airport Advertising",
    "description": "Advertising Specialties",
    "phone": "(850) 433-1118",
    "address": " 2430 Airport Blvd - Pensacola, FL 32504",
    "location": "Pasco"
  },
  {
    "name": "Prosperous Internet Marketing Inc",
    "description": "Advertising Agencies",
    "phone": "(850) 462-5272",
    "address": " 180 E Burgess Rd - Pensacola, FL 32503",
    "location": "Pasco"
  },
  {
    "name": "Betacom Inc",
    "description": "Advertising Agencies",
    "phone": "(850) 912-8682",
    "address": " 8670 Fowler Ave - Pensacola, FL 32534",
    "location": "Pasco"
  },
  {
    "name": "Wcaa Inc",
    "description": "Advertising Agencies",
    "phone": "(850) 478-6540",
    "address": " 3533 Pine Forest Rd - Cantonment, FL 32533",
    "location": "Pasco"
  },
  {
    "name": "Michael Kenney Graphic Design",
    "description": "Advertising Agencies",
    "phone": "(850) 433-1972",
    "address": " 4400 Bayou Blvd - Pensacola, FL 32503",
    "location": "Pasco"
  },
  {
    "name": "Mo Money Associates Inc",
    "description": "Advertising-Promotional Products",
    "phone": "(850) 432-6301",
    "address": " 3838 N Palafox St - Pensacola, FL 32505",
    "location": "Pasco"
  },
  {
    "name": "The Boatwright Company Inc",
    "description": "Advertising-Promotional Products",
    "phone": "(850) 434-1084",
    "address": " 1125 E Cross St - Pensacola, FL 32503",
    "location": "Pasco"
  },
  {
    "name": "The Kirkman Co",
    "description": "Advertising-Promotional Products",
    "phone": "(850) 455-1500",
    "address": " 5106 Treahna Rd - Pensacola, FL 32526",
    "location": "Pasco"
  },
  {
    "name": "Award Masters Inc",
    "description": "Advertising-Promotional Products",
    "phone": "(850) 438-2124",
    "address": " 5353 N Palafox St - Pensacola, FL 32505",
    "location": "Pasco"
  },
  {
    "name": "Elite Printing & Marketing",
    "description": "Advertising-Promotional Products",
    "phone": "(850) 474-0894",
    "address": " 3636 N L st Building D Suite A - Pensacola, FL 32503",
    "location": "Pasco"
  },
  {
    "name": "The Marketing Bar",
    "description": "Advertising-Promotional Products",
    "phone": "(850) 435-4600",
    "address": " 260 S Tarragona St Ste 140 - Pensacola, FL 32502",
    "location": "Pasco"
  },
  {
    "name": "Qualified Marketing Service",
    "description": "Advertising-Promotional Products",
    "phone": "(850) 932-8383",
    "address": " 6231 N W St - Pensacola, FL 32505",
    "location": "Pasco"
  },
  {
    "name": "Logo Motion Marketing",
    "description": "Advertising-Promotional Products",
    "phone": "(850) 434-1084",
    "address": " 1125 E Cross St - Pensacola, FL 32503",
    "location": "Pasco"
  },
  {
    "name": "Premier Marketing Associates",
    "description": "Advertising-Promotional Products",
    "phone": "(850) 497-6208",
    "address": " 125 W Romana St Ste 525 - Pensacola, FL 32502",
    "location": "Pasco"
  },
  {
    "name": "StepAbove Graphics & Printing",
    "description": "Advertising-Promotional Products",
    "phone": "(850) 466-2800",
    "address": " 3391 N Pace Blvd - Pensacola, FL 32505",
    "location": "Pasco"
  },
  {
    "name": "DLUX Printing, Inc.",
    "description": "Advertising-Promotional Products",
    "phone": "(850) 457-8494",
    "address": " 3320 N W St - Pensacola, FL 32505",
    "location": "Pasco"
  },
  {
    "name": "Vowells Downtown Printing",
    "description": "Advertising-Aerial",
    "phone": "(850) 438-7831",
    "address": " 1233 Barrancas Ave - Pensacola, FL 32502",
    "location": "Pasco"
  },
  {
    "name": "Write Away",
    "description": "Signs",
    "phone": "(850) 456-5571",
    "address": " 5712 Ventura Ln - Pensacola, FL 32526",
    "location": "Pasco"
  },
  {
    "name": "Creative Instinct Signs & Graphics",
    "description": "Signs",
    "phone": "(850) 436-2040",
    "address": " 4800 N W St - Pensacola, FL 32505",
    "location": "Pasco"
  },
  {
    "name": "Electronic Display Networks",
    "description": "Advertising Agencies",
    "phone": "(850) 432-8080",
    "address": " 3014 E Cervantes St - Pensacola, FL 32503",
    "location": "Pasco"
  },
  {
    "name": "HIP Creative Inc.",
    "description": "Advertising Specialties",
    "phone": "(850) 359-3081",
    "address": " 301 N Barcelona St - Pensacola, FL 32501",
    "location": "Pasco"
  },
  {
    "name": "Valpak of The Gulf Coast",
    "description": "Advertising Agencies",
    "phone": "(850) 530-8557",
    "address": " 109 N A St - Pensacola, FL 32502",
    "location": "Pasco"
  },
  {
    "name": "Local Web Branding",
    "description": "Advertising Agencies",
    "phone": "(850) 725-5696",
    "address": " 5336 N Blue Angel Pkwy - Pensacola, FL 32526",
    "location": "Pasco"
  },
  {
    "name": "Level Up Web Design",
    "description": "Web Site Design & Services",
    "phone": "(850) 565-1688",
    "address": " PO Box 827 - Pensacola, FL 32591",
    "location": "Pasco"
  },
  {
    "name": "F9 Digital Media",
    "description": "Advertising Agencies",
    "phone": "(850) 857-8335",
    "address": " 195 E Fairfield Dr - Pensacola, FL 32503",
    "location": "Pasco"
  },
  {
    "name": "LocaliQ",
    "description": "Advertising Agencies",
    "phone": "(877) 525-6084",
    "address": " 2 N Palafox St - Pensacola, FL 32502",
    "location": "Pasco"
  },
  {
    "name": "Metrics + Message",
    "description": "Web Site Design & Services",
    "phone": "(850) 270-8083",
    "address": " 3 W Garden St - Pensacola, FL 32502",
    "location": "Pasco"
  },
  {
    "name": "Something Stitchy",
    "description": "Embroidery",
    "phone": "(850) 458-6525",
    "address": " 5989 N Blue Angel Pkwy - Pensacola, FL 32526",
    "location": "Pasco"
  },
  {
    "name": "Maps & Legends Marketing",
    "description": "Marketing Programs & Services",
    "phone": "(850) 462-4982",
    "address": " 418 W Garden St Ste 306 - Pensacola, FL 32502",
    "location": "Pasco"
  },
  {
    "name": "Joshua Lyons Marketing",
    "description": "Internet Marketing & Advertising",
    "phone": "(850) 898-2237",
    "address": " 225 N Pace Blvd - Pensacola, FL 32505",
    "location": "Pasco"
  },
  {
    "name": "Lisa Bradley",
    "description": "Copying & Duplicating Service",
    "phone": "(850) 438-7831",
    "address": " 1233 Barrancas Ave - Pensacola, FL 32502",
    "location": "Pasco"
  },
  {
    "name": "Lamar Advertising Company of Pensacola",
    "description": "Outdoor Advertising",
    "phone": "(850) 433-0024",
    "address": " 1401 N Tarragona St - Pensacola, FL 32501",
    "location": "Pasco"
  },
  {
    "name": "Ideaworks, Inc.",
    "description": "Advertising Specialties",
    "phone": "(850) 434-9095",
    "address": " 1110 N Palafox St - Pensacola, FL 32501",
    "location": "Pasco"
  },
  {
    "name": "E W Bullock Associates",
    "description": "Advertising Agencies",
    "phone": "(850) 438-4015",
    "address": " 730 Bayfront Pkwy - Pensacola, FL 32502",
    "location": "Pasco"
  },
  {
    "name": "Advertising Agent: Andrea Bonner",
    "description": "Advertising-Broadcast & Film",
    "phone": "(850) 982-0848",
    "address": " 500 W Belmont St - Pensacola, FL 32501",
    "location": "Pasco"
  },
  {
    "name": "E.W. Bullock Associates Inc.",
    "description": "Advertising Specialties",
    "phone": "(850) 438-4015",
    "address": " 19 W Garden St Ste 201 - Pensacola, FL 32502",
    "location": "Pasco"
  },
  {
    "name": "Thrifty Nickel",
    "description": "Advertising Agencies",
    "phone": "(850) 469-9712",
    "address": " 225 N Pace Blvd - Pensacola, FL 32505",
    "location": "Pasco"
  },
  {
    "name": "Graphic Grooves Production Company",
    "description": "Marketing Consultants",
    "phone": "(850) 291-3003",
    "address": " 804 Royce St Apt 126 - Pensacola, FL 32503",
    "location": "Pasco"
  },
  {
    "name": "Lecc",
    "description": "Advertising Agencies",
    "phone": "(850) 450-9214",
    "address": " 7852 Petersen Point Rd - Milton, FL 32583",
    "location": "Pasco"
  },
  {
    "name": "OverPower Marketing",
    "description": "Marketing Programs & Services",
    "phone": "(850) 972-2666",
    "address": " 8327 Wilde Lake Rd - Pensacola, FL 32526",
    "location": "Pasco"
  },
  {
    "name": "Hi-Impact Designs",
    "description": "Signs",
    "phone": "(850) 432-6149",
    "address": " 709 Concordia Blvd - Pensacola, FL 32505",
    "location": "Pasco"
  },
  {
    "name": "Compu Graphix",
    "description": "Signs",
    "phone": "(850) 433-2455",
    "address": " 800 Beverly Pkwy - Pensacola, FL 32505",
    "location": "Pasco"
  },
  {
    "name": "Our Sign Guy",
    "description": "Signs",
    "phone": "(850) 607-6228",
    "address": " 7000 Pine Forest Rd - Pensacola, FL 32526",
    "location": "Pasco"
  },
  {
    "name": "Marketing Management Inc",
    "description": "Marketing Consultants",
    "phone": "(850) 435-9201",
    "address": " 10 E Fairfield Dr Ste C - Pensacola, FL 32501",
    "location": "Pasco"
  },
  {
    "name": "C & S Signs, Inc",
    "description": "Signs",
    "phone": "(850) 983-9540",
    "address": " 8895 S Lynn Rd - Milton, FL 32583",
    "location": "Pasco"
  },
  {
    "name": "Tmt Printing & Mailing",
    "description": "Direct Mail Advertising",
    "phone": "(850) 432-8300",
    "address": " 10 E Jordan St - Pensacola, FL 32501",
    "location": "Pasco"
  },
  {
    "name": "Community Services Bureau",
    "description": "Advertising Specialties",
    "phone": "(850) 469-9091",
    "address": " 902 E Blount St - Pensacola, FL 32503",
    "location": "Pasco"
  },
  {
    "name": "Signtronix",
    "description": "Signs",
    "phone": "(850) 607-7404",
    "address": " 1204 E Gonzalez St - Pensacola, FL 32501",
    "location": "Pasco"
  },
  {
    "name": "Michael Kenney Graphic Design & Advertising",
    "description": "Graphic Designers",
    "phone": "(850) 433-1972",
    "address": " 1010 N 12th Ave - Pensacola, FL 32501",
    "location": "Pasco"
  },
  {
    "name": "The Sign Shop",
    "description": "Signs",
    "phone": "(850) 912-6503",
    "address": " 6050 Mobile Hwy - Pensacola, FL 32526",
    "location": "Pasco"
  },
  {
    "name": "J. Howard",
    "description": "Advertising Agencies",
    "phone": "(850) 629-9564",
    "address": " 707 E Cervantes St - Pensacola, FL 32501",
    "location": "Pasco"
  },
  {
    "name": "Local Edge",
    "description": "Directory & Guide Advertising",
    "phone": "(850) 477-7111",
    "address": " 1403 E Belmont St - Pensacola, FL 32501",
    "location": "Pasco"
  },
  {
    "name": "Level Graphics",
    "description": "Signs",
    "phone": "(850) 433-0903",
    "address": " 801 N 9th Ave - Pensacola, FL 32501",
    "location": "Pasco"
  },
  {
    "name": "Vital Signs",
    "description": "Signs",
    "phone": "(850) 434-6364",
    "address": " 606 N Davis Hwy - Pensacola, FL 32501",
    "location": "Pasco"
  },
  {
    "name": "Built Rite Signs",
    "description": "Signs",
    "phone": "(850) 433-1018",
    "address": " 308 N Davis Hwy - Pensacola, FL 32501",
    "location": "Pasco"
  },
  {
    "name": "DonDiva Marketing",
    "description": "Marketing Programs & Services",
    "phone": "(866) 473-2186",
    "address": " 1820 W De Soto St - Pensacola, FL 32501",
    "location": "Pasco"
  },
  {
    "name": "Diane Mack Advertising",
    "description": "Advertising Agencies",
    "phone": "(850) 438-0207",
    "address": " 29 E Wright St - Pensacola, FL 32501",
    "location": "Pasco"
  },
  {
    "name": "McGrail Signs & Graphics",
    "description": "Signs",
    "phone": "(850) 435-1017",
    "address": " 1011 N P St - Pensacola, FL 32505",
    "location": "Pasco"
  },
  {
    "name": "Reel Centric",
    "description": "Advertising Agencies",
    "phone": "(850) 912-4229",
    "address": " 3 W Garden St - Pensacola, FL 32502",
    "location": "Pasco"
  },
  {
    "name": "Idgroup",
    "description": "Advertising Agencies",
    "phone": "(850) 438-7823",
    "address": " 300 E Intendencia St - Pensacola, FL 32502",
    "location": "Pasco"
  },
  {
    "name": "Image Development Marketing Group",
    "description": "Advertising Specialties",
    "phone": "(850) 438-7823",
    "address": " 300 E Intendencia St - Pensacola, FL 32502",
    "location": "Pasco"
  },
  {
    "name": "Gosport Editorial",
    "description": "Advertising Specialties",
    "phone": "(850) 452-3100",
    "address": " 1 News Journal Plz - Pensacola, FL 32502",
    "location": "Pasco"
  },
  {
    "name": "Pnj Media Solutions",
    "description": "Advertising Agencies",
    "phone": "(850) 435-8660",
    "address": " 101 E Romana St - Pensacola, FL 32502",
    "location": "Pasco"
  },
  {
    "name": "Wilson Talbot & Associates Inc",
    "description": "Advertising Agencies",
    "phone": "(850) 432-8170",
    "address": " 529 E Government St - Pensacola, FL 32502",
    "location": "Pasco"
  },
  {
    "name": "Get Net Marketing LLC",
    "description": "Internet Products & Services",
    "phone": "(850) 376-2701",
    "address": " 101 Palafox Pl Unit 12670 - Pensacola, FL 32591",
    "location": "Pasco"
  },
  {
    "name": "Triple R Signs & Lighting",
    "description": "Advertising Specialties",
    "phone": "(850) 637-2771",
    "address": " 100 S Pace Blvd - Pensacola, FL 32502",
    "location": "Pasco"
  },
  {
    "name": "Advertising Done Smart Inc",
    "description": "Advertising Specialties",
    "phone": "(850) 912-4675",
    "address": " 609 Frances Dr - Pensacola, FL 32506",
    "location": "Pasco"
  }
]
