[
  {
    "name": "Strictly Street Entertainment",
    "description": "Advertising-Promotional Products",
    "phone": "(727) 420-9687",
    "address": " 1414 Asturia Way S - Saint Petersburg, FL 33705",
    "location": "Pinellas"
  },
  {
    "name": "Priatek",
    "description": "Advertising-Promotional Products",
    "phone": "(727) 375-5616",
    "address": " 200 Central Ave Ste 2300 - Saint Petersburg, FL 33701",
    "location": "Pinellas"
  },
  {
    "name": "Helinger Advertising",
    "description": "Advertising-Promotional Products",
    "phone": "(727) 327-3333",
    "address": " 4201 Central Ave - Saint Petersburg, FL 33713",
    "location": "Pinellas"
  },
  {
    "name": "Zeraq",
    "description": "Advertising-Promotional Products",
    "phone": "(727) 323-9819",
    "address": " 4265 Central Ave - Saint Petersburg, FL 33713",
    "location": "Pinellas"
  },
  {
    "name": "P3 Promotions",
    "description": "Advertising-Promotional Products",
    "phone": "(727) 209-2449",
    "address": " 446 2nd St N - Saint Petersburg, FL 33701",
    "location": "Pinellas"
  },
  {
    "name": "A D V Promos And More",
    "description": "Advertising-Promotional Products",
    "phone": "(727) 323-1200",
    "address": " 5353 2nd Ave N - Saint Petersburg, FL 33710",
    "location": "Pinellas"
  },
  {
    "name": "Makiby Promotions of Florida",
    "description": "Advertising-Promotional Products",
    "phone": "(727) 398-1414",
    "address": " 6100 Central Ave - Saint Petersburg, FL 33707",
    "location": "Pinellas"
  },
  {
    "name": "Cuppa",
    "description": "Advertising-Promotional Products",
    "phone": "(727) 820-0271",
    "address": " 3131 Morris St N - Saint Petersburg, FL 33713",
    "location": "Pinellas"
  },
  {
    "name": "Blue Dog Promotions",
    "description": "Advertising-Promotional Products",
    "phone": "(727) 209-3400",
    "address": " 4501 4th St N - Saint Petersburg, FL 33703",
    "location": "Pinellas"
  },
  {
    "name": "Custom Concepts",
    "description": "Advertising-Promotional Products",
    "phone": "(727) 528-8222",
    "address": " 3958 14th St NE - Saint Petersburg, FL 33703",
    "location": "Pinellas"
  },
  {
    "name": "Blue Dot Promotional Marketing LLC",
    "description": "Advertising-Promotional Products",
    "phone": "(813) 476-0530",
    "address": " 6600 Sunset Way - St Pete Beach, FL 33706",
    "location": "Pinellas"
  },
  {
    "name": "Accurate Promotional Products",
    "description": "Advertising-Promotional Products",
    "phone": "(727) 522-0104",
    "address": " 3030 Morris St N - St Petersburg, FL 33713",
    "location": "Pinellas"
  },
  {
    "name": "Promotional Playground",
    "description": "Advertising-Promotional Products",
    "phone": "(727) 521-1294",
    "address": " 4491 62nd Ave N - Pinellas Park, FL 33781",
    "location": "Pinellas"
  },
  {
    "name": "CC Lion's Den",
    "description": "Advertising-Promotional Products",
    "phone": "(727) 310-1979",
    "address": " 4967 91st Ave N Apt B - Pinellas Park, FL 33782",
    "location": "Pinellas"
  },
  {
    "name": "Hit Promotional Products",
    "description": "Advertising-Promotional Products",
    "phone": "(727) 571-1681",
    "address": " 3320 122nd Ave N - Saint Petersburg, FL 33716",
    "location": "Pinellas"
  },
  {
    "name": "More Sales Inc",
    "description": "Advertising-Promotional Products",
    "phone": "(727) 573-7761",
    "address": " 11319 43rd St N - Clearwater, FL 33762",
    "location": "Pinellas"
  },
  {
    "name": "Next Gifts",
    "description": "Advertising-Promotional Products",
    "phone": "(619) 274-3987",
    "address": " 10751 75th St - Seminole, FL 33777",
    "location": "Pinellas"
  },
  {
    "name": "Bayshore Media Inc",
    "description": "Advertising-Promotional Products",
    "phone": "(727) 548-8345",
    "address": " 6925 112th Cir - Largo, FL 33773",
    "location": "Pinellas"
  },
  {
    "name": "Classic Products Corp",
    "description": "Advertising-Promotional Products",
    "phone": "(727) 533-0476",
    "address": " 7333 124th Ave - Largo, FL 33773",
    "location": "Pinellas"
  },
  {
    "name": "Premier Juices",
    "description": "Advertising-Promotional Products",
    "phone": "(727) 533-8200",
    "address": " 19321 US Highway 19 N - Clearwater, FL 33764",
    "location": "Pinellas"
  },
  {
    "name": "FG Promos",
    "description": "Advertising-Promotional Products",
    "phone": "(813) 391-1124",
    "address": " 1560 Central Ave - Saint Petersburg, FL 33705",
    "location": "Pinellas"
  },
  {
    "name": "920 Graphix",
    "description": "Advertising-Promotional Products",
    "phone": "(920) 858-5141",
    "address": " Dartmouth Ave N - Saint Petersburg, FL 33713",
    "location": "Pinellas"
  },
  {
    "name": "Blue Water Promotions Inc",
    "description": "Advertising-Promotional Products",
    "phone": "(727) 323-7710",
    "address": " 4922 8th Ave S - Gulfport, FL 33707",
    "location": "Pinellas"
  },
  {
    "name": "Music Promo BHT",
    "description": "Advertising-Promotional Products",
    "phone": "(727) 403-1046",
    "address": " 431 11th Ave N - Saint Petersburg, FL 33701",
    "location": "Pinellas"
  },
  {
    "name": "Big Fish Co Custom Creations",
    "description": "Advertising-Promotional Products",
    "phone": "(727) 525-5010",
    "address": " 3128 Dr Martin Luther King Jr St N - Saint Petersburg, FL 33704",
    "location": "Pinellas"
  },
  {
    "name": "Proforma The One Source",
    "description": "Advertising-Promotional Products",
    "phone": "(727) 460-3308",
    "address": " 7419 10th Ave N - Saint Petersburg, FL 33710",
    "location": "Pinellas"
  },
  {
    "name": "Primoris Distri Bution Ser",
    "description": "Advertising-Promotional Products",
    "phone": "(727) 914-6880",
    "address": " 4200 31st St N - Saint Petersburg, FL 33714",
    "location": "Pinellas"
  },
  {
    "name": "Logomotive",
    "description": "Advertising-Promotional Products",
    "phone": "(727) 521-2121",
    "address": " 1253 55th Ave N - Saint Petersburg, FL 33703",
    "location": "Pinellas"
  },
  {
    "name": "Bayprint",
    "description": "Advertising-Promotional Products",
    "phone": "(727) 823-1965",
    "address": " 2235 16th Ave N - St Petersburg, FL 33713",
    "location": "Pinellas"
  },
  {
    "name": "Supera-Tec Screen Printing",
    "description": "Advertising-Promotional Products",
    "phone": "(727) 521-1294",
    "address": " 4491 62nd Ave N Ste 110 - Pinellas Park, FL 33781",
    "location": "Pinellas"
  },
  {
    "name": "Royal Palm Industries Inc",
    "description": "Advertising-Promotional Products",
    "phone": "(727) 527-7282",
    "address": " 4201 62nd Ave N - Pinellas Park, FL 33781",
    "location": "Pinellas"
  },
  {
    "name": "Perfect Copy & Print, Inc",
    "description": "Advertising-Promotional Products",
    "phone": "(727) 329-8745",
    "address": " 6541 44th St N - Pinellas Park, FL 33781",
    "location": "Pinellas"
  },
  {
    "name": "Embrace Promotional Products",
    "description": "Advertising-Promotional Products",
    "phone": "(727) 424-9446",
    "address": " 7124 49th St N - Pinellas Park, FL 33781",
    "location": "Pinellas"
  },
  {
    "name": "LogoHQ Promotional Products",
    "description": "Advertising-Promotional Products",
    "phone": "(727) 527-1999",
    "address": " 1551 102nd Ave N Ste C - Saint Petersburg, FL 33716",
    "location": "Pinellas"
  },
  {
    "name": "Pencom",
    "description": "Advertising-Promotional Products",
    "phone": "(727) 571-1641",
    "address": " 11801 28th St N - Saint Petersburg, FL 33716",
    "location": "Pinellas"
  },
  {
    "name": "Deko Source",
    "description": "Advertising-Promotional Products",
    "phone": "(800) 517-7780",
    "address": " 2810 Scherer Dr N Ste 135 - Saint Petersburg, FL 33716",
    "location": "Pinellas"
  },
  {
    "name": "Minuteman Press",
    "description": "Advertising-Promotional Products",
    "phone": "(727) 954-0519",
    "address": " 9600 66th St N Ste A - Pinellas Park, FL 33782",
    "location": "Pinellas"
  },
  {
    "name": "Hit 8155 DC",
    "description": "Advertising-Promotional Products",
    "phone": "(727) 329-8860",
    "address": " 8155 Bryan Dairy Rd - Largo, FL 33777",
    "location": "Pinellas"
  },
  {
    "name": "Foodworks",
    "description": "Advertising-Promotional Products",
    "phone": "(727) 202-8546",
    "address": " 3670 131st Ave N - Clearwater, FL 33762",
    "location": "Pinellas"
  },
  {
    "name": "A -Direct Advertising Specialty Company",
    "description": "Advertising-Promotional Products",
    "phone": "(727) 398-1000",
    "address": " 8950 Seminole Blvd - Seminole, FL 33772",
    "location": "Pinellas"
  },
  {
    "name": "DeWittBusiness.com",
    "description": "Advertising-Promotional Products",
    "phone": "(727) 556-0305",
    "address": " 4505 131st Ave N Ste 11 - clearwater, FL 33762",
    "location": "Pinellas"
  },
  {
    "name": "Advanced Semicom",
    "description": "Advertising-Promotional Products",
    "phone": "(727) 524-9409",
    "address": " 4707 140th Ave N - Clearwater, FL 33762",
    "location": "Pinellas"
  },
  {
    "name": "thINK! Promotional Products",
    "description": "Advertising-Promotional Products",
    "phone": "(844) 223-7336",
    "address": " Suite 204 Mira Lago Circle - Ruskin, FL 33570",
    "location": "Pinellas"
  },
  {
    "name": "Direct Advertising",
    "description": "Advertising-Promotional Products",
    "phone": "(727) 524-7600",
    "address": " 12530 Enterprise Blvd - Largo, FL 33773",
    "location": "Pinellas"
  },
  {
    "name": "Florida Distributing Source",
    "description": "Advertising-Promotional Products",
    "phone": "(727) 531-0899",
    "address": " 14038 63rd Way N - Clearwater, FL 33760",
    "location": "Pinellas"
  },
  {
    "name": "Proforma Specialty Products",
    "description": "Advertising-Promotional Products",
    "phone": "(727) 259-0222",
    "address": " 12300 Seminole Blvd Lot 4 - Largo, FL 33778",
    "location": "Pinellas"
  },
  {
    "name": "Liberty Creative | Screen Printing, Embroidery, Design, & Promotional Products",
    "description": "Advertising-Promotional Products",
    "phone": "(727) 532-0444",
    "address": " 1299 Starkey Rd Ste 103 - Largo, FL 33771",
    "location": "Pinellas"
  },
  {
    "name": "McClay Inglesby Advertising",
    "description": "Advertising Agencies",
    "phone": "(727) 906-4320",
    "address": " 2167 Vivian Way S - Saint Petersburg, FL 33712",
    "location": "Pinellas"
  },
  {
    "name": "Suncoast Legal Nurse Consulting",
    "description": "Advertising Agencies",
    "phone": "(727) 867-3363",
    "address": " 512 51st Ave S - Saint Petersburg, FL 33705",
    "location": "Pinellas"
  },
  {
    "name": "Sirius Advertising Inc",
    "description": "Advertising Agencies",
    "phone": "(727) 865-0033",
    "address": " 500 Jasmine Way S - Saint Petersburg, FL 33705",
    "location": "Pinellas"
  },
  {
    "name": "Dgs Retail",
    "description": "Signs",
    "phone": "(727) 388-4975",
    "address": " 4400 34th St S - Saint Petersburg, FL 33711",
    "location": "Pinellas"
  },
  {
    "name": "First Priority Land Services",
    "description": "Advertising Agencies",
    "phone": "(727) 822-0088",
    "address": " 2433 19th St S - Saint Petersburg, FL 33712",
    "location": "Pinellas"
  },
  {
    "name": "Little Genie Graphic Design",
    "description": "Graphic Designers",
    "phone": "(727) 867-1130",
    "address": " 6051 Sun Blvd Apt 405 - Saint Petersburg, FL 33715",
    "location": "Pinellas"
  },
  {
    "name": "Pinstripe Marketing",
    "description": "Marketing Consultants",
    "phone": "(727) 214-1555",
    "address": " 263 13th Ave S - Saint Petersburg, FL 33701",
    "location": "Pinellas"
  },
  {
    "name": "Big Sea Inc",
    "description": "Advertising Agencies",
    "phone": "(727) 386-8031",
    "address": " 2622 Fairfield Ave S - Saint Petersburg, FL 33712",
    "location": "Pinellas"
  },
  {
    "name": "Hit Signs",
    "description": "Signs",
    "phone": "(727) 322-3636",
    "address": " 621 27th St S - Saint Petersburg, FL 33712",
    "location": "Pinellas"
  },
  {
    "name": "Bovsi Studios",
    "description": "Marketing Consultants",
    "phone": "(813) 704-7953",
    "address": " 2732 6th Ave S - Saint Petersburg, FL 33712",
    "location": "Pinellas"
  },
  {
    "name": "Cr Impact",
    "description": "Advertising Agencies",
    "phone": "(727) 345-7300",
    "address": " 2825 Beach Blvd S - Gulfport, FL 33707",
    "location": "Pinellas"
  },
  {
    "name": "Piranha Graphix Inc",
    "description": "Signs",
    "phone": "(727) 321-4324",
    "address": " 5022 Gulfport Blvd S - Gulfport, FL 33707",
    "location": "Pinellas"
  },
  {
    "name": "Sail Marketing",
    "description": "Marketing Programs & Services",
    "phone": "(727) 324-7461",
    "address": " 5325 Gulfport Blvd S - Gulfport, FL 33707",
    "location": "Pinellas"
  },
  {
    "name": "Mr Technique",
    "description": "Web Site Design & Services",
    "phone": "(727) 209-7995",
    "address": " 136 4th St N Ste 204 - Saint Petersburg, FL 33701",
    "location": "Pinellas"
  },
  {
    "name": "Strops Marketing Inc",
    "description": "Marketing Programs & Services",
    "phone": "(727) 462-0019",
    "address": " 2521 Emerson Ave S - Saint Petersburg, FL 33712",
    "location": "Pinellas"
  },
  {
    "name": "Designer Club Entertaininment",
    "description": "Advertising Agencies",
    "phone": "(727) 327-4441",
    "address": " 675 37th St S - Saint Petersburg, FL 33711",
    "location": "Pinellas"
  },
  {
    "name": "VIS Movement",
    "description": "Advertising Specialties",
    "phone": "(727) 710-3767",
    "address": " 1905 5th Ave S - Saint Petersburg, FL 33712",
    "location": "Pinellas"
  },
  {
    "name": "Image Production",
    "description": "Advertising Agencies",
    "phone": "(727) 823-8909",
    "address": " 150 22nd St S - Saint Petersburg, FL 33712",
    "location": "Pinellas"
  },
  {
    "name": "Corplogowear",
    "description": "Advertising Agencies",
    "phone": "(727) 322-9151",
    "address": " 2429 Central Ave - Saint Petersburg, FL 33713",
    "location": "Pinellas"
  },
  {
    "name": "Media Garage Group Inc",
    "description": "Advertising Agencies",
    "phone": "(727) 258-0318",
    "address": " 3001 1st Ave S - Saint Petersburg, FL 33712",
    "location": "Pinellas"
  },
  {
    "name": "Piexec",
    "description": "Graphic Designers",
    "phone": "(813) 787-5700",
    "address": " 330 3rd St S Unit 405 - Saint Petersburg, FL 33701",
    "location": "Pinellas"
  },
  {
    "name": "Reardon Killion Communications",
    "description": "Advertising Agencies",
    "phone": "(727) 896-3435",
    "address": " 650 2nd Ave S - Saint Petersburg, FL 33701",
    "location": "Pinellas"
  },
  {
    "name": "Big Sea, Inc.",
    "description": "Internet Marketing & Advertising",
    "phone": "(727) 386-8031",
    "address": " 646 2nd Ave S - Saint Petersburg, FL 33701",
    "location": "Pinellas"
  },
  {
    "name": "Parwoode Sign Co",
    "description": "Signs",
    "phone": "(727) 327-1237",
    "address": " 2616 1st Ave N - Saint Petersburg, FL 33713",
    "location": "Pinellas"
  },
  {
    "name": "Mosaic Development",
    "description": "Advertising Agencies",
    "phone": "(239) 603-8596",
    "address": " 1763 1st Ave N - Saint Petersburg, FL 33713",
    "location": "Pinellas"
  },
  {
    "name": "Skyway Media",
    "description": "Web Site Design & Services",
    "phone": "(727) 317-6826",
    "address": " 1029 Central Ave - Saint Petersburg, FL 33705",
    "location": "Pinellas"
  },
  {
    "name": "Rob Graham Enterprises",
    "description": "Advertising Agencies",
    "phone": "(727) 803-6058",
    "address": " 100 7th St S - Saint Petersburg, FL 33701",
    "location": "Pinellas"
  },
  {
    "name": "Truefire Inc",
    "description": "Advertising Agencies",
    "phone": "(727) 898-8866",
    "address": " 100 7th St S - Saint Petersburg, FL 33701",
    "location": "Pinellas"
  },
  {
    "name": "LocalMediaInsider",
    "description": "Interactive Media",
    "phone": "(408) 892-9815",
    "address": " 2544 2nd Ave N - Saint Petersburg, FL 33713",
    "location": "Pinellas"
  },
  {
    "name": "Roma Direct Marketing",
    "description": "Advertising Agencies",
    "phone": "(727) 498-8999",
    "address": " 33 6th St S - Saint Petersburg, FL 33701",
    "location": "Pinellas"
  },
  {
    "name": "Wonderment Creative House Inc",
    "description": "Graphic Designers",
    "phone": "(727) 272-4580",
    "address": " 33 6th St S - Saint Petersburg, FL 33701",
    "location": "Pinellas"
  },
  {
    "name": "Intent Local",
    "description": "Advertising Agencies",
    "phone": "(727) 278-3926",
    "address": " 33 6th St S Ste 501 - Saint Petersburg, FL 33701",
    "location": "Pinellas"
  },
  {
    "name": "Forthfox",
    "description": "Copy Writers",
    "phone": "(727) 998-1849",
    "address": " PO Box 13946 - Saint Petersburg, FL 33733",
    "location": "Pinellas"
  },
  {
    "name": "Cliktree",
    "description": "Advertising Agencies",
    "phone": "(727) 220-5923",
    "address": " 200 2nd Ave S - Saint Petersburg, FL 33701",
    "location": "Pinellas"
  },
  {
    "name": "Vitale Bros",
    "description": "Advertising Agencies",
    "phone": "(727) 520-0969",
    "address": " 651 Central Ave - Saint Petersburg, FL 33701",
    "location": "Pinellas"
  },
  {
    "name": "JW Berry Signs",
    "description": "Signs",
    "phone": "(727) 822-5275",
    "address": " 821 1st Ave N - Saint Petersburg, FL 33701",
    "location": "Pinellas"
  },
  {
    "name": "Aces Marketing Group",
    "description": "Marketing Consultants",
    "phone": "(727) 822-4202",
    "address": " 475 Central Ave Ste M2 - Saint Petersburg, FL 33701",
    "location": "Pinellas"
  },
  {
    "name": "Vibe Digital Media",
    "description": "Advertising Agencies",
    "phone": "(727) 565-0115",
    "address": " 475 Central Ave - Saint Petersburg, FL 33701",
    "location": "Pinellas"
  },
  {
    "name": "PowerChord, Inc.",
    "description": "Computer Software Publishers & Developers",
    "phone": "(727) 823-1530",
    "address": " 360 Central Ave Fifth Floor - Saint Petersburg, FL 33701",
    "location": "Pinellas"
  },
  {
    "name": "Advertising Associates corp",
    "description": "Advertising Specialties",
    "phone": "(727) 800-8077",
    "address": " 360 Central ave ste 800 - Saint Petersburg, FL 33701",
    "location": "Pinellas"
  },
  {
    "name": "Media Shark",
    "description": "Advertising Agencies",
    "phone": "(916) 342-9441",
    "address": " 433 Central Ave - Saint Petersburg, FL 33701",
    "location": "Pinellas"
  },
  {
    "name": "Advanced Digital Media Services",
    "description": "Web Site Design & Services",
    "phone": "(727) 201-5296",
    "address": " 360 Central Ave - Saint Petersburg, FL 33701",
    "location": "Pinellas"
  },
  {
    "name": "Hype Group",
    "description": "Advertising Agencies",
    "phone": "(727) 623-9085",
    "address": " 360 Central Ave - Saint Petersburg, FL 33701",
    "location": "Pinellas"
  },
  {
    "name": "Communications Inc",
    "description": "Marketing Programs & Services",
    "phone": "(727) 892-9280",
    "address": " 360 Central Ave Ste 420 - Saint Petersburg, FL 33701",
    "location": "Pinellas"
  },
  {
    "name": "Driven Results",
    "description": "Advertising Agencies",
    "phone": "(727) 222-0391",
    "address": " 360 Central Ave Ste 800 - Saint Petersburg, FL 33701",
    "location": "Pinellas"
  },
  {
    "name": "Life Improvement Media Group",
    "description": "Internet Marketing & Advertising",
    "phone": "(866) 930-9337",
    "address": " 735 Arlington Ave N Ste 31 - Saint Petersburg, FL 33701",
    "location": "Pinellas"
  },
  {
    "name": "CyberliciousÂ®",
    "description": "Internet Marketing & Advertising",
    "phone": "(727) 820-1988",
    "address": " 735 Arlington Ave N - Saint Petersburg, FL 33701",
    "location": "Pinellas"
  },
  {
    "name": "QR Consulting, LLC",
    "description": "Internet Marketing & Advertising",
    "phone": "(800) 555-2785",
    "address": " PO Box 1902 - Saint Petersburg, FL 33731",
    "location": "Pinellas"
  },
  {
    "name": "Pyper Young, Inc",
    "description": "Advertising Agencies",
    "phone": "(727) 873-1210",
    "address": " 235 Central Ave - Saint Petersburg, FL 33701",
    "location": "Pinellas"
  },
  {
    "name": "Guckenberger'n Partners",
    "description": "Advertising Agencies",
    "phone": "(813) 963-1309",
    "address": " 235 Central Ave - Saint Petersburg, FL 33701",
    "location": "Pinellas"
  },
  {
    "name": "Vibrant Wealth",
    "description": "Advertising Agencies",
    "phone": "(727) 864-0904",
    "address": " 1645 Pinellas Bayway S - Saint Petersburg, FL 33715",
    "location": "Pinellas"
  },
  {
    "name": "Oyova",
    "description": "Internet Marketing & Advertising",
    "phone": "(727) 289-6549",
    "address": " 290 Dr Martin Luther King Jr St N #201 - Saint Petersburg, FL 33705",
    "location": "Pinellas"
  },
  {
    "name": "Wilson Media & Advertising",
    "description": "Advertising Agencies",
    "phone": "(727) 894-6100",
    "address": " 290 Dr Martin Luther King Jr St N - Saint Petersburg, FL 33705",
    "location": "Pinellas"
  },
  {
    "name": "Roma Television Group",
    "description": "Advertising Agencies",
    "phone": "(727) 823-5500",
    "address": " 469 2nd Ave N - Saint Petersburg, FL 33701",
    "location": "Pinellas"
  },
  {
    "name": "RuleLocal",
    "description": "Internet Marketing & Advertising",
    "phone": "(727) 258-0132",
    "address": " 146 2nd St N Ste 301 - Saint Petersburg, FL 33701",
    "location": "Pinellas"
  },
  {
    "name": "Paradise Advertising & Marketing, Inc.",
    "description": "Marketing Programs & Services",
    "phone": "(727) 821-5155",
    "address": " 150 2nd Ave N Ste 800 - Saint Petersburg, FL 33701",
    "location": "Pinellas"
  },
  {
    "name": "Kapok Marketing",
    "description": "Internet Consultants",
    "phone": "(800) 640-8082",
    "address": " 447 3rd Ave N Ste 300 - Saint Petersburg, FL 33701",
    "location": "Pinellas"
  },
  {
    "name": "Bumpads Services Inc",
    "description": "Advertising Agencies",
    "phone": "(727) 803-1490",
    "address": " 111 2nd Ave N - Saint Petersburg, FL 33701",
    "location": "Pinellas"
  },
  {
    "name": "Calusa Marketing",
    "description": "Marketing Programs & Services",
    "phone": "(800) 946-0997",
    "address": " 111 2nd Ave NE Ste 802 - Saint Petersburg, FL 33701",
    "location": "Pinellas"
  },
  {
    "name": "The Hoth",
    "description": "Internet Marketing & Advertising",
    "phone": "(877) 720-4684",
    "address": " 111 2nd Ave NE - Saint Petersburg, FL 33701",
    "location": "Pinellas"
  },
  {
    "name": "BNO Creative Labs",
    "description": "Advertising Agencies",
    "phone": "(727) 550-0309",
    "address": " 111 2nd Ave NE - Saint Petersburg, FL 33701",
    "location": "Pinellas"
  },
  {
    "name": "Dailey Communications",
    "description": "Advertising Agencies",
    "phone": "(727) 896-4477",
    "address": " 323 2nd St N - Saint Petersburg, FL 33701",
    "location": "Pinellas"
  },
  {
    "name": "Tampa Marketing Services",
    "description": "Internet Consultants",
    "phone": "(727) 394-4057",
    "address": " 524 Bay St NE - Saint Petersburg, FL 33701",
    "location": "Pinellas"
  },
  {
    "name": "Daniel Signs",
    "description": "Signs",
    "phone": "(727) 327-2842",
    "address": " 1620 51st St S - Gulfport, FL 33707",
    "location": "Pinellas"
  },
  {
    "name": "KDM Design and Marketing Inc.",
    "description": "Web Site Design & Services",
    "phone": "(727) 344-2026",
    "address": " 2423 58th St S - Gulfport, FL 33707",
    "location": "Pinellas"
  },
  {
    "name": "Castnet Media",
    "description": "Advertising Agencies",
    "phone": "(727) 892-2391",
    "address": " 490 1st Ave S - St Petersburg, FL 33701",
    "location": "Pinellas"
  },
  {
    "name": "Craft Brands",
    "description": "Advertising Agencies",
    "phone": "(239) 691-0561",
    "address": " P.O. Box 12825 - St. Petersburg, FL 33733",
    "location": "Pinellas"
  },
  {
    "name": "Five Mile Marketing",
    "description": "Marketing Programs & Services",
    "phone": "(727) 220-5923",
    "address": " 200 2nd Ave S - St Petersburg, FL 33701",
    "location": "Pinellas"
  },
  {
    "name": "Empathy First Media",
    "description": "Advertising Agencies",
    "phone": "(727) 291-7384",
    "address": " 260 1st Ave S Ste 166 - St Petersburg, FL 33701",
    "location": "Pinellas"
  },
  {
    "name": "Carroway Rose",
    "description": "Advertising Agencies",
    "phone": "(843) 501-9128",
    "address": " 260 1st Ave S - St. Petersburg, FL 33701",
    "location": "Pinellas"
  },
  {
    "name": "Latitude Park",
    "description": "Advertising Agencies",
    "phone": "(727) 580-7521",
    "address": " 260 1st Ave S Ste 200-25 - St Petersburg, FL 33701",
    "location": "Pinellas"
  },
  {
    "name": "Allegrow",
    "description": "Advertising Agencies",
    "phone": "(727) 513-0020",
    "address": " 360 Central Ave Ste 800 - St Petersburg, FL 33701",
    "location": "Pinellas"
  },
  {
    "name": "Beach Lion Studios",
    "description": "Advertising Agencies",
    "phone": "(727) 207-1108",
    "address": " 433 Central Ave Suite 212 - St Petersburg, FL 33701",
    "location": "Pinellas"
  },
  {
    "name": "Automationlinks",
    "description": "Advertising Agencies",
    "phone": "(727) 888-5855",
    "address": " 4638 Gulf Blvd - St Pete Beach, FL 33706",
    "location": "Pinellas"
  },
  {
    "name": "Lino & Associates Inc",
    "description": "Advertising Agencies",
    "phone": "(727) 384-3700",
    "address": " 6515 1st Ave S - Saint Petersburg, FL 33707",
    "location": "Pinellas"
  },
  {
    "name": "Clear PH Design",
    "description": "Advertising Agencies",
    "phone": "(727) 823-5333",
    "address": " 327 11th Ave N - Saint Petersburg, FL 33701",
    "location": "Pinellas"
  },
  {
    "name": "Paradise Advertising & Marketing",
    "description": "Advertising Agencies",
    "phone": "(727) 821-5155",
    "address": " 5999 Central Ave - Saint Petersburg, FL 33710",
    "location": "Pinellas"
  },
  {
    "name": "Avalon Sign Sol Ution",
    "description": "Advertising Specialties",
    "phone": "(727) 398-6126",
    "address": " 6100 Central Ave - Saint Petersburg, FL 33707",
    "location": "Pinellas"
  },
  {
    "name": "Advantage Indoor Advertising",
    "description": "Advertising Agencies",
    "phone": "(727) 800-2600",
    "address": " 6100 Central Ave - Saint Petersburg, FL 33707",
    "location": "Pinellas"
  },
  {
    "name": "Desk & Door Nameplate Co",
    "description": "Signs",
    "phone": "(727) 327-1472",
    "address": " 2895 21st Ave N - Saint Petersburg, FL 33713",
    "location": "Pinellas"
  },
  {
    "name": "Midvale",
    "description": "Advertising Agencies",
    "phone": "(727) 498-6489",
    "address": " 3158 24th Ave N - Saint Petersburg, FL 33713",
    "location": "Pinellas"
  },
  {
    "name": "Parwoode Inc",
    "description": "Signs",
    "phone": "(727) 327-1237",
    "address": " 3198 24th Ave N - Saint Petersburg, FL 33713",
    "location": "Pinellas"
  },
  {
    "name": "Boom Promotional Products",
    "description": "Advertising Specialties",
    "phone": "(727) 638-6631",
    "address": " 325 20th Ave NE - Saint Petersburg, FL 33704",
    "location": "Pinellas"
  },
  {
    "name": "Central Avenue Signs",
    "description": "Signs",
    "phone": "(727) 384-9501",
    "address": " 6636 Central Ave - Saint Petersburg, FL 33707",
    "location": "Pinellas"
  },
  {
    "name": "Quik Promotions",
    "description": "Advertising Specialties",
    "phone": "(727) 527-5000",
    "address": " 6648 Central Ave - Saint Petersburg, FL 33707",
    "location": "Pinellas"
  },
  {
    "name": "Thinkquik",
    "description": "Printing Services-Commercial",
    "phone": "(727) 527-5000",
    "address": " 6644 Central Ave - Saint Petersburg, FL 33707",
    "location": "Pinellas"
  },
  {
    "name": "Webtivity Marketing & Design",
    "description": "Marketing Programs & Services",
    "phone": "(941) 753-7574",
    "address": " 138 Pinellas Way N - Saint Petersburg, FL 33710",
    "location": "Pinellas"
  },
  {
    "name": "Odyssey Promotions",
    "description": "Advertising Specialties",
    "phone": "(727) 388-3629",
    "address": " 3125 30th Ave N - Saint Petersburg, FL 33713",
    "location": "Pinellas"
  },
  {
    "name": "Nics",
    "description": "Advertising Agencies",
    "phone": "(727) 321-8790",
    "address": " 4500 28th Ave N - Saint Petersburg, FL 33713",
    "location": "Pinellas"
  },
  {
    "name": "T F Ward Market Solutions",
    "description": "Advertising Agencies",
    "phone": "(727) 895-7424",
    "address": " 3031 2nd St N - Saint Petersburg, FL 33704",
    "location": "Pinellas"
  },
  {
    "name": "FASTSIGNS",
    "description": "Signs",
    "phone": "(727) 525-4949",
    "address": " 408 33rd Ave N - Saint Petersburg, FL 33704",
    "location": "Pinellas"
  },
  {
    "name": "Alpha Bay Media",
    "description": "Advertising Agencies",
    "phone": "(727) 353-8427",
    "address": " 8017 13th Ave S - Saint Petersburg, FL 33707",
    "location": "Pinellas"
  },
  {
    "name": "Direct Promotions and Renewals",
    "description": "Advertising Specialties",
    "phone": "(727) 300-2420",
    "address": " Address On File With Bbb - Saint Petersburg, FL 33710",
    "location": "Pinellas"
  },
  {
    "name": "Advertising & Marketing Spec",
    "description": "Advertising Agencies",
    "phone": "(727) 527-6419",
    "address": " 4906 33rd Ave N - Saint Petersburg, FL 33710",
    "location": "Pinellas"
  },
  {
    "name": "Devery Enterprises",
    "description": "Advertising Specialties",
    "phone": "(727) 821-6316",
    "address": " 661 34th Ave NE - Saint Petersburg, FL 33704",
    "location": "Pinellas"
  },
  {
    "name": "Architectural Identification",
    "description": "Signs",
    "phone": "(727) 851-9544",
    "address": " 2105 Tyrone Blvd N - Saint Petersburg, FL 33710",
    "location": "Pinellas"
  },
  {
    "name": "Sales Up Solutions",
    "description": "Advertising Agencies",
    "phone": "(727) 755-3614",
    "address": " 204 37th Ave N - Saint Petersburg, FL 33704",
    "location": "Pinellas"
  },
  {
    "name": "Idimension Inc",
    "description": "Advertising Agencies",
    "phone": "(727) 895-5833",
    "address": " 204 37th Ave N - Saint Petersburg, FL 33704",
    "location": "Pinellas"
  },
  {
    "name": "Marketing Matters",
    "description": "Advertising Agencies",
    "phone": "(954) 925-1511",
    "address": " 204 37th Ave N - Saint Petersburg, FL 33704",
    "location": "Pinellas"
  },
  {
    "name": "Strategy 21",
    "description": "Advertising Agencies",
    "phone": "(727) 528-8000",
    "address": " 4109 Haines Rd N - Saint Petersburg, FL 33703",
    "location": "Pinellas"
  },
  {
    "name": "Bcf",
    "description": "Advertising Agencies",
    "phone": "(727) 346-5965",
    "address": " 3110 42nd Ave N - Saint Petersburg, FL 33714",
    "location": "Pinellas"
  },
  {
    "name": "DGS Retail",
    "description": "Signs",
    "phone": "(727) 388-4975",
    "address": " 3070 44th Ave N - Saint Petersburg, FL 33714",
    "location": "Pinellas"
  },
  {
    "name": "Logo Headquarters",
    "description": "Advertising Specialties",
    "phone": "(727) 527-1999",
    "address": " 3115 44th Ave N - Saint Petersburg, FL 33714",
    "location": "Pinellas"
  },
  {
    "name": "America's Favorite Coupon Book",
    "description": "Advertising Agencies",
    "phone": "(727) 528-3200",
    "address": " 4359 35th St N - Saint Petersburg, FL 33714",
    "location": "Pinellas"
  },
  {
    "name": "Tradewinds United",
    "description": "Advertising Agencies",
    "phone": "(727) 888-2679",
    "address": " 6822 22nd Ave N Ste 152 - Saint Petersburg, FL 33710",
    "location": "Pinellas"
  },
  {
    "name": "Piranha Graphix",
    "description": "Signs",
    "phone": "(727) 321-4324",
    "address": " 4657 37th St N - Saint Petersburg, FL 33714",
    "location": "Pinellas"
  },
  {
    "name": "Sunshine Design Studio",
    "description": "Advertising Agencies",
    "phone": "(727) 424-8388",
    "address": " 25th 26th Street Ct N - Saint Petersburg, FL 33714",
    "location": "Pinellas"
  },
  {
    "name": "Edifying Voyages",
    "description": "Marketing Consultants",
    "phone": "(949) 484-0606",
    "address": " 4604 49th Street N #1552 - Saint Petersburg, FL 33709",
    "location": "Pinellas"
  },
  {
    "name": "Compass Banners And Signs",
    "description": "Signs",
    "phone": "(727) 522-7414",
    "address": " 5504 Haines Rd N - Saint Petersburg, FL 33714",
    "location": "Pinellas"
  },
  {
    "name": "Pack 'n' Mail",
    "description": "Mail & Shipping Services",
    "phone": "(727) 360-9008",
    "address": " 7217 Gulf Blvd Ste 14 - St Pete Beach, FL 33706",
    "location": "Pinellas"
  },
  {
    "name": "Image360 St. Petersburg Central",
    "description": "Signs",
    "phone": "(727) 823-2712",
    "address": " 2235 16th Ave N - St Petersburg, FL 33713",
    "location": "Pinellas"
  },
  {
    "name": "Abbey Printing Of St Pete Beach Inc",
    "description": "Printing Services",
    "phone": "(727) 360-4850",
    "address": " 6640 Gulf Blvd - St Pete Beach, FL 33706",
    "location": "Pinellas"
  },
  {
    "name": "Creative Warehouse 2 Inc",
    "description": "Advertising Agencies",
    "phone": "(727) 367-1400",
    "address": " 249 Corey Ave - St Pete Beach, FL 33706",
    "location": "Pinellas"
  },
  {
    "name": "Cw2 Inc",
    "description": "Advertising Agencies",
    "phone": "(727) 367-1400",
    "address": " 249 Corey Ave - St Pete Beach, FL 33706",
    "location": "Pinellas"
  },
  {
    "name": "IMI Club",
    "description": "Internet Cafes",
    "phone": "(727) 386-2970",
    "address": " 291 Catalan blvd N.E. - St. Petersburg, FL 33713",
    "location": "Pinellas"
  },
  {
    "name": "Mark My Words Media Inc",
    "description": "Advertising Agencies",
    "phone": "(800) 243-2077",
    "address": " 10228 Paradise Blvd - Treasure Island, FL 33706",
    "location": "Pinellas"
  },
  {
    "name": "Signs By Dave",
    "description": "Signs",
    "phone": "(727) 347-6501",
    "address": " 7049 35th Ter N - Saint Petersburg, FL 33710",
    "location": "Pinellas"
  },
  {
    "name": "Innovative Designs Inc",
    "description": "Advertising Specialties",
    "phone": "(727) 350-3926",
    "address": " 7490 30th Ave N - Saint Petersburg, FL 33710",
    "location": "Pinellas"
  },
  {
    "name": "PSP Sign",
    "description": "Marketing Programs & Services",
    "phone": "(813) 244-8148",
    "address": " 3345 57th Ave N - Saint Petersburg, FL 33714",
    "location": "Pinellas"
  },
  {
    "name": "Ads and Funnels",
    "description": "Advertising Agencies",
    "phone": "(727) 280-5912",
    "address": " 12700 66th St N - Saint Petersburg, FL 33716",
    "location": "Pinellas"
  },
  {
    "name": "Blue Water Promotions",
    "description": "Advertising Specialties",
    "phone": "(727) 323-7710",
    "address": " 6400 Dr Martin Luther King Jr St N - Saint Petersburg, FL 33702",
    "location": "Pinellas"
  },
  {
    "name": "Perrone & Chute Partners In",
    "description": "Advertising Agencies",
    "phone": "(727) 521-1795",
    "address": " 121 69th Ave N - Saint Petersburg, FL 33702",
    "location": "Pinellas"
  },
  {
    "name": "Dragon Digital Marketing",
    "description": "Internet Marketing & Advertising",
    "phone": "(727) 308-0030",
    "address": " 7901 4th St N Ste 4040 - Saint Petersburg, FL 33702",
    "location": "Pinellas"
  },
  {
    "name": "Omnitube",
    "description": "Advertising Agencies",
    "phone": "(813) 328-3760",
    "address": " 7901 4th St N - Saint Petersburg, FL 33702",
    "location": "Pinellas"
  },
  {
    "name": "Honest Podcasts",
    "description": "Production Companies-Film, TV, Radio, Etc",
    "phone": "(904) 370-3843",
    "address": " 7901 4th St N Ste 300 - Saint Petersburg, FL 33702",
    "location": "Pinellas"
  },
  {
    "name": "Adzado",
    "description": "Advertising Agencies",
    "phone": "(833) 401-5587",
    "address": " 7904 4th St N - Saint Petersburg, FL 33702",
    "location": "Pinellas"
  },
  {
    "name": "Belt Creative",
    "description": "Graphic Designers",
    "phone": "(585) 204-0292",
    "address": " 8100 6th St N - Saint Petersburg, FL 33702",
    "location": "Pinellas"
  },
  {
    "name": "On Key Design",
    "description": "Advertising Agencies",
    "phone": "(727) 577-3238",
    "address": " 138 88th Ave NE - Saint Petersburg, FL 33702",
    "location": "Pinellas"
  },
  {
    "name": "Adventures In Advertising",
    "description": "Advertising Specialties",
    "phone": "(727) 578-3633",
    "address": " 843 93rd Ave N - Saint Petersburg, FL 33702",
    "location": "Pinellas"
  },
  {
    "name": "Devine Communications Corp",
    "description": "Advertising Agencies",
    "phone": "(727) 573-2575",
    "address": " 9300 5th St N - Saint Petersburg, FL 33702",
    "location": "Pinellas"
  },
  {
    "name": "Communicasting",
    "description": "Advertising Agencies",
    "phone": "(727) 463-7265",
    "address": " 750 94th Ave N - Saint Petersburg, FL 33702",
    "location": "Pinellas"
  },
  {
    "name": "Directnet Advertisingnet Inc",
    "description": "Advertising Agencies",
    "phone": "(727) 567-6630",
    "address": " 9400 4th St N - Saint Petersburg, FL 33702",
    "location": "Pinellas"
  },
  {
    "name": "Ramel Consulting",
    "description": "Advertising Agencies",
    "phone": "(727) 576-6868",
    "address": " 9466 Treasure Ln NE - Saint Petersburg, FL 33702",
    "location": "Pinellas"
  },
  {
    "name": "Bob Advertising & Design",
    "description": "Advertising Agencies",
    "phone": "(727) 577-0760",
    "address": " 9413 Treasure Ln NE - Saint Petersburg, FL 33702",
    "location": "Pinellas"
  },
  {
    "name": "Badger Marketing",
    "description": "Marketing Consultants",
    "phone": "(813) 644-9588",
    "address": " 1201 Gandy Blvd N Unit 21445 - Saint Petersburg, FL 33742",
    "location": "Pinellas"
  },
  {
    "name": "Godfrey Design & Advertising",
    "description": "Advertising Specialties",
    "phone": "(727) 579-1899",
    "address": " 275 96th Ave N Ste 7 - Saint Petersburg, FL 33702",
    "location": "Pinellas"
  },
  {
    "name": "Valpak",
    "description": "Direct Mail Advertising",
    "phone": "(727) 577-3075",
    "address": " 805 Executive Center Dr W - Saint Petersburg, FL 33702",
    "location": "Pinellas"
  },
  {
    "name": "Mindshare Multi Media",
    "description": "Advertising Agencies",
    "phone": "(727) 575-9264",
    "address": " 9675 4th St N - Saint Petersburg, FL 33702",
    "location": "Pinellas"
  },
  {
    "name": "Idearc Media, Inc",
    "description": "Advertising Specialties",
    "phone": "(727) 563-7000",
    "address": " 9620 Executive Center Dr N - Saint Petersburg, FL 33702",
    "location": "Pinellas"
  },
  {
    "name": "Ad Partners Inc",
    "description": "Advertising Agencies",
    "phone": "(727) 289-8900",
    "address": " 9800 4th St N - Saint Petersburg, FL 33702",
    "location": "Pinellas"
  },
  {
    "name": "Watrous Peggy",
    "description": "Advertising Agencies",
    "phone": "(727) 363-4646",
    "address": " 775 115th Ave - Treasure Island, FL 33706",
    "location": "Pinellas"
  },
  {
    "name": "Gulf Bay Advertising",
    "description": "Advertising Specialties",
    "phone": "(727) 289-4508",
    "address": " 11600 7th St E - Treasure Island, FL 33706",
    "location": "Pinellas"
  },
  {
    "name": "Thru Sign",
    "description": "Internet Marketing & Advertising",
    "phone": "(727) 547-4020",
    "address": " 5670 54th Ave N - Kenneth City, FL 33709",
    "location": "Pinellas"
  },
  {
    "name": "Signs of A Dragon Inc",
    "description": "Advertising Specialties",
    "phone": "(727) 914-4388",
    "address": " 4729 66th St N - Kenneth City, FL 33709",
    "location": "Pinellas"
  },
  {
    "name": "A Cooper Signs",
    "description": "Signs-Maintenance & Repair",
    "phone": "(727) 527-1824",
    "address": " 6564 44th St N Ste 802 - Pinellas Park, FL 33781",
    "location": "Pinellas"
  },
  {
    "name": "Street Signs Inc",
    "description": "Signs",
    "phone": "(727) 525-6587",
    "address": " 6250 42nd St N Ste 31 - Pinellas Park, FL 33781",
    "location": "Pinellas"
  },
  {
    "name": "Great Dane Sign Company",
    "description": "Signs",
    "phone": "(727) 350-5584",
    "address": " 6541 44th St N - Pinellas Park, FL 33781",
    "location": "Pinellas"
  },
  {
    "name": "Affordable Signs & Wraps",
    "description": "Signs",
    "phone": "(727) 498-8900",
    "address": " 6859 Haines Rd N - Pinellas Park, FL 33781",
    "location": "Pinellas"
  },
  {
    "name": "C J Publishers Inc",
    "description": "Publishing Consultants",
    "phone": "(727) 521-6277",
    "address": " 4940 72nd Ave N Ste 200 - Pinellas Park, FL 33781",
    "location": "Pinellas"
  },
  {
    "name": "TheWrapElement.com The Wrap Element",
    "description": "Advertising Agencies",
    "phone": "(727) 244-3118",
    "address": " 3575 Gandy Blvd N - Pinellas Park, FL 33781",
    "location": "Pinellas"
  },
  {
    "name": "Visual Concepts Fla",
    "description": "Signs",
    "phone": "(727) 498-8835",
    "address": " 5683 70th Ave N - Pinellas Park, FL 33781",
    "location": "Pinellas"
  },
  {
    "name": "Apexx.ai",
    "description": "Computer Software Publishers & Developers",
    "phone": "(727) 902-2265",
    "address": " 7901 4th St N Ste 300 - St Petersburg, FL 33702",
    "location": "Pinellas"
  },
  {
    "name": "Image Station",
    "description": "Marketing Consultants",
    "phone": "(727) 821-2424",
    "address": " 8150 52nd St N - Pinellas Park, FL 33781",
    "location": "Pinellas"
  },
  {
    "name": "Beach 2 Bay Ads",
    "description": "Marketing Programs & Services",
    "phone": "(727) 233-0246",
    "address": " PO Box 245 - Bay Pines, FL 33744",
    "location": "Pinellas"
  },
  {
    "name": "Cutting Edge Signs & Graphics",
    "description": "Signs",
    "phone": "(727) 546-3700",
    "address": " 8621 49th St N - Pinellas Park, FL 33782",
    "location": "Pinellas"
  },
  {
    "name": "Fishhook Marketing - Web Design & SEO",
    "description": "Advertising Agencies",
    "phone": "(727) 349-4665",
    "address": " 8800 49th St N - Pinellas Park, FL 33782",
    "location": "Pinellas"
  },
  {
    "name": "Hersh Marketing Group, Inc.",
    "description": "Advertising Agencies",
    "phone": "(727) 916-1600",
    "address": " 7834 66th Way N - Pinellas Park, FL 33781",
    "location": "Pinellas"
  },
  {
    "name": "National Marketing Associates Inc",
    "description": "Advertising Agencies",
    "phone": "(727) 320-2444",
    "address": " 14503 Gulf Blvd - Madeira Beach, FL 33708",
    "location": "Pinellas"
  },
  {
    "name": "Southern Image",
    "description": "Signs",
    "phone": "(727) 546-7089",
    "address": " 8100 Park Blvd N Ste 9 - Pinellas Park, FL 33781",
    "location": "Pinellas"
  },
  {
    "name": "Landers & Partners",
    "description": "Advertising Specialties",
    "phone": "(727) 572-5228",
    "address": " 13555 Automobile Blvd, Ste 610 - Clearwater, FL 33762",
    "location": "Pinellas"
  },
  {
    "name": "Landers And Partners",
    "description": "Advertising Agencies",
    "phone": "(727) 572-5228",
    "address": " 10051 5th St N - Saint Petersburg, FL 33702",
    "location": "Pinellas"
  },
  {
    "name": "KDM Design & Marketing Inc",
    "description": "Advertising Agencies",
    "phone": "(727) 344-2026",
    "address": " 9855 59th Ave N - Saint Petersburg, FL 33708",
    "location": "Pinellas"
  },
  {
    "name": "3Geeks Interactive, LLC SEO Services",
    "description": "Internet Marketing & Advertising",
    "phone": "(727) 537-6336",
    "address": " 9952 Gandy Blvd N Ste C - Saint Petersburg, FL 33702",
    "location": "Pinellas"
  },
  {
    "name": "Bungo Media",
    "description": "Media Brokers",
    "phone": "(727) 577-5196",
    "address": " 10812 Gandy Blvd N - Saint Petersburg, FL 33702",
    "location": "Pinellas"
  },
  {
    "name": "Big Nerd Marketing",
    "description": "Advertising Agencies",
    "phone": "(844) 637-3439",
    "address": " 11300 Dr Martin Luther King Jr St N - Saint Petersburg, FL 33716",
    "location": "Pinellas"
  },
  {
    "name": "Tampa Bay Interconnect",
    "description": "Advertising Agencies",
    "phone": "(727) 578-2662",
    "address": " 11500 Dr Martin Luther King Jr St N - Saint Petersburg, FL 33716",
    "location": "Pinellas"
  },
  {
    "name": "Fleming Advertising",
    "description": "Advertising Agencies",
    "phone": "(727) 374-6845",
    "address": " 167 114th Ave NE - Saint Petersburg, FL 33716",
    "location": "Pinellas"
  },
  {
    "name": "Catalina Marketing Corporation",
    "description": "Marketing Consultants",
    "phone": "(727) 579-5000",
    "address": " 200 Carillon Pkwy - Saint Petersburg, FL 33716",
    "location": "Pinellas"
  },
  {
    "name": "First Advantage",
    "description": "Advertising Agencies",
    "phone": "(727) 290-1000",
    "address": " 140 Fountain Pkwy N Ste 140 - Saint Petersburg, FL 33716",
    "location": "Pinellas"
  },
  {
    "name": "A Bargain Signs Inc",
    "description": "Signs",
    "phone": "(727) 573-1526",
    "address": " 10977 49th St N - Clearwater, FL 33762",
    "location": "Pinellas"
  },
  {
    "name": "Sapphire Signs",
    "description": "Signs",
    "phone": "(727) 393-4543",
    "address": " 6875 Seminole Blvd - Seminole, FL 33772",
    "location": "Pinellas"
  },
  {
    "name": "Thomas Sign & Awning Company, Inc.",
    "description": "Signs",
    "phone": "(727) 573-7757",
    "address": " 4590 118th Ave N - Clearwater, FL 33762",
    "location": "Pinellas"
  },
  {
    "name": "Coastal Sign Installation",
    "description": "Signs",
    "phone": "(727) 209-2571",
    "address": " 8725 66th Ct N - Pinellas Park, FL 33782",
    "location": "Pinellas"
  },
  {
    "name": "Image Advertising Specialties",
    "description": "Advertising Specialties",
    "phone": "(727) 547-5264",
    "address": " 9601 61st Way N - Pinellas Park, FL 33782",
    "location": "Pinellas"
  },
  {
    "name": "Wescat, Inc",
    "description": "Advertising Agencies",
    "phone": "(813) 559-0921",
    "address": " 8915 Laurel Dr N - Pinellas Park, FL 33782",
    "location": "Pinellas"
  },
  {
    "name": "Sign Language of Tampa Bay",
    "description": "Marketing Programs & Services",
    "phone": "(727) 572-8831",
    "address": " 10880 49th St N - Clearwater, FL 33762",
    "location": "Pinellas"
  },
  {
    "name": "Jb Led and Sign S Inc",
    "description": "Advertising Specialties",
    "phone": "(727) 289-8195",
    "address": " 4150 112th Ter N - Clearwater, FL 33762",
    "location": "Pinellas"
  },
  {
    "name": "The E Factory",
    "description": "Advertising Agencies",
    "phone": "(727) 319-4459",
    "address": " 10575 68th Ave - Seminole, FL 33772",
    "location": "Pinellas"
  },
  {
    "name": "Herbie Cope Signs Inc",
    "description": "Signs",
    "phone": "(727) 573-1448",
    "address": " 10410 66th St N - Pinellas Park, FL 33782",
    "location": "Pinellas"
  },
  {
    "name": "Allen Industries",
    "description": "Signs",
    "phone": "(727) 573-3076",
    "address": " 11351 49th St N - Clearwater, FL 33762",
    "location": "Pinellas"
  },
  {
    "name": "International Linear Matrix",
    "description": "Signs",
    "phone": "(727) 549-1808",
    "address": " 10821 Canal St - Seminole, FL 33777",
    "location": "Pinellas"
  },
  {
    "name": "A Sign X-Press Inc",
    "description": "Signs",
    "phone": "(727) 541-5573",
    "address": " 10831 Canal St - Seminole, FL 33777",
    "location": "Pinellas"
  },
  {
    "name": "National Sign",
    "description": "Signs",
    "phone": "(727) 572-1503",
    "address": " 5651 116th Ave N - Clearwater, FL 33760",
    "location": "Pinellas"
  },
  {
    "name": "America Ii Group",
    "description": "Advertising Agencies",
    "phone": "(727) 541-4739",
    "address": " 5899 117th Ave N - Pinellas Park, FL 33782",
    "location": "Pinellas"
  },
  {
    "name": "Preferred Custom Printing",
    "description": "T-Shirts-Wholesale & Manufacturers",
    "phone": "(727) 443-1900",
    "address": " 7000 Bryan Dairy Rd - Seminole, FL 33777",
    "location": "Pinellas"
  },
  {
    "name": "Hit Promotional Products, Inc.",
    "description": "Advertising Specialties",
    "phone": "(727) 541-5561",
    "address": " 7150 Bryan Dairy Rd - Seminole, FL 33777",
    "location": "Pinellas"
  },
  {
    "name": "Sound Branding Ideas",
    "description": "Advertising Specialties",
    "phone": "(727) 224-1791",
    "address": " 11125 Park Blvd - Seminole, FL 33772",
    "location": "Pinellas"
  },
  {
    "name": "The Jingle Writer",
    "description": "Marketing Programs & Services",
    "phone": "(727) 224-1791",
    "address": " 11125 Park Blvd - Seminole, FL 33772",
    "location": "Pinellas"
  },
  {
    "name": "Exceltech Of Pinellas Inc",
    "description": "Advertising Agencies",
    "phone": "(727) 397-1769",
    "address": " 9405 94th St - Seminole, FL 33777",
    "location": "Pinellas"
  },
  {
    "name": "Slwm",
    "description": "Advertising Agencies",
    "phone": "(727) 531-1112",
    "address": " 12161 62nd St - Largo, FL 33773",
    "location": "Pinellas"
  },
  {
    "name": "Advantage Sign Supply",
    "description": "Advertising Specialties",
    "phone": "(727) 544-6333",
    "address": " 7401 114th Ave - Largo, FL 33773",
    "location": "Pinellas"
  },
  {
    "name": "Ts Concepts Group",
    "description": "Advertising Agencies",
    "phone": "(727) 369-8060",
    "address": " 8666 Seminole Blvd - Seminole, FL 33772",
    "location": "Pinellas"
  },
  {
    "name": "Elite LED & Signs Inc",
    "description": "Signs",
    "phone": "(727) 507-0600",
    "address": " 12315 62nd St Unit B - Largo, FL 33773",
    "location": "Pinellas"
  },
  {
    "name": "Dowling Graphics Inc",
    "description": "Graphic Designers",
    "phone": "(727) 573-5997",
    "address": " 12920 Automobile Blvd - Clearwater, FL 33762",
    "location": "Pinellas"
  },
  {
    "name": "Media Rosette",
    "description": "Signs",
    "phone": "(727) 954-4570",
    "address": " 12910 Automobile Blvd - Clearwater, FL 33762",
    "location": "Pinellas"
  },
  {
    "name": "Oakhurst Signs",
    "description": "Signs",
    "phone": "(727) 532-8255",
    "address": " 12445 62nd St Unit 305 - Largo, FL 33773",
    "location": "Pinellas"
  },
  {
    "name": "BizBlueprint",
    "description": "Marketing Programs & Services",
    "phone": "(877) 632-1888",
    "address": " 8998 Seminole Blvd - Seminole, FL 33772",
    "location": "Pinellas"
  },
  {
    "name": "GO Agency Digital Marketing",
    "description": "Advertising Agencies",
    "phone": "(813) 790-5909",
    "address": " 2655 Ulmerton Rd Ste 219 - Clearwater, FL 33762",
    "location": "Pinellas"
  },
  {
    "name": "The Mallard Group Inc",
    "description": "Advertising Agencies",
    "phone": "(727) 572-4665",
    "address": " 2861 Executive Dr - Clearwater, FL 33762",
    "location": "Pinellas"
  },
  {
    "name": "Strategic Media Inc",
    "description": "Advertising Specialties",
    "phone": "(727) 531-7622",
    "address": " 2857 Executive Dr Ste 120 - Clearwater, FL 33762",
    "location": "Pinellas"
  },
  {
    "name": "Jeff Arthur Studio's",
    "description": "Advertising Specialties",
    "phone": "(727) 573-5277",
    "address": " 2857 Executive Dr - Clearwater, FL 33762",
    "location": "Pinellas"
  },
  {
    "name": "Publications Nep",
    "description": "Advertising Agencies",
    "phone": "(727) 289-5563",
    "address": " 4908 Creekside Dr - Clearwater, FL 33760",
    "location": "Pinellas"
  },
  {
    "name": "Voice Over America",
    "description": "Directory & Guide Advertising",
    "phone": "(727) 499-0599",
    "address": " 4910 Creekside Dr - Clearwater, FL 33760",
    "location": "Pinellas"
  },
  {
    "name": "Rick Crosby & Associates",
    "description": "Advertising Agencies",
    "phone": "(727) 535-1338",
    "address": " 12360 66th St - Largo, FL 33773",
    "location": "Pinellas"
  },
  {
    "name": "iHeartMedia",
    "description": "Advertising Agencies",
    "phone": "(813) 832-1000",
    "address": " 13577 Feather Sound Dr - Clearwater, FL 33762",
    "location": "Pinellas"
  },
  {
    "name": "Signs Novel",
    "description": "Signs",
    "phone": "(727) 331-8198",
    "address": " 8016 118th Ave - Largo, FL 33773",
    "location": "Pinellas"
  },
  {
    "name": "Manatee Shirts & Graphics",
    "description": "Screen Printing",
    "phone": "(727) 535-8633",
    "address": " 13584 49th St N Ste 8 - Clearwater, FL 33762",
    "location": "Pinellas"
  },
  {
    "name": "Mail Marketing",
    "description": "Advertising Agencies",
    "phone": "(727) 556-2500",
    "address": " 12405 73rd Ct - Largo, FL 33773",
    "location": "Pinellas"
  },
  {
    "name": "Sun Key Publications",
    "description": "Directory & Guide Advertising",
    "phone": "(727) 538-4112",
    "address": " 13575 58th St N - Clearwater, FL 33760",
    "location": "Pinellas"
  },
  {
    "name": "Octane Marketing",
    "description": "Advertising Agencies",
    "phone": "(727) 538-8606",
    "address": " 4500 140th Ave N - Clearwater, FL 33762",
    "location": "Pinellas"
  },
  {
    "name": "Grimco Inc",
    "description": "Signs",
    "phone": "(800) 542-9941",
    "address": " 12395 Belcher Rd S - Largo, FL 33773",
    "location": "Pinellas"
  },
  {
    "name": "Tri Ed Distribution",
    "description": "Advertising Agencies",
    "phone": "(727) 530-3902",
    "address": " 4600 140th Ave N Ste 220 - Clearwater, FL 33762",
    "location": "Pinellas"
  },
  {
    "name": "Galaxy Marketing Solutions LLC",
    "description": "Marketing Programs & Services",
    "phone": "(727) 531-7171",
    "address": " 14055 46th St N Ste 1102 - Clearwater, FL 33762",
    "location": "Pinellas"
  },
  {
    "name": "South Shore Classifieds",
    "description": "Directory & Guide Advertising",
    "phone": "(941) 704-9373",
    "address": " 2821 Gulf City Rd # 144 - Ruskin, FL 33570",
    "location": "Pinellas"
  },
  {
    "name": "Printavizion",
    "description": "Advertising Agencies",
    "phone": "(813) 803-5200",
    "address": " 4524 Marlin Ln - Palmetto, FL 34221",
    "location": "Pinellas"
  },
  {
    "name": "Nuestar Mobile Marketing",
    "description": "Advertising Agencies",
    "phone": "(727) 560-9698",
    "address": " 5207 72nd St E - Palmetto, FL 34221",
    "location": "Pinellas"
  },
  {
    "name": "Relativity SEO",
    "description": "Internet Marketing & Advertising",
    "phone": "(941) 251-5267",
    "address": " 517 72nd St - Holmes Beach, FL 34217",
    "location": "Pinellas"
  },
  {
    "name": "FKQ Advertising & Marketing Inc",
    "description": "Printing Services",
    "phone": "(727) 306-9621",
    "address": " 15351 Roosevelt Blvd - Clearwater, FL 33760",
    "location": "Pinellas"
  },
  {
    "name": "A To Z Printing",
    "description": "Printing Services-Commercial",
    "phone": "(727) 531-6464",
    "address": " 9225 Ulmerton Rd Ste L - Largo, FL 33771",
    "location": "Pinellas"
  },
  {
    "name": "Media Impact Advertising",
    "description": "Advertising Agencies",
    "phone": "(727) 536-3342",
    "address": " 13825 Icot Blvd - Clearwater, FL 33760",
    "location": "Pinellas"
  },
  {
    "name": "My Marketing Department, Inc",
    "description": "Advertising Agencies",
    "phone": "(727) 888-1200",
    "address": " 7777 131st St Ste 9 - Seminole, FL 33776",
    "location": "Pinellas"
  },
  {
    "name": "Modern Mail & Print Solutions",
    "description": "Printing Consultants",
    "phone": "(727) 572-6245",
    "address": " 14201 58th St N - Clearwater, FL 33760",
    "location": "Pinellas"
  },
  {
    "name": "Our Town America",
    "description": "Marketing Programs & Services",
    "phone": "(727) 345-0811",
    "address": " 13900 Us Highway 19 N - Clearwater, FL 33764",
    "location": "Pinellas"
  },
  {
    "name": "Bluewater Media",
    "description": "Internet Marketing & Advertising",
    "phone": "(813) 944-2926",
    "address": " 14375 Myerlake Cir - Clearwater, FL 33760",
    "location": "Pinellas"
  },
  {
    "name": "Southeast Advertising Inc",
    "description": "Advertising Agencies",
    "phone": "(727) 530-1603",
    "address": " 14001 63rd Way N - Clearwater, FL 33760",
    "location": "Pinellas"
  },
  {
    "name": "Amico Treasure Island Holdings",
    "description": "Advertising Agencies",
    "phone": "(727) 538-2069",
    "address": " 14001 63rd Way N - Clearwater, FL 33760",
    "location": "Pinellas"
  },
  {
    "name": "Sign & Design USA",
    "description": "Signs",
    "phone": "(727) 536-4444",
    "address": " 7500 Ulmerton Rd - Largo, FL 33771",
    "location": "Pinellas"
  },
  {
    "name": "Apolo Signs & Awnings",
    "description": "Signs",
    "phone": "(727) 535-0900",
    "address": " 8780 126th Ave - Largo, FL 33773",
    "location": "Pinellas"
  },
  {
    "name": "Underground Graphics Inc",
    "description": "Embroidery",
    "phone": "(727) 535-9582",
    "address": " 13355 Belcher Rd S Ste H - Largo, FL 33773",
    "location": "Pinellas"
  },
  {
    "name": "Blue Wave Signs & Awnings Inc",
    "description": "Signs",
    "phone": "(727) 532-0287",
    "address": " 14501 60th St N - Clearwater, FL 33760",
    "location": "Pinellas"
  },
  {
    "name": "National Traffic Signs",
    "description": "Signs",
    "phone": "(727) 446-7983",
    "address": " 14521 60th St N - Clearwater, FL 33760",
    "location": "Pinellas"
  },
  {
    "name": "Novel Signs",
    "description": "Signs",
    "phone": "(727) 331-8198",
    "address": " 8211 Ulmerton Rd - Largo, FL 33771",
    "location": "Pinellas"
  },
  {
    "name": "Advantage Sign & Graphics",
    "description": "Signs",
    "phone": "(727) 535-4260",
    "address": " 8211 Ulmerton Rd - Largo, FL 33771",
    "location": "Pinellas"
  },
  {
    "name": "Miraclemedia",
    "description": "Advertising Agencies",
    "phone": "(727) 397-3817",
    "address": " 13800 Park Blvd - Seminole, FL 33776",
    "location": "Pinellas"
  },
  {
    "name": "Kyle Vena",
    "description": "Print Advertising",
    "phone": "(727) 564-8724",
    "address": " 2310 Tall Pines Dr Ste 220 - largo, FL 33771",
    "location": "Pinellas"
  },
  {
    "name": "The Sign Man",
    "description": "Signs",
    "phone": "(727) 392-6764",
    "address": " 12073 Seminole Blvd - Largo, FL 33778",
    "location": "Pinellas"
  },
  {
    "name": "Letter Perfect",
    "description": "Signs",
    "phone": "(727) 530-7076",
    "address": " 1700 Palm Way Ste C - Largo, FL 33771",
    "location": "Pinellas"
  },
  {
    "name": "GCI Printing Services DBA Gulf Coast Imprinting",
    "description": "Screen Printing",
    "phone": "(727) 545-9566",
    "address": " 2050 Tall Pines Dr Ste A - Largo, FL 33771",
    "location": "Pinellas"
  },
  {
    "name": "Compusigns Banner Mania",
    "description": "Signs",
    "phone": "(727) 547-1910",
    "address": " 1479 Belcher Rd S - Largo, FL 33771",
    "location": "Pinellas"
  },
  {
    "name": "JMK Solutions Inc",
    "description": "Advertising Agencies",
    "phone": "(727) 595-7613",
    "address": " 13790 87th Pl - Seminole, FL 33776",
    "location": "Pinellas"
  },
  {
    "name": "Blue Atlas Marketing",
    "description": "Advertising Agencies",
    "phone": "(855) 755-6225",
    "address": " 13721 88th Ave - Seminole, FL 33776",
    "location": "Pinellas"
  },
  {
    "name": "Letter Perfect Inc",
    "description": "Signs",
    "phone": "(727) 530-7076",
    "address": " 9225 Ulmerton Rd - Largo, FL 33771",
    "location": "Pinellas"
  },
  {
    "name": "R & W Signs",
    "description": "Signs",
    "phone": "(727) 586-1328",
    "address": " 9470 Ulmerton Rd - Largo, FL 33771",
    "location": "Pinellas"
  },
  {
    "name": "Official Business Listing",
    "description": "Advertising Specialties",
    "phone": "(727) 483-7514",
    "address": " 12945 Seminole Blvd - Largo, FL 33778",
    "location": "Pinellas"
  },
  {
    "name": "Business Growth Solutions Of Florida",
    "description": "Advertising Agencies",
    "phone": "(727) 581-6314",
    "address": " 12945 Seminole Blvd - Largo, FL 33778",
    "location": "Pinellas"
  },
  {
    "name": "Fly High Business Builders",
    "description": "Advertising Agencies",
    "phone": "(866) 359-3422",
    "address": " 10225 Ulmerton Rd - Largo, FL 33771",
    "location": "Pinellas"
  },
  {
    "name": "D & N's Consulting & Management",
    "description": "Advertising Agencies",
    "phone": "(727) 593-0682",
    "address": " 19531 Gulf Blvd Apt 606 - Indian Shores, FL 33785",
    "location": "Pinellas"
  },
  {
    "name": "The Go Agency",
    "description": "Advertising Agencies",
    "phone": "(727) 400-6968",
    "address": " 1301 Seminole Blvd Ste 128 - Largo, FL 33770",
    "location": "Pinellas"
  },
  {
    "name": "Just Click It Digital Marketing",
    "description": "Internet Marketing & Advertising",
    "phone": "(866) 757-7337",
    "address": " 1301 Seminole Blvd Ste 13 - Largo, FL 33770",
    "location": "Pinellas"
  },
  {
    "name": "Speed King Signs",
    "description": "Signs",
    "phone": "(941) 722-7446",
    "address": " 411 7th St W Ste 2 - Palmetto, FL 34221",
    "location": "Pinellas"
  },
  {
    "name": "CJPW Group, Inc.",
    "description": "Advertising Specialties",
    "phone": "(941) 417-7318",
    "address": " 1500 15th Avenue Dr E Unit 105 - Palmetto, FL 34221",
    "location": "Pinellas"
  },
  {
    "name": "Johnson Printing",
    "description": "Printing Services-Commercial",
    "phone": "(941) 746-4171",
    "address": " 1500 15th Avenue Dr E - Palmetto, FL 34221",
    "location": "Pinellas"
  },
  {
    "name": "Magee Sign Service Inc",
    "description": "Signs",
    "phone": "(941) 722-5391",
    "address": " 1511 20th Ave E - Palmetto, FL 34221",
    "location": "Pinellas"
  },
  {
    "name": "Signs 4 R Times Inc",
    "description": "Signs",
    "phone": "(941) 722-8888",
    "address": " 937 10th St E - Palmetto, FL 34221",
    "location": "Pinellas"
  },
  {
    "name": "Wordpress Seo Experts",
    "description": "Advertising Agencies",
    "phone": "(813) 492-4080",
    "address": " 5350 Bridge St - Tampa, FL 33611",
    "location": "Pinellas"
  },
  {
    "name": "Neathawk Dubuque & Packett",
    "description": "Advertising Agencies",
    "phone": "(941) 531-4414",
    "address": " 9219 63rd Ct E - Parrish, FL 34219",
    "location": "Pinellas"
  },
  {
    "name": "B K Sales Co",
    "description": "Advertising Specialties",
    "phone": "(941) 776-0600",
    "address": " 166 Begonia Ter - Parrish, FL 34219",
    "location": "Pinellas"
  }
]
