[
  {
    "name": "Barlow Advertising Specialties",
    "description": "Advertising-Promotional Products",
    "phone": "(386) 423-1320",
    "address": " 1792 Persimmon Cir - Edgewater, FL 32132",
    "location": "Putnam"
  },
  {
    "name": "Jett Printworks",
    "description": "Advertising-Promotional Products",
    "phone": "(407) 247-4576",
    "address": " 110 Shawnee Trl - Geneva, FL 32732",
    "location": "Putnam"
  },
  {
    "name": "Ford Robert & Janice",
    "description": "Advertising Specialties",
    "phone": "(386) 427-9934",
    "address": " 511 27th St - Edgewater, FL 32141",
    "location": "Putnam"
  },
  {
    "name": "B & C Signs",
    "description": "Signs-Erectors & Hangers",
    "phone": "(386) 426-2373",
    "address": " 2225 Guava Dr - Edgewater, FL 32141",
    "location": "Putnam"
  },
  {
    "name": "Fins Up Digital Media",
    "description": "Internet Marketing & Advertising",
    "phone": "(386) 848-6921",
    "address": " 2022 Umbrella Tree Dr - Edgewater, FL 32141",
    "location": "Putnam"
  },
  {
    "name": "Aces Up Signs",
    "description": "Signs",
    "phone": "(386) 690-0737",
    "address": " 1856 Hibiscus Dr - Edgewater, FL 32141",
    "location": "Putnam"
  },
  {
    "name": "Klien-Yaney Med Ia",
    "description": "Advertising Agencies",
    "phone": "(386) 402-7068",
    "address": " 1851 Guava Dr - Edgewater, FL 32141",
    "location": "Putnam"
  },
  {
    "name": "Richard Overman Consulting Inc",
    "description": "Advertising Agencies",
    "phone": "(386) 478-1584",
    "address": " 1204 S Riverside Dr - Edgewater, FL 32132",
    "location": "Putnam"
  },
  {
    "name": "Shok Idea Group",
    "description": "Advertising Agencies",
    "phone": "(386) 957-3939",
    "address": " 201 Flagler Ave - Edgewater, FL 32132",
    "location": "Putnam"
  },
  {
    "name": "Smyrna Sign",
    "description": "Signs",
    "phone": "(386) 426-2920",
    "address": " 1980 E Gateway Dr - New Smyrna Beach, FL 32168",
    "location": "Putnam"
  },
  {
    "name": "Image Today Graphics",
    "description": "Advertising Agencies",
    "phone": "(386) 428-5556",
    "address": " 516 Magnolia St - New Smyrna Beach, FL 32168",
    "location": "Putnam"
  },
  {
    "name": "Revenue Cycle Resources- RCR|HUB",
    "description": "Directory & Guide Advertising",
    "phone": "(407) 421-4940",
    "address": " 538 Canal St - New Smyrna Beach, FL 32168",
    "location": "Putnam"
  },
  {
    "name": "Sign of the Times",
    "description": "Signs",
    "phone": "(386) 423-5512",
    "address": " 511 Canal St - New Smyrna Beach, FL 32168",
    "location": "Putnam"
  },
  {
    "name": "Gerson Art And Sign",
    "description": "Signs",
    "phone": "(386) 426-6302",
    "address": " 1102 N Dixie Fwy - New Smyrna Beach, FL 32168",
    "location": "Putnam"
  },
  {
    "name": "Dawn Kolet Volusia Savings",
    "description": "Advertising Agencies",
    "phone": "(386) 405-6706",
    "address": " 362 N Airport Rd - New Smyrna Beach, FL 32168",
    "location": "Putnam"
  },
  {
    "name": "Jack the SEO Guy",
    "description": "Internet Marketing & Advertising",
    "phone": "(321) 355-2250",
    "address": " 4416 Sherwood Forest Dr - Titusville, FL 32796",
    "location": "Putnam"
  }
]
