[
  {
    "name": "Katie-Dids Originals Inc",
    "description": "Advertising-Promotional Products",
    "phone": "(941) 756-8338",
    "address": " 6851 Whitfield Industrial Ave - Sarasota, FL 34243",
    "location": "Sarasota"
  },
  {
    "name": "Suncoast Print & Promotions Inc.",
    "description": "Advertising-Promotional Products",
    "phone": "(941) 366-1123",
    "address": " 1045 N Lime Ave - Sarasota, FL 34237",
    "location": "Sarasota"
  },
  {
    "name": "Koala Tee Inc",
    "description": "Advertising-Promotional Products",
    "phone": "(941) 954-7700",
    "address": " 2160 17th St - Sarasota, FL 34234",
    "location": "Sarasota"
  },
  {
    "name": "EmbroidMe Sarasota",
    "description": "Advertising-Promotional Products",
    "phone": "(941) 312-5494",
    "address": " 5931 Palmer Blvd - Sarasota, FL 34232",
    "location": "Sarasota"
  },
  {
    "name": "PromoProducts",
    "description": "Advertising-Promotional Products",
    "phone": "(941) 909-3337",
    "address": " 2971 Bravura Lake Dr - Sarasota, FL 34240",
    "location": "Sarasota"
  },
  {
    "name": "Rogue Promotions",
    "description": "Advertising-Promotional Products",
    "phone": "(704) 765-2860",
    "address": " 242 S Washington Blvd - Sarasota, FL 34236",
    "location": "Sarasota"
  },
  {
    "name": "Regional Promotions",
    "description": "Advertising-Promotional Products",
    "phone": "(941) 924-1199",
    "address": " 6601 Superior Ave - Sarasota, FL 34231",
    "location": "Sarasota"
  },
  {
    "name": "Carab Enterprises Inc",
    "description": "Advertising-Promotional Products",
    "phone": "(941) 358-4949",
    "address": " 8910 Province St - Sarasota, FL 34240",
    "location": "Sarasota"
  },
  {
    "name": "D L & Associates Inc",
    "description": "Advertising-Promotional Products",
    "phone": "(941) 355-8477",
    "address": " 2628 17th St - Sarasota, FL 34234",
    "location": "Sarasota"
  },
  {
    "name": "Lonetix Corporation",
    "description": "Advertising-Promotional Products",
    "phone": "(941) 260-9419",
    "address": " 2000 S Tamiami Trl - Sarasota, FL 34239",
    "location": "Sarasota"
  },
  {
    "name": "TNT Tops-N-Tees",
    "description": "Advertising-Promotional Products",
    "phone": "(941) 924-6699",
    "address": " 2257 Bee Ridge Rd - Sarasota, FL 34239",
    "location": "Sarasota"
  },
  {
    "name": "T-N-T Tops-N-Tees",
    "description": "Advertising-Promotional Products",
    "phone": "(941) 914-5096",
    "address": " 2636 Bee Ridge Rd - Sarasota, FL 34239",
    "location": "Sarasota"
  },
  {
    "name": "Stark Enterprises",
    "description": "Advertising-Promotional Products",
    "phone": "(941) 960-2868",
    "address": " 4785 Maid Marian Ln - Sarasota, FL 34232",
    "location": "Sarasota"
  },
  {
    "name": "Proforma Waterlilies",
    "description": "Advertising-Promotional Products",
    "phone": "(941) 359-0300",
    "address": " Sarasota FL 34243 - Sarasota, FL 34243",
    "location": "Sarasota"
  },
  {
    "name": "Royal Tiara Towels & Robes",
    "description": "Advertising-Promotional Products",
    "phone": "(941) 351-8880",
    "address": " 7326 38th Ct E - Sarasota, FL 34243",
    "location": "Sarasota"
  },
  {
    "name": "Florida Knife Co",
    "description": "Advertising-Promotional Products",
    "phone": "(941) 371-2104",
    "address": " 1735 Apex Rd - Sarasota, FL 34240",
    "location": "Sarasota"
  },
  {
    "name": "Stitch By Design Inc",
    "description": "Advertising-Promotional Products",
    "phone": "(941) 343-9070",
    "address": " 3735 Eagle Hammock Dr - Sarasota, FL 34240",
    "location": "Sarasota"
  },
  {
    "name": "Made U Look Promotions",
    "description": "Advertising-Promotional Products",
    "phone": "(941) 343-9070",
    "address": " 2069 Siesta Dr - Sarasota, FL 34239",
    "location": "Sarasota"
  },
  {
    "name": "Premiere Business Apps, LLC",
    "description": "Advertising-Promotional Products",
    "phone": "(941) 400-9556",
    "address": " 515 Canal Rd Suite 3 - Sarasota, FL 34242",
    "location": "Sarasota"
  },
  {
    "name": "Accubeam Laser Marking",
    "description": "Advertising-Promotional Products",
    "phone": "(941) 371-2104",
    "address": " 1735 Apex Rd - Sarasota, FL 34240",
    "location": "Sarasota"
  },
  {
    "name": "The Printery",
    "description": "Advertising-Promotional Products",
    "phone": "(941) 758-5734",
    "address": " 6452 Parkland Dr - Sarasota, FL 34243",
    "location": "Sarasota"
  },
  {
    "name": "Lifejackets Productions",
    "description": "Advertising-Promotional Products",
    "phone": "(941) 927-6500",
    "address": " 3250 Espanola Dr - Sarasota, FL 34239",
    "location": "Sarasota"
  },
  {
    "name": "Tattoo Factory Inc",
    "description": "Advertising-Promotional Products",
    "phone": "(941) 923-3170",
    "address": " 2828 Proctor Rd - Sarasota, FL 34231",
    "location": "Sarasota"
  },
  {
    "name": "Pro-Motion Notions",
    "description": "Advertising-Promotional Products",
    "phone": "(941) 952-1119",
    "address": " 4411 Bee Ridge Rd - Sarasota, FL 34233",
    "location": "Sarasota"
  },
  {
    "name": "Bitner-Poff & Co",
    "description": "Advertising-Promotional Products",
    "phone": "(941) 924-0337",
    "address": " 5352 Eliseo St - Sarasota, FL 34238",
    "location": "Sarasota"
  },
  {
    "name": "Douglas Stewart Co",
    "description": "Advertising-Promotional Products",
    "phone": "(941) 210-7469",
    "address": " 7245 16th St E - Sarasota, FL 34243",
    "location": "Sarasota"
  },
  {
    "name": "Elite Laser Engraving Inc",
    "description": "Advertising-Promotional Products",
    "phone": "(941) 227-0130",
    "address": " 6222 Tower Ln Unit A8 - Sarasota, FL 34240",
    "location": "Sarasota"
  },
  {
    "name": "Tropic Supply Inc",
    "description": "Advertising-Promotional Products",
    "phone": "(941) 377-3172",
    "address": " 1892 Barber Rd - Sarasota, FL 34240",
    "location": "Sarasota"
  },
  {
    "name": "Brel International",
    "description": "Advertising-Promotional Products",
    "phone": "(941) 758-7500",
    "address": " 2001 Whitfield Park Ave - Sarasota, FL 34243",
    "location": "Sarasota"
  },
  {
    "name": "Wayne Marketing",
    "description": "Advertising Agencies",
    "phone": "(941) 702-2126",
    "address": " 1962 Main St - Sarasota, FL 34236",
    "location": "Sarasota"
  },
  {
    "name": "Get Found In Town",
    "description": "Advertising Agencies",
    "phone": "(941) 312-1130",
    "address": " 1922 Oak St Unit A - Sarasota, FL 34236",
    "location": "Sarasota"
  },
  {
    "name": "Digisphere Marketing Inc",
    "description": "Internet Marketing & Advertising",
    "phone": "(941) 342-0025",
    "address": " 7273 Bee Ridge Rd - Sarasota, FL 34241",
    "location": "Sarasota"
  },
  {
    "name": "Signs in One Day",
    "description": "Signs",
    "phone": "(941) 231-2081",
    "address": " 4118 Bee Ridge Rd - Sarasota, FL 34233",
    "location": "Sarasota"
  },
  {
    "name": "Artistic Neon Sign Company",
    "description": "Signs",
    "phone": "(941) 364-9457",
    "address": " 2493 15th St - Sarasota, FL 34237",
    "location": "Sarasota"
  },
  {
    "name": "SignZoo",
    "description": "Advertising Specialties",
    "phone": "(941) 355-5653",
    "address": " 4139 N Washington Blvd - Sarasota, FL 34234",
    "location": "Sarasota"
  },
  {
    "name": "Aquarius Silk Screen Inc",
    "description": "Screen Printing",
    "phone": "(941) 377-3059",
    "address": " 5931 Palmer Blvd - Sarasota, FL 34232",
    "location": "Sarasota"
  },
  {
    "name": "Children's World & Children's World Uniform Supply",
    "description": "Uniforms",
    "phone": "(941) 955-6999",
    "address": " 4525 Bee Ridge Rd - Sarasota, FL 34233",
    "location": "Sarasota"
  },
  {
    "name": "Sarasota Sign Shop",
    "description": "Signs",
    "phone": "(941) 212-1251",
    "address": " 6311 Porter Rd Unit 2 - Sarasota, FL 34240",
    "location": "Sarasota"
  },
  {
    "name": "Shannon Post",
    "description": "Video Production Services",
    "phone": "(703) 732-2096",
    "address": " 100 N Washington Blvd - Sarasota, FL 34236",
    "location": "Sarasota"
  },
  {
    "name": "Image360 Sarasota Central",
    "description": "Signs",
    "phone": "(941) 951-7888",
    "address": " 1693 Main St - Sarasota, FL 34236",
    "location": "Sarasota"
  },
  {
    "name": "Construction Marketing Inc.",
    "description": "Marketing Consultants",
    "phone": "(941) 312-7801",
    "address": " 2526 Trailmate Dr - Sarasota, FL 34243",
    "location": "Sarasota"
  },
  {
    "name": "Ad Nerds Media",
    "description": "Advertising Agencies",
    "phone": "(941) 244-5015",
    "address": " 1990 Main St - Sarasota, FL 34236",
    "location": "Sarasota"
  },
  {
    "name": "The Click Depot",
    "description": "Internet Marketing & Advertising",
    "phone": "(941) 306-3055",
    "address": " 1990 Main St Ste 772-A - Sarasota, FL 34236",
    "location": "Sarasota"
  },
  {
    "name": "Cheetah Agency",
    "description": "Advertising Agencies",
    "phone": "(941) 662-4242",
    "address": " 1990 Main St - Sarasota, FL 34236",
    "location": "Sarasota"
  },
  {
    "name": "Nextiny Marketing",
    "description": "Advertising Agencies",
    "phone": "(941) 870-0623",
    "address": " 1819 Main St Ste 235 - Sarasota, FL 34236",
    "location": "Sarasota"
  },
  {
    "name": "Signs Now",
    "description": "Signs",
    "phone": "(941) 951-7888",
    "address": " 1693 Main St - Sarasota, FL 34236",
    "location": "Sarasota"
  },
  {
    "name": "Localyze Marketing",
    "description": "Advertising Agencies",
    "phone": "(941) 500-4045",
    "address": " 1680 Fruitville Rd - Sarasota, FL 34236",
    "location": "Sarasota"
  },
  {
    "name": "Hub Media",
    "description": "Advertising Agencies",
    "phone": "(941) 914-0117",
    "address": " 227 Central Ave - Sarasota, FL 34236",
    "location": "Sarasota"
  },
  {
    "name": "Spredx",
    "description": "Advertising Agencies",
    "phone": "(941) 227-4857",
    "address": " 1343 Main St Ste 312 - Sarasota, FL 34236",
    "location": "Sarasota"
  },
  {
    "name": "RevSurge Digital",
    "description": "Advertising Agencies",
    "phone": "(941) 402-7442",
    "address": " 1343 Main St Ste 705 - Sarasota, FL 34236",
    "location": "Sarasota"
  },
  {
    "name": "Ziegler Capital Markets",
    "description": "Internet Marketing & Advertising",
    "phone": "(941) 955-0769",
    "address": " 1341 Main St - Sarasota, FL 34236",
    "location": "Sarasota"
  },
  {
    "name": "Signature Signs of Sarasota",
    "description": "Signs",
    "phone": "(941) 951-0622",
    "address": " 2039 12th St - Sarasota, FL 34237",
    "location": "Sarasota"
  },
  {
    "name": "Serbin Printing, Inc.",
    "description": "Printing Services",
    "phone": "(941) 366-0755",
    "address": " 1500 N Washington Blvd - Sarasota, FL 34236",
    "location": "Sarasota"
  },
  {
    "name": "CustomerClicks Company of Sarasota, Digital Marketing, Website Design",
    "description": "Marketing Consultants",
    "phone": "(941) 500-4282",
    "address": " 1501 S Shade Ave - Sarasota, FL 34239",
    "location": "Sarasota"
  },
  {
    "name": "NetReputation",
    "description": "Internet Marketing & Advertising",
    "phone": "(941) 229-3696",
    "address": " 1100 N Tuttle Ave - Sarasota, FL 34237",
    "location": "Sarasota"
  },
  {
    "name": "FASTSIGNS",
    "description": "Signs",
    "phone": "(941) 355-5746",
    "address": " 4070 N Washington Blvd - Sarasota, FL 34234",
    "location": "Sarasota"
  },
  {
    "name": "Indigo Design",
    "description": "Typesetting",
    "phone": "(941) 882-1731",
    "address": " 2531 Siesta Dr - Sarasota, FL 34239",
    "location": "Sarasota"
  },
  {
    "name": "Admart Media",
    "description": "Advertising Agencies",
    "phone": "(941) 487-8825",
    "address": " 15 Paradise Plz Fl 34239 - Sarasota, FL 34239",
    "location": "Sarasota"
  },
  {
    "name": "Frankly",
    "description": "Internet Marketing & Advertising",
    "phone": "(732) 682-6164",
    "address": " Address On File With Bbb - Sarasota, FL 34235",
    "location": "Sarasota"
  },
  {
    "name": "GravityFree Studios",
    "description": "Web Site Design & Services",
    "phone": "(941) 927-7674",
    "address": " 1960 Stickney Point Rd Ste 210 - Sarasota, FL 34231",
    "location": "Sarasota"
  },
  {
    "name": "West Coast Signs",
    "description": "Signs",
    "phone": "(941) 371-7951",
    "address": " 2147 Porter Lake Dr - Sarasota, FL 34240",
    "location": "Sarasota"
  },
  {
    "name": "GT Designs",
    "description": "Signs",
    "phone": "(941) 923-2579",
    "address": " 4233 Clark Rd - Sarasota, FL 34233",
    "location": "Sarasota"
  },
  {
    "name": "Brown Pine Cone",
    "description": "Advertising Agencies",
    "phone": "(941) 999-1399",
    "address": " 6321 Porter Rd Ste 4 - Sarasota, FL 34240",
    "location": "Sarasota"
  },
  {
    "name": "B S & Co. LLC",
    "description": "Internet Marketing & Advertising",
    "phone": "(941) 313-3276",
    "address": " 4281 Express Ln M9302 - Sarasota, FL 34249",
    "location": "Sarasota"
  },
  {
    "name": "Suncoast Skyview Photography",
    "description": "Aerial Photographers",
    "phone": "(941) 730-4461",
    "address": " 7108 Coachlight St - Sarasota, FL 34243",
    "location": "Sarasota"
  },
  {
    "name": "Artisan Signs",
    "description": "Signs",
    "phone": "(941) 923-7005",
    "address": " 6244 Clark Center Ave - Sarasota, FL 34238",
    "location": "Sarasota"
  },
  {
    "name": "Vivid Studios",
    "description": "Web Site Design & Services",
    "phone": "(941) 896-5219",
    "address": " 2524 Trailmate Dr - Sarasota, FL 34243",
    "location": "Sarasota"
  },
  {
    "name": "Anderson Group Inc.",
    "description": "Advertising Agencies",
    "phone": "(941) 921-5942",
    "address": " 7535 Curtiss Ave - Sarasota, FL 34231",
    "location": "Sarasota"
  },
  {
    "name": "Modus Direct",
    "description": "Advertising Agencies",
    "phone": "(941) 552-6770",
    "address": " 40 Sarasota Center Blvd Ste 104 - Sarasota, FL 34240",
    "location": "Sarasota"
  },
  {
    "name": "Cornerstone Signs & Graphics",
    "description": "Signs",
    "phone": "(941) 921-9478",
    "address": " 8120 Uzita Dr - Sarasota, FL 34240",
    "location": "Sarasota"
  },
  {
    "name": "Think Donson",
    "description": "Internet Marketing & Advertising",
    "phone": "(941) 216-7696",
    "address": " 8350 Bee Ridge Rd # 325 - Sarasota, FL 34241",
    "location": "Sarasota"
  },
  {
    "name": "Nuevo Advertising Group Inc",
    "description": "Advertising Agencies",
    "phone": "(941) 752-4433",
    "address": " 677 N Washington Blvd - Sarasota, FL 34236",
    "location": "Sarasota"
  },
  {
    "name": "New Vision Advertising",
    "description": "Advertising Agencies",
    "phone": "(941) 366-3757",
    "address": " 1751 Mound St - Sarasota, FL 34236",
    "location": "Sarasota"
  },
  {
    "name": "Adgals Inc",
    "description": "Advertising Agencies",
    "phone": "(941) 554-8245",
    "address": " 533 S Pineapple Ave - Sarasota, FL 34236",
    "location": "Sarasota"
  },
  {
    "name": "Positively Main Street Graphics Advertising Art & Design",
    "description": "Advertising Agencies",
    "phone": "(941) 366-4959",
    "address": " 1460 Main St - Sarasota, FL 34236",
    "location": "Sarasota"
  },
  {
    "name": "Digital 941",
    "description": "Digital Printing & Imaging",
    "phone": "(941) 867-0442",
    "address": " 710 N Lemon Ave - Sarasota, FL 34236",
    "location": "Sarasota"
  },
  {
    "name": "Smith And Associates Advertising",
    "description": "Advertising Agencies",
    "phone": "(941) 355-7900",
    "address": " 33 S Palm Ave - Sarasota, FL 34236",
    "location": "Sarasota"
  },
  {
    "name": "Where Is Ricky",
    "description": "Advertising Agencies",
    "phone": "(941) 822-5153",
    "address": " 1500 N Lockwood Ridge Rd Apt 24 - Sarasota, FL 34237",
    "location": "Sarasota"
  },
  {
    "name": "Positively Mainstreet Graphics Advertising",
    "description": "Advertising Agencies",
    "phone": "(941) 360-6839",
    "address": " 1225 39th St - Sarasota, FL 34234",
    "location": "Sarasota"
  },
  {
    "name": "Advertising Delivery Solutions",
    "description": "Advertising Agencies",
    "phone": "(941) 922-3398",
    "address": " 5045 S Tamiami Trl - Sarasota, FL 34231",
    "location": "Sarasota"
  },
  {
    "name": "Glass Advertising Inc",
    "description": "Advertising Agencies",
    "phone": "(941) 351-4516",
    "address": " 8051 N Tamiami Trl - Sarasota, FL 34243",
    "location": "Sarasota"
  },
  {
    "name": "P Taylor McHone Advertising",
    "description": "Advertising Agencies",
    "phone": "(941) 923-2285",
    "address": " 5610 Saint Louis Ave - Sarasota, FL 34233",
    "location": "Sarasota"
  },
  {
    "name": "Valpak",
    "description": "Advertising Agencies",
    "phone": "(941) 378-2266",
    "address": " 5875 Bahia Vista St - Sarasota, FL 34232",
    "location": "Sarasota"
  },
  {
    "name": "Key Advertising",
    "description": "Advertising Agencies",
    "phone": "(941) 377-3488",
    "address": " 1415 Ranchero Dr - Sarasota, FL 34240",
    "location": "Sarasota"
  },
  {
    "name": "Special Impressions",
    "description": "Advertising Agencies",
    "phone": "(941) 921-5807",
    "address": " 127 Jeffrey Cir - Sarasota, FL 34238",
    "location": "Sarasota"
  },
  {
    "name": "Cpg World",
    "description": "Advertising Agencies",
    "phone": "(941) 929-0633",
    "address": " 7420 Pearlbush Ln - Sarasota, FL 34241",
    "location": "Sarasota"
  },
  {
    "name": "Premium Advertising",
    "description": "Advertising Agencies",
    "phone": "(941) 702-8607",
    "address": " 1235 Sarasota Center Blvd - Sarasota, FL 34240",
    "location": "Sarasota"
  },
  {
    "name": "Hill Industries America Inc",
    "description": "Advertising Specialties",
    "phone": "(941) 358-3100",
    "address": " 1990 Main St - Sarasota, FL 34236",
    "location": "Sarasota"
  },
  {
    "name": "Cap Brand Marketing",
    "description": "Marketing Consultants",
    "phone": "(941) 953-9191",
    "address": " 1962 Main St - Sarasota, FL 34236",
    "location": "Sarasota"
  },
  {
    "name": "Acrobatrix Worldwide",
    "description": "Advertising Agencies",
    "phone": "(941) 953-9155",
    "address": " 1962 Main St - Sarasota, FL 34236",
    "location": "Sarasota"
  },
  {
    "name": "Genuity Group",
    "description": "Advertising Agencies",
    "phone": "(941) 955-1800",
    "address": " 1991 Main St Ste 248 - Sarasota, FL 34236",
    "location": "Sarasota"
  },
  {
    "name": "Links Management Inc",
    "description": "Advertising Agencies",
    "phone": "(941) 366-2086",
    "address": " 22 S Links Ave - Sarasota, FL 34236",
    "location": "Sarasota"
  },
  {
    "name": "Infinity Designs & The Logo Shop",
    "description": "Advertising Agencies",
    "phone": "(941) 373-9797",
    "address": " 1938 Adams Ln - Sarasota, FL 34236",
    "location": "Sarasota"
  },
  {
    "name": "Atlarge Inc",
    "description": "Advertising Agencies",
    "phone": "(941) 365-9233",
    "address": " 238 Links Ave - Sarasota, FL 34236",
    "location": "Sarasota"
  },
  {
    "name": "Gulf Rayz Media",
    "description": "Advertising Agencies",
    "phone": "(941) 364-4300",
    "address": " 2170 Main St Ste 103 - Sarasota, FL 34237",
    "location": "Sarasota"
  },
  {
    "name": "Baskerville Swirles & Ward",
    "description": "Advertising Agencies",
    "phone": "(941) 366-3888",
    "address": " 1740 Main St - Sarasota, FL 34236",
    "location": "Sarasota"
  },
  {
    "name": "Sarasota Sign Machine",
    "description": "Signs",
    "phone": "(941) 302-4275",
    "address": " 601 N Washington Blvd - Sarasota, FL 34236",
    "location": "Sarasota"
  },
  {
    "name": "Clark Signs",
    "description": "Advertising Specialties",
    "phone": "(941) 955-2000",
    "address": " 1701 Ringling Blvd - Sarasota, FL 34236",
    "location": "Sarasota"
  },
  {
    "name": "Logan & Long Inc",
    "description": "Advertising Agencies",
    "phone": "(941) 366-0995",
    "address": " 1902 Oak St - Sarasota, FL 34236",
    "location": "Sarasota"
  },
  {
    "name": "Group Z Signs",
    "description": "Signs",
    "phone": "(941) 706-3448",
    "address": " 2283 Ringling Blvd - Sarasota, FL 34237",
    "location": "Sarasota"
  },
  {
    "name": "Spot Link",
    "description": "Advertising Agencies",
    "phone": "(941) 366-6281",
    "address": " 1605 Main St - Sarasota, FL 34236",
    "location": "Sarasota"
  },
  {
    "name": "On Ideas",
    "description": "Advertising Agencies",
    "phone": "(941) 365-2710",
    "address": " 1605 Main St - Sarasota, FL 34236",
    "location": "Sarasota"
  },
  {
    "name": "Wilde Productions",
    "description": "Advertising Agencies",
    "phone": "(941) 316-9888",
    "address": " 461 N Orange Ave - Sarasota, FL 34236",
    "location": "Sarasota"
  },
  {
    "name": "Burgess Signs Inc",
    "description": "Signs",
    "phone": "(941) 955-7454",
    "address": " 735 N Lime Ave - Sarasota, FL 34237",
    "location": "Sarasota"
  },
  {
    "name": "Odato Marketing Group, Inc.",
    "description": "Internet Marketing & Advertising",
    "phone": "(941) 954-0345",
    "address": " 330 S Pineapple Ave Ste 203 - Sarasota, FL 34236",
    "location": "Sarasota"
  },
  {
    "name": "Web Presence",
    "description": "Internet Marketing & Advertising",
    "phone": "(844) 917-0925",
    "address": " 1440 Main St Fl 3 - Sarasota, FL 34236",
    "location": "Sarasota"
  },
  {
    "name": "Next-Mark",
    "description": "Advertising Agencies",
    "phone": "(941) 544-2765",
    "address": " 40 S Pineapple Ave - Sarasota, FL 34236",
    "location": "Sarasota"
  },
  {
    "name": "Matt Made Media",
    "description": "Media Brokers",
    "phone": "(941) 552-9402",
    "address": " 2274 Bay St - Sarasota, FL 34237",
    "location": "Sarasota"
  },
  {
    "name": "Inter Ad Agency",
    "description": "Advertising Agencies",
    "phone": "(941) 365-5200",
    "address": " 45 S Palm Ave - Sarasota, FL 34236",
    "location": "Sarasota"
  },
  {
    "name": "Be Creative USA Inc",
    "description": "Graphic Designers",
    "phone": "(941) 366-8800",
    "address": " 1419 5th St Ste D - Sarasota, FL 34236",
    "location": "Sarasota"
  },
  {
    "name": "Mail-It",
    "description": "Direct Mail Advertising",
    "phone": "(941) 365-6245",
    "address": " 1500 N Washington Blvd - Sarasota, FL 34236",
    "location": "Sarasota"
  },
  {
    "name": "Smith Advertising & Associates",
    "description": "Advertising Agencies",
    "phone": "(941) 955-7094",
    "address": " 1133 4th St Ste 205 - Sarasota, FL 34236",
    "location": "Sarasota"
  },
  {
    "name": "Stockhouse Media Corp",
    "description": "Internet Marketing & Advertising",
    "phone": "(941) 365-5719",
    "address": " 1133 4th St - Sarasota, FL 34236",
    "location": "Sarasota"
  },
  {
    "name": "Michaels Signs",
    "description": "Advertising Specialties",
    "phone": "(941) 365-7729",
    "address": " 2066 1/2 17th St - Sarasota, FL 34234",
    "location": "Sarasota"
  },
  {
    "name": "Michael's Signs",
    "description": "Signs",
    "phone": "(941) 365-7729",
    "address": " 2066 1/2 17th St - Sarasota, FL 34234",
    "location": "Sarasota"
  },
  {
    "name": "Niagara Sign Service",
    "description": "Advertising Specialties",
    "phone": "(941) 465-7461",
    "address": " 2491 15th St - Sarasota, FL 34237",
    "location": "Sarasota"
  },
  {
    "name": "Sign Me Up",
    "description": "Advertising Specialties",
    "phone": "(941) 554-8988",
    "address": " 2347 17th St - Sarasota, FL 34234",
    "location": "Sarasota"
  },
  {
    "name": "Green Gem Advertising Inc",
    "description": "Advertising Agencies",
    "phone": "(833) 787-5724",
    "address": " 1058 N Tamiami Trl - Sarasota, FL 34236",
    "location": "Sarasota"
  },
  {
    "name": "Knight Marketing",
    "description": "Advertising Agencies",
    "phone": "(941) 361-3070",
    "address": " 2032 Hawthorne St - Sarasota, FL 34239",
    "location": "Sarasota"
  },
  {
    "name": "Fahrenheit 10 Inc",
    "description": "Advertising Agencies",
    "phone": "(941) 955-0151",
    "address": " 1161 N Tamiami Trl - Sarasota, FL 34236",
    "location": "Sarasota"
  },
  {
    "name": "King Signs",
    "description": "Signs",
    "phone": "(941) 924-8456",
    "address": " 2920 Hyde Park St - Sarasota, FL 34239",
    "location": "Sarasota"
  },
  {
    "name": "Rxmedspa.Com",
    "description": "Signs",
    "phone": "(941) 952-0500",
    "address": " 2800 Tamiami Trl - Sarasota, FL 34239",
    "location": "Sarasota"
  },
  {
    "name": "Simply Strategy",
    "description": "Advertising Agencies",
    "phone": "(941) 320-3182",
    "address": " 1837 Mid Ocean Cir - Sarasota, FL 34239",
    "location": "Sarasota"
  },
  {
    "name": "SEO Counselors",
    "description": "Advertising Agencies",
    "phone": "(941) 444-6099",
    "address": " 3230 Southgate Circle Suite #102 - Sarasota, FL 34236",
    "location": "Sarasota"
  },
  {
    "name": "Leedom Group",
    "description": "Advertising Agencies",
    "phone": "(941) 955-1597",
    "address": " 3700 S Tamiami Trl Ste 1 - Sarasota, FL 34239",
    "location": "Sarasota"
  },
  {
    "name": "Sign Service Company",
    "description": "Signs",
    "phone": "(941) 351-5565",
    "address": " 1928 Northgate Blvd - Sarasota, FL 34234",
    "location": "Sarasota"
  },
  {
    "name": "Time Right",
    "description": "Advertising Specialties",
    "phone": "(941) 927-6537",
    "address": " 15 Paradise Plz - Sarasota, FL 34239",
    "location": "Sarasota"
  },
  {
    "name": "Gulf Coast Signs of Sarasota, Inc.",
    "description": "Signs",
    "phone": "(941) 355-8841",
    "address": " 1713 Northgate Blvd - Sarasota, FL 34234",
    "location": "Sarasota"
  },
  {
    "name": "Healthcare Management Dcsns",
    "description": "Advertising Agencies",
    "phone": "(941) 346-1030",
    "address": " 3336 Higel Ave - Sarasota, FL 34242",
    "location": "Sarasota"
  },
  {
    "name": "Nielubowicz & Associates Inc",
    "description": "Advertising Agencies",
    "phone": "(941) 924-5077",
    "address": " 1900 Glengary St - Sarasota, FL 34231",
    "location": "Sarasota"
  },
  {
    "name": "Innovative Agent Service",
    "description": "Internet Marketing & Advertising",
    "phone": "(941) 921-5027",
    "address": " 2945 Bee Ridge Rd - Sarasota, FL 34239",
    "location": "Sarasota"
  },
  {
    "name": "Be Creative Studios",
    "description": "Graphic Designers",
    "phone": "(941) 366-8800",
    "address": " 2390 Pine Ter - Sarasota, FL 34231",
    "location": "Sarasota"
  },
  {
    "name": "Vision PRM",
    "description": "Advertising Agencies",
    "phone": "(941) 587-9217",
    "address": " 2701 Nassau St - Sarasota, FL 34231",
    "location": "Sarasota"
  },
  {
    "name": "Jennings & Company",
    "description": "Advertising Agencies",
    "phone": "(941) 351-1005",
    "address": " 436 Woodland Dr - Sarasota, FL 34234",
    "location": "Sarasota"
  },
  {
    "name": "Sarasota Herald-Tribune",
    "description": "Advertising Specialties",
    "phone": "(941) 953-7755",
    "address": " 1800 University Pkwy - Sarasota, FL 34243",
    "location": "Sarasota"
  },
  {
    "name": "MS Billib Enterprises",
    "description": "Advertising Agencies",
    "phone": "(941) 924-3412",
    "address": " 4717 Oak Forest Dr W - Sarasota, FL 34231",
    "location": "Sarasota"
  },
  {
    "name": "M & M Group Enterprises Inc",
    "description": "Advertising Agencies",
    "phone": "(941) 360-9397",
    "address": " 5015 Habana Dr - Sarasota, FL 34235",
    "location": "Sarasota"
  },
  {
    "name": "Designs Unlimited Custom Screen Printing",
    "description": "Uniforms",
    "phone": "(941) 923-4840",
    "address": " 4070 Sawyer Ct - Sarasota, FL 34233",
    "location": "Sarasota"
  },
  {
    "name": "Den Bone Barbeque",
    "description": "Advertising Agencies",
    "phone": "(941) 359-1587",
    "address": " 5312 Durango Ave - Sarasota, FL 34235",
    "location": "Sarasota"
  },
  {
    "name": "AdEmporia.com",
    "description": "Directory & Guide Advertising",
    "phone": "(408) 471-7237",
    "address": " 8437 Tuttle Ave # 316 - Sarasota, FL 34243",
    "location": "Sarasota"
  },
  {
    "name": "Signs Plus",
    "description": "Signs",
    "phone": "(941) 378-4262",
    "address": " 4242 Mcintosh Ln - Sarasota, FL 34232",
    "location": "Sarasota"
  },
  {
    "name": "Signs 2 Go Inc",
    "description": "Signs",
    "phone": "(941) 355-0020",
    "address": " 8436 Lockwood Ridge Rd - Sarasota, FL 34243",
    "location": "Sarasota"
  },
  {
    "name": "Adventures In Advertising Tropical Promotions",
    "description": "Advertising Specialties",
    "phone": "(941) 955-9508",
    "address": " 4411 Bee Ridge Rd - Sarasota, FL 34233",
    "location": "Sarasota"
  },
  {
    "name": "Adblaze",
    "description": "Advertising Specialties",
    "phone": "(941) 256-0777",
    "address": " 5317 Fruitville Rd Ste 113 - Sarasota, FL 34232",
    "location": "Sarasota"
  },
  {
    "name": "Pro Net Marketing",
    "description": "Advertising Agencies",
    "phone": "(941) 351-9177",
    "address": " 7924 Oak Grove Cir - Sarasota, FL 34243",
    "location": "Sarasota"
  },
  {
    "name": "Green Hopper",
    "description": "Advertising Agencies",
    "phone": "(941) 706-5400",
    "address": " 440 Avenida De Mayo - Sarasota, FL 34242",
    "location": "Sarasota"
  },
  {
    "name": "Company Outfitters/Say It With Stitches",
    "description": "Embroidery",
    "phone": "(941) 925-3855",
    "address": " 5750 S Tamiami Trl - Sarasota, FL 34231",
    "location": "Sarasota"
  },
  {
    "name": "Snider Marketing Service",
    "description": "Advertising Specialties",
    "phone": "(941) 371-0951",
    "address": " 1123 Stoeber Ave - Sarasota, FL 34232",
    "location": "Sarasota"
  },
  {
    "name": "B 2B Resource Team",
    "description": "Advertising Agencies",
    "phone": "(941) 256-2229",
    "address": " Beaurivage Ave - Sarasota, FL 34243",
    "location": "Sarasota"
  },
  {
    "name": "Studio 217 Inc",
    "description": "Advertising Agencies",
    "phone": "(941) 922-3006",
    "address": " 5855 Driftwood Ave - Sarasota, FL 34231",
    "location": "Sarasota"
  },
  {
    "name": "Road Signs Inc",
    "description": "Signs",
    "phone": "(941) 355-4747",
    "address": " 1243 Tallevast Rd - Sarasota, FL 34243",
    "location": "Sarasota"
  },
  {
    "name": "Suncoast Advdertising Federation",
    "description": "Advertising Agencies",
    "phone": "(941) 927-7589",
    "address": " 6020 S Tamiami Trl - Sarasota, FL 34231",
    "location": "Sarasota"
  },
  {
    "name": "Purple Shovel",
    "description": "Advertising Agencies",
    "phone": "(941) 952-3019",
    "address": " 5700 Midnight Pass Rd - Sarasota, FL 34242",
    "location": "Sarasota"
  },
  {
    "name": "Edelsbacher Design Group Inc",
    "description": "Advertising Agencies",
    "phone": "(941) 925-4921",
    "address": " 430 N Cattlemen Rd - Sarasota, FL 34232",
    "location": "Sarasota"
  },
  {
    "name": "Mark Ambrozich Consulting",
    "description": "Advertising Agencies",
    "phone": "(941) 925-3171",
    "address": " 5328 Anthony Ln - Sarasota, FL 34233",
    "location": "Sarasota"
  },
  {
    "name": "Cpm Us",
    "description": "Advertising Agencies",
    "phone": "(941) 351-7583",
    "address": " 7425 16th St E - Sarasota, FL 34243",
    "location": "Sarasota"
  },
  {
    "name": "Scott Signs Systems Inc",
    "description": "Signs",
    "phone": "(941) 355-5171",
    "address": " 7524 Commerce Pl - Sarasota, FL 34243",
    "location": "Sarasota"
  },
  {
    "name": "GT Alliance",
    "description": "Advertising Agencies",
    "phone": "(941) 726-0486",
    "address": " 999 Cattlemen Rd - Sarasota, FL 34232",
    "location": "Sarasota"
  },
  {
    "name": "Aquarius Graphics",
    "description": "Advertising Specialties",
    "phone": "(941) 981-2623",
    "address": " 5931 Palmer Blvd - Sarasota, FL 34232",
    "location": "Sarasota"
  },
  {
    "name": "B 2 B Signs",
    "description": "Advertising Specialties",
    "phone": "(941) 228-3600",
    "address": " 1177 Cattlemen Rd - Sarasota, FL 34232",
    "location": "Sarasota"
  },
  {
    "name": "Infobankmedia",
    "description": "Internet Consultants",
    "phone": "(941) 313-6614",
    "address": " 4040 Longhorn Dr - Sarasota, FL 34233",
    "location": "Sarasota"
  },
  {
    "name": "The Sarasota Home Mag Inc",
    "description": "Directory & Guide Advertising",
    "phone": "(941) 379-8780",
    "address": " 5540 Bee Ridge Rd - Sarasota, FL 34233",
    "location": "Sarasota"
  },
  {
    "name": "Precision Signs",
    "description": "Signs",
    "phone": "(941) 706-4955",
    "address": " 4430 Mcashton St - Sarasota, FL 34233",
    "location": "Sarasota"
  },
  {
    "name": "Innovati Agent Service",
    "description": "Internet Marketing & Advertising",
    "phone": "(941) 921-5027",
    "address": " 6508 Superior Ave - Sarasota, FL 34231",
    "location": "Sarasota"
  },
  {
    "name": "Mp Usa",
    "description": "Advertising Agencies",
    "phone": "(941) 727-7700",
    "address": " 2319 72nd Ave E - Sarasota, FL 34243",
    "location": "Sarasota"
  },
  {
    "name": "Drive Digital Group",
    "description": "Advertising Agencies",
    "phone": "(941) 379-0002",
    "address": " 371 Interstate Blvd - Sarasota, FL 34240",
    "location": "Sarasota"
  },
  {
    "name": "Atomix Advertising",
    "description": "Advertising Specialties",
    "phone": "(941) 260-8387",
    "address": " 4598 Ashton Rd - Sarasota, FL 34233",
    "location": "Sarasota"
  },
  {
    "name": "Northgate Limited Inc",
    "description": "Advertising Agencies",
    "phone": "(941) 927-9406",
    "address": " 4549 Mariotti Ct - Sarasota, FL 34233",
    "location": "Sarasota"
  },
  {
    "name": "World Consumer Alliance",
    "description": "Advertising Agencies",
    "phone": "(941) 444-7184",
    "address": " 2201 Cantu Ct Ste 102 - Sarasota, FL 34232",
    "location": "Sarasota"
  },
  {
    "name": "Ebsco Sign Group",
    "description": "Advertising Specialties",
    "phone": "(941) 378-4242",
    "address": " 2201 Cantu Ct - Sarasota, FL 34232",
    "location": "Sarasota"
  },
  {
    "name": "J M Stewart Corporation",
    "description": "Advertising Specialties",
    "phone": "(941) 378-4242",
    "address": " 2201 Cantu Ct Ste 215 - Sarasota, FL 34232",
    "location": "Sarasota"
  },
  {
    "name": "Triple M Media Inc",
    "description": "Advertising Agencies",
    "phone": "(941) 323-7080",
    "address": " 6222 Tower Ln - Sarasota, FL 34240",
    "location": "Sarasota"
  },
  {
    "name": "Jonny's Original Free Ride SK",
    "description": "Advertising Agencies",
    "phone": "(941) 702-5080",
    "address": " 6600 S Tamiami Trl - Sarasota, FL 34231",
    "location": "Sarasota"
  },
  {
    "name": "Bbhw Media Group",
    "description": "Advertising Agencies",
    "phone": "(941) 377-2249",
    "address": " 2147 Porter Lake Dr - Sarasota, FL 34240",
    "location": "Sarasota"
  },
  {
    "name": "Direct Corporate Solutions, Inc.",
    "description": "Advertising Specialties",
    "phone": "(941) 377-3600",
    "address": " 1850 Porter Lake Dr Ste 103 - Sarasota, FL 34240",
    "location": "Sarasota"
  },
  {
    "name": "American Sign Company",
    "description": "Signs",
    "phone": "(941) 921-5511",
    "address": " 5377 Ashton Ct - Sarasota, FL 34233",
    "location": "Sarasota"
  },
  {
    "name": "Precision Signs Inc",
    "description": "Signs",
    "phone": "(941) 342-9401",
    "address": " 2427 Porter Lake Dr - Sarasota, FL 34240",
    "location": "Sarasota"
  },
  {
    "name": "Siesta Key Sign and Design",
    "description": "Signs",
    "phone": "(941) 371-4932",
    "address": " 2427 Porter Lake Dr - Sarasota, FL 34240",
    "location": "Sarasota"
  },
  {
    "name": "CRE8TEGY",
    "description": "Marketing Programs & Services",
    "phone": "(941) 330-4153",
    "address": " 6720 S Tamiami Trl # 1005 - Sarasota, FL 34231",
    "location": "Sarasota"
  },
  {
    "name": "Richard La Raviere Signs",
    "description": "Signs",
    "phone": "(941) 922-8459",
    "address": " 4559 Clark Rd - Sarasota, FL 34233",
    "location": "Sarasota"
  },
  {
    "name": "Now Thats A Wrap",
    "description": "Signs",
    "phone": "(941) 751-1920",
    "address": " 2017 Whitfield Park Dr - Sarasota, FL 34243",
    "location": "Sarasota"
  },
  {
    "name": "Adwave Inc",
    "description": "Advertising Agencies",
    "phone": "(941) 312-6499",
    "address": " 6000 Deacon Pl - Sarasota, FL 34238",
    "location": "Sarasota"
  },
  {
    "name": "Performance Potential Pro",
    "description": "Advertising Agencies",
    "phone": "(941) 349-1104",
    "address": " 6547 Midnight Pass Rd - Sarasota, FL 34242",
    "location": "Sarasota"
  },
  {
    "name": "Nick Sommers Productions",
    "description": "Advertising Agencies",
    "phone": "(941) 870-8635",
    "address": " 1636 Baywood Way - Sarasota, FL 34231",
    "location": "Sarasota"
  },
  {
    "name": "American Sign Co",
    "description": "Signs",
    "phone": "(941) 921-5511",
    "address": " 6611 26th Ct E - Sarasota, FL 34243",
    "location": "Sarasota"
  },
  {
    "name": "Lfk Products",
    "description": "Advertising Agencies",
    "phone": "(941) 924-7800",
    "address": " 7222 Tamiami Trl - Sarasota, FL 34231",
    "location": "Sarasota"
  },
  {
    "name": "Strive Media",
    "description": "Advertising Agencies",
    "phone": "(855) 787-4836",
    "address": " 5254 Station Way - Sarasota, FL 34233",
    "location": "Sarasota"
  },
  {
    "name": "Homeflex",
    "description": "Advertising Specialties",
    "phone": "(941) 809-1681",
    "address": " 6914 Magellan Way - Sarasota, FL 34243",
    "location": "Sarasota"
  },
  {
    "name": "Timmes Consulting Inc",
    "description": "Advertising Agencies",
    "phone": "(941) 921-4900",
    "address": " 3804 Kingston Blvd - Sarasota, FL 34238",
    "location": "Sarasota"
  },
  {
    "name": "Phoenix Advertising & Marketing Communications",
    "description": "Advertising Agencies",
    "phone": "(941) 929-9396",
    "address": " 7350 S Tamiami Trl # 154 - Sarasota, FL 34231",
    "location": "Sarasota"
  },
  {
    "name": "Marketing By Design",
    "description": "Advertising Agencies",
    "phone": "(941) 907-6060",
    "address": " 6504 Palm Leaf Ct - Sarasota, FL 34243",
    "location": "Sarasota"
  },
  {
    "name": "Local SEO Me",
    "description": "Internet Marketing & Advertising",
    "phone": "(941) 208-0255",
    "address": " 5342 Clark Rd Ste 138 - Sarasota, FL 34233",
    "location": "Sarasota"
  },
  {
    "name": "Scene Magazine",
    "description": "Directory & Guide Advertising",
    "phone": "(941) 954-5067",
    "address": " 5939 Approach Rd - Sarasota, FL 34238",
    "location": "Sarasota"
  },
  {
    "name": "Jda.media",
    "description": "Advertising Agencies",
    "phone": "(941) 926-7355",
    "address": " 7711 Holiday Dr - Sarasota, FL 34231",
    "location": "Sarasota"
  },
  {
    "name": "Rouff Corp",
    "description": "Advertising Specialties",
    "phone": "(877) 885-0133",
    "address": " 6356 Mighty Eagle Way - Sarasota, FL 34241",
    "location": "Sarasota"
  },
  {
    "name": "Boost360",
    "description": "Advertising Agencies",
    "phone": "(773) 888-7778",
    "address": " 1205 Lost Creek Ct - Sarasota, FL 34238",
    "location": "Sarasota"
  },
  {
    "name": "KSC Inc",
    "description": "Advertising Agencies",
    "phone": "(941) 906-1555",
    "address": " 40 Sarasota Center Blvd - Sarasota, FL 34240",
    "location": "Sarasota"
  },
  {
    "name": "Fpra",
    "description": "Advertising Agencies",
    "phone": "(941) 365-2135",
    "address": " 40 Sarasota Center Blvd - Sarasota, FL 34240",
    "location": "Sarasota"
  },
  {
    "name": "Sharper Advertising",
    "description": "Marketing Programs & Services",
    "phone": "(941) 702-8607",
    "address": " 1235 Sarasota Center Blvd - Sarasota, FL 34240",
    "location": "Sarasota"
  },
  {
    "name": "Turtle Rock Community Assn",
    "description": "Advertising Agencies",
    "phone": "(941) 921-3865",
    "address": " 8500 Turtle Rock Blvd - Sarasota, FL 34238",
    "location": "Sarasota"
  },
  {
    "name": "Perspective Consulting",
    "description": "Advertising Agencies",
    "phone": "(941) 371-0371",
    "address": " 3780 Eagle Hammock Dr - Sarasota, FL 34240",
    "location": "Sarasota"
  },
  {
    "name": "Optimium7",
    "description": "Advertising Agencies",
    "phone": "(941) 312-4528",
    "address": " 7472 Paurotis Ct - Sarasota, FL 34241",
    "location": "Sarasota"
  },
  {
    "name": "Robert L Howard Enterprises",
    "description": "Internet Marketing & Advertising",
    "phone": "(941) 952-3621",
    "address": " 8816 Enclave Ct - Sarasota, FL 34238",
    "location": "Sarasota"
  },
  {
    "name": "A & B Custom Tees & Signs",
    "description": "Signs",
    "phone": "(941) 388-7161",
    "address": " 5948 Mariposa Ln - Sarasota, FL 34238",
    "location": "Sarasota"
  },
  {
    "name": "Impressed Shop Custom Gifts, Apparel and Promotional Items",
    "description": "Advertising-Promotional Products",
    "phone": "(941) 448-5096",
    "address": " 6160 State Road 70 E - Bradenton, FL 34203",
    "location": "Sarasota"
  },
  {
    "name": "Spectrum Chemical",
    "description": "Advertising-Promotional Products",
    "phone": "(941) 751-5151",
    "address": " 3010 59th Avenue Dr E - Bradenton, FL 34203",
    "location": "Sarasota"
  },
  {
    "name": "Riptide",
    "description": "Advertising-Promotional Products",
    "phone": "(941) 727-4860",
    "address": " 2896 48th Way E - Bradenton, FL 34203",
    "location": "Sarasota"
  },
  {
    "name": "Printing Post",
    "description": "Advertising-Promotional Products",
    "phone": "(941) 753-1046",
    "address": " 5409 15th Street E - Bradenton, FL 34203",
    "location": "Sarasota"
  },
  {
    "name": "Rooks Advertising",
    "description": "Advertising-Promotional Products",
    "phone": "(941) 747-2021",
    "address": " 6958 Professional Pkwy E - Lakewood Ranch, FL 34240",
    "location": "Sarasota"
  },
  {
    "name": "Pompano Sign Company",
    "description": "Advertising-Promotional Products",
    "phone": "(941) 592-4033",
    "address": " 6105 31st St E - Bradenton, FL 34203",
    "location": "Sarasota"
  },
  {
    "name": "WSM Distributin G",
    "description": "Advertising-Promotional Products",
    "phone": "(941) 238-0965",
    "address": " 1899 60th Pl E - Bradenton, FL 34203",
    "location": "Sarasota"
  },
  {
    "name": "DC Graphics By Design",
    "description": "Advertising-Promotional Products",
    "phone": "(941) 705-2134",
    "address": " 6972 Professional Pkwy E - Lakewood Ranch, FL 34240",
    "location": "Sarasota"
  },
  {
    "name": "Dandrea Provision of Sarasot",
    "description": "Advertising-Promotional Products",
    "phone": "(941) 907-0759",
    "address": " 7025 Professional Pkwy - Lakewood Ranch, FL 34240",
    "location": "Sarasota"
  },
  {
    "name": "NutsITLab, L.L.C.",
    "description": "Advertising-Promotional Products",
    "phone": "(941) 524-4401",
    "address": " 6150 State Road 70 E - Bradenton, FL 34203",
    "location": "Sarasota"
  },
  {
    "name": "Foster Business Development, LLC",
    "description": "Marketing Programs & Services",
    "phone": "(941) 962-3827",
    "address": " 8374 Market St # 189 - Lakewood Ranch, FL 34202",
    "location": "Sarasota"
  },
  {
    "name": "Valpak of The Suncoast",
    "description": "Advertising Specialties",
    "phone": "(941) 776-8838",
    "address": " 8374 Market St # 157 - Lakewood Ranch, FL 34202",
    "location": "Sarasota"
  },
  {
    "name": "Grapevine Communication",
    "description": "Advertising Agencies",
    "phone": "(941) 351-0024",
    "address": " 5201 Paylor Ln - Lakewood Ranch, FL 34240",
    "location": "Sarasota"
  },
  {
    "name": "Advice",
    "description": "Public Relations Counselors",
    "phone": "(941) 907-9507",
    "address": " 7365 Merchant Ct Ste 4 - Lakewood Ranch, FL 34240",
    "location": "Sarasota"
  },
  {
    "name": "Salem Surround Sarasota",
    "description": "Advertising Agencies",
    "phone": "(813) 288-0805",
    "address": " 8130 Lakewood Main St Ste 103 - Lakewood Ranch, FL 34202",
    "location": "Sarasota"
  },
  {
    "name": "Reel Deal Advertising",
    "description": "Advertising Agencies",
    "phone": "(877) 899-7865",
    "address": " 6728 26th St W - Bradenton, FL 34207",
    "location": "Sarasota"
  },
  {
    "name": "Fox Business Group",
    "description": "Marketing Consultants",
    "phone": "(941) 758-2404",
    "address": " 6004 93rd Street Cir E - Bradenton, FL 34202",
    "location": "Sarasota"
  },
  {
    "name": "Aker Marketing",
    "description": "Marketing Consultants",
    "phone": "(941) 552-7890",
    "address": " 9040 Town Center Pkwy - Lakewood Ranch, FL 34202",
    "location": "Sarasota"
  },
  {
    "name": "GRM Mgmt For Enterprise",
    "description": "Advertising Agencies",
    "phone": "(941) 361-1050",
    "address": " 8430 Enterprise Cir - Lakewood Ranch, FL 34202",
    "location": "Sarasota"
  },
  {
    "name": "Atlas Solutions",
    "description": "Advertising Agencies",
    "phone": "(941) 727-1014",
    "address": " 2071 58th Avenue Cir E - Bradenton, FL 34203",
    "location": "Sarasota"
  },
  {
    "name": "Right Idea Promotions",
    "description": "Advertising Specialties",
    "phone": "(941) 758-0182",
    "address": " 6435 26th St W - Bradenton, FL 34207",
    "location": "Sarasota"
  },
  {
    "name": "Main Street Search Marketing",
    "description": "Internet Marketing & Advertising",
    "phone": "(844) 326-4080",
    "address": " 8130 Lakewood Main St, #321 - Lakewood Ranch, FL 34202",
    "location": "Sarasota"
  },
  {
    "name": "Marketing by Design",
    "description": "Marketing Consultants",
    "phone": "(941) 907-6060",
    "address": " 6001 Business Blvd - Lakewood Ranch, FL 34240",
    "location": "Sarasota"
  },
  {
    "name": "Mosiac Studios Inc",
    "description": "Advertising Agencies",
    "phone": "(941) 907-9639",
    "address": " 7307 Merchant Ct - Lakewood Ranch, FL 34240",
    "location": "Sarasota"
  },
  {
    "name": "Cc Direct",
    "description": "Advertising Agencies",
    "phone": "(941) 552-6770",
    "address": " 7361 International Pl - Lakewood Ranch, FL 34240",
    "location": "Sarasota"
  },
  {
    "name": "Griffin Marketing Services",
    "description": "Marketing Consultants",
    "phone": "(941) 312-5350",
    "address": " 7357 International Pl Ste 102 - Lakewood Ranch, FL 34240",
    "location": "Sarasota"
  },
  {
    "name": "F 1 Consultations Inc",
    "description": "Advertising Agencies",
    "phone": "(941) 896-8876",
    "address": " 1077 57th Ave W - Bradenton, FL 34207",
    "location": "Sarasota"
  },
  {
    "name": "Ralph J Bloch & Associates Inc",
    "description": "Advertising Agencies",
    "phone": "(941) 306-5298",
    "address": " 7132 Dornough Ln - Bradenton, FL 34202",
    "location": "Sarasota"
  },
  {
    "name": "Island Bold Advertising",
    "description": "Advertising Agencies",
    "phone": "(833) 361-5243",
    "address": " 9232 66th Avenue Dr E - Bradenton, FL 34202",
    "location": "Sarasota"
  },
  {
    "name": "Suncheer Marketing",
    "description": "Advertising Agencies",
    "phone": "(941) 751-6376",
    "address": " 1013 47th Ave E - Bradenton, FL 34203",
    "location": "Sarasota"
  },
  {
    "name": "Fully Promoted Sarasota, FL",
    "description": "Advertising-Promotional Products",
    "phone": "(941) 966-2339",
    "address": " 2504 Tamiami Trl N - Nokomis, FL 34275",
    "location": "Sarasota"
  },
  {
    "name": "Elias Promotional Marketing, Inc.",
    "description": "Advertising-Promotional Products",
    "phone": "(941) 224-5175",
    "address": " 11523 Palmbrush Trl - Lakewood Ranch, FL 34202",
    "location": "Sarasota"
  },
  {
    "name": "SK Company",
    "description": "Advertising-Promotional Products",
    "phone": "(941) 749-7487",
    "address": " 424 12th St W - Bradenton, FL 34205",
    "location": "Sarasota"
  },
  {
    "name": "WebSearchFX",
    "description": "Advertising-Promotional Products",
    "phone": "(941) 877-0205",
    "address": " 12715 Nightshade Pl - Bradenton, FL 34202",
    "location": "Sarasota"
  },
  {
    "name": "Keeton's Office Supply Co",
    "description": "Advertising-Promotional Products",
    "phone": "(941) 747-2995",
    "address": " 817 Manatee Ave W - Bradenton, FL 34205",
    "location": "Sarasota"
  },
  {
    "name": "Image360 Bradenton",
    "description": "Advertising-Promotional Products",
    "phone": "(941) 792-4453",
    "address": " 4230 26th St W - Bradenton, FL 34205",
    "location": "Sarasota"
  },
  {
    "name": "Minuteman Press",
    "description": "Advertising-Promotional Products",
    "phone": "(941) 739-6602",
    "address": " 5103 Lena Rd Unit 107 - Bradenton, FL 34211",
    "location": "Sarasota"
  },
  {
    "name": "ProspectsPLUS!",
    "description": "Advertising-Promotional Products",
    "phone": "(941) 723-2400",
    "address": " 10510 Portal Crossing Ste 107, Lakewood Ranch Commerce Park - Bradenton, FL 34211",
    "location": "Sarasota"
  },
  {
    "name": "Straight Line Services",
    "description": "Advertising-Promotional Products",
    "phone": "(941) 746-6117",
    "address": " 1505 6th Ave W - Bradenton, FL 34205",
    "location": "Sarasota"
  },
  {
    "name": "We Are One World",
    "description": "Advertising-Promotional Products",
    "phone": "(941) 718-3258",
    "address": " 1707 1st St E - Bradenton, FL 34208",
    "location": "Sarasota"
  },
  {
    "name": "Speed King Signs",
    "description": "Signs",
    "phone": "(941) 722-7446",
    "address": " 411 7th St W Ste 2 - Palmetto, FL 34221",
    "location": "Sarasota"
  },
  {
    "name": "99 Calls",
    "description": "Internet Marketing & Advertising",
    "phone": "(800) 717-4669",
    "address": " 10930 State Road 70 E - Lakewood Ranch, FL 34202",
    "location": "Sarasota"
  },
  {
    "name": "NF Creative Solutions",
    "description": "Internet Marketing & Advertising",
    "phone": "(941) 780-0702",
    "address": " 3409 Cortez Rd W - Bradenton, FL 34210",
    "location": "Sarasota"
  },
  {
    "name": "Build Signs Online",
    "description": "Signs",
    "phone": "(941) 748-9400",
    "address": " 2854 Manatee Avenue East - Bradenton, FL 34208",
    "location": "Sarasota"
  },
  {
    "name": "Deckard & Company",
    "description": "Marketing Consultants",
    "phone": "(941) 462-4546",
    "address": " 1201 6th Ave W Ste 100 - Bradenton, FL 34205",
    "location": "Sarasota"
  },
  {
    "name": "Net Sphere",
    "description": "Advertising Agencies",
    "phone": "(941) 300-0531",
    "address": " 1201 6th Ave W - Bradenton, FL 34205",
    "location": "Sarasota"
  },
  {
    "name": "Local Digital First",
    "description": "Advertising Agencies",
    "phone": "(941) 777-7701",
    "address": " 11015 Gatewood Dr - Bradenton, FL 34211",
    "location": "Sarasota"
  },
  {
    "name": "5 For Fighting",
    "description": "Internet Marketing & Advertising",
    "phone": "(941) 744-7599",
    "address": " 8205 Haven Harbour Way - Bradenton, FL 34212",
    "location": "Sarasota"
  },
  {
    "name": "TruReach Marketing",
    "description": "Marketing Programs & Services",
    "phone": "(888) 315-4769",
    "address": " 7322 Manatee Ave W - Bradenton, FL 34209",
    "location": "Sarasota"
  },
  {
    "name": "The Waterlefe Directory",
    "description": "Advertising Agencies",
    "phone": "(941) 708-6734",
    "address": " 512 Mossy Branch Ln - Bradenton, FL 34212",
    "location": "Sarasota"
  },
  {
    "name": "Confluent Creative",
    "description": "Advertising Specialties",
    "phone": "(941) 722-0317",
    "address": " 717 Manatee Ave W Ste 100 - Bradenton, FL 34205",
    "location": "Sarasota"
  },
  {
    "name": "Ad Exact Advertising",
    "description": "Advertising Agencies",
    "phone": "(941) 777-7701",
    "address": " 11015 Gatewood Dr - Bradenton, FL 34211",
    "location": "Sarasota"
  },
  {
    "name": "Jazzy Dogs Publishing",
    "description": "Advertising Agencies",
    "phone": "(941) 726-0344",
    "address": " 204 Millet Pl - Nokomis, FL 34275",
    "location": "Sarasota"
  },
  {
    "name": "My Corner Now.Com",
    "description": "Advertising Agencies",
    "phone": "(941) 755-9600",
    "address": " 5454 Lena Rd Unit 106 - Bradenton, FL 34211",
    "location": "Sarasota"
  },
  {
    "name": "Cactus Sky Communicationss",
    "description": "Advertising Agencies",
    "phone": "(941) 756-1932",
    "address": " 5454 Lena Rd Unit 104 - Bradenton, FL 34211",
    "location": "Sarasota"
  },
  {
    "name": "Center Lane Road Striping",
    "description": "Signs",
    "phone": "(941) 753-0549",
    "address": " 4421 12th Street Ct E - Bradenton, FL 34203",
    "location": "Sarasota"
  },
  {
    "name": "Chuck Carey Design",
    "description": "Advertising Agencies",
    "phone": "(941) 870-2036",
    "address": " 11161 E State Road 70 Ste 110-123 - Lakewood Ranch, FL 34202",
    "location": "Sarasota"
  },
  {
    "name": "Budget Signs",
    "description": "Signs",
    "phone": "(941) 755-6719",
    "address": " 4537 26th St W - Bradenton, FL 34207",
    "location": "Sarasota"
  },
  {
    "name": "Iagulli Signs & Craft Pennants Manufacturing",
    "description": "Signs",
    "phone": "(941) 753-4549",
    "address": " 2404 43rd Ave W - Bradenton, FL 34205",
    "location": "Sarasota"
  },
  {
    "name": "Display Products International",
    "description": "Signs",
    "phone": "(941) 567-4047",
    "address": " 2908 29th Ave E - Bradenton, FL 34208",
    "location": "Sarasota"
  },
  {
    "name": "Lift Off Strategy & Creative",
    "description": "Advertising Agencies",
    "phone": "(941) 753-4044",
    "address": " 6539 Field Sparrow Gln - Lakewood Ranch, FL 34202",
    "location": "Sarasota"
  },
  {
    "name": "K D Marketing",
    "description": "Advertising Agencies",
    "phone": "(941) 756-0640",
    "address": " 3611 Cambridge Dr W - Bradenton, FL 34205",
    "location": "Sarasota"
  },
  {
    "name": "Beaurline Thomas Sign & Lignting",
    "description": "Advertising Specialties",
    "phone": "(941) 966-7020",
    "address": " PO Box 455 - Osprey, FL 34229",
    "location": "Sarasota"
  },
  {
    "name": "Decision Management International",
    "description": "Advertising Agencies",
    "phone": "(941) 748-8100",
    "address": " 1111 3rd St W - Bradenton, FL 34205",
    "location": "Sarasota"
  },
  {
    "name": "Jeffcoat Blueprinting",
    "description": "Blueprinting",
    "phone": "(941) 747-6499",
    "address": " 1325 Tamiami Trl - Bradenton, FL 34205",
    "location": "Sarasota"
  },
  {
    "name": "Mastovich Design",
    "description": "Animation Services",
    "phone": "(941) 730-7073",
    "address": " 3210 20th Ave W - Bradenton, FL 34205",
    "location": "Sarasota"
  },
  {
    "name": "Manatee Apparel Graphics",
    "description": "Printing Services",
    "phone": "(941) 746-6353",
    "address": " 1130 9th St W - Bradenton, FL 34205",
    "location": "Sarasota"
  },
  {
    "name": "Sport About Inc",
    "description": "Advertising Specialties",
    "phone": "(941) 730-1021",
    "address": " 6606 36th Avenue Dr W - Bradenton, FL 34209",
    "location": "Sarasota"
  },
  {
    "name": "Eruptr",
    "description": "Advertising Agencies",
    "phone": "(888) 378-7871",
    "address": " 16417 Cornwall Ln - Bradenton, FL 34202",
    "location": "Sarasota"
  },
  {
    "name": "Offercio",
    "description": "Advertising Agencies",
    "phone": "(866) 932-3250",
    "address": " 1201 6th Ave W Ste 100 - Bradenton, FL 34205",
    "location": "Sarasota"
  },
  {
    "name": "Movers Digital Marketers",
    "description": "Advertising Agencies",
    "phone": "(941) 600-7323",
    "address": " 1201 6th Ave W - Bradenton, FL 34205",
    "location": "Sarasota"
  },
  {
    "name": "Lakewood Ranch Signs and More",
    "description": "Signs",
    "phone": "(941) 251-5912",
    "address": " 2555 Lakewood Ranch Blvd - Bradenton, FL 34211",
    "location": "Sarasota"
  },
  {
    "name": "Nolan Group",
    "description": "Public Relations Counselors",
    "phone": "(941) 744-0660",
    "address": " 431 12th St W Unit 203 - Bradenton, FL 34205",
    "location": "Sarasota"
  },
  {
    "name": "Lakewood Ranch Signs & More",
    "description": "Signs",
    "phone": "(941) 251-7911",
    "address": " 10530 Portal Xing - Lakewood Ranch, FL 34211",
    "location": "Sarasota"
  },
  {
    "name": "Rossriter Marketing",
    "description": "Advertising Agencies",
    "phone": "(941) 383-2523",
    "address": " 591 Hibiscus Way - Longboat Key, FL 34228",
    "location": "Sarasota"
  },
  {
    "name": "Discount Signs and Wraps",
    "description": "Signs",
    "phone": "(941) 896-9651",
    "address": " 3322 Manatee Ave W - Bradenton, FL 34205",
    "location": "Sarasota"
  },
  {
    "name": "Bell Graphics",
    "description": "Graphic Designers",
    "phone": "(941) 792-6030",
    "address": " 10226 46th Ave W - Bradenton, FL 34210",
    "location": "Sarasota"
  },
  {
    "name": "Blue Wave Multi Media Advertising",
    "description": "Internet Consultants",
    "phone": "(800) 253-1272",
    "address": " 11523 Saw Palm Creek Trl - Bradenton, FL 34211",
    "location": "Sarasota"
  },
  {
    "name": "Jsi Worldwide Inc",
    "description": "Marketing Consultants",
    "phone": "(941) 749-5883",
    "address": " 7754 Camden Harbour Dr - Bradenton, FL 34212",
    "location": "Sarasota"
  },
  {
    "name": "The Sign Factory",
    "description": "Signs",
    "phone": "(941) 792-4830",
    "address": " 6600 Manatee Ave W - Bradenton, FL 34209",
    "location": "Sarasota"
  },
  {
    "name": "Signs 4 R Times Inc",
    "description": "Signs",
    "phone": "(941) 722-8888",
    "address": " 937 10th St E - Palmetto, FL 34221",
    "location": "Sarasota"
  },
  {
    "name": "Lipham Property Mgmt Svc Inc",
    "description": "Advertising Agencies",
    "phone": "(941) 966-2696",
    "address": " 509 Orange Blossom Ln - Nokomis, FL 34275",
    "location": "Sarasota"
  },
  {
    "name": "Ipc",
    "description": "Advertising-Promotional Products",
    "phone": "(941) 484-3622",
    "address": " 407 Jeanette Ct - Nokomis, FL 34275",
    "location": "Sarasota"
  },
  {
    "name": "AlignDESIGN",
    "description": "Print Advertising",
    "phone": "(941) 747-2051",
    "address": " 307 167th Blvd ne - Bradenton, FL 34212",
    "location": "Sarasota"
  },
  {
    "name": "Magee Sign Service Inc",
    "description": "Signs",
    "phone": "(941) 722-5391",
    "address": " 1511 20th Ave E - Palmetto, FL 34221",
    "location": "Sarasota"
  },
  {
    "name": "Ad America SEO & Web Design",
    "description": "Internet Marketing & Advertising",
    "phone": "(941) 203-3100",
    "address": " 8306 Curlew Ct. - Bradenton, FL 34202",
    "location": "Sarasota"
  },
  {
    "name": "Printavizion",
    "description": "Advertising Agencies",
    "phone": "(813) 803-5200",
    "address": " 4524 Marlin Ln - Palmetto, FL 34221",
    "location": "Sarasota"
  },
  {
    "name": "Signmasters",
    "description": "Signs",
    "phone": "(941) 484-9169",
    "address": " 580 Central Ave - Nokomis, FL 34275",
    "location": "Sarasota"
  },
  {
    "name": "CJPW Group, Inc.",
    "description": "Advertising Specialties",
    "phone": "(941) 417-7318",
    "address": " 1500 15th Avenue Dr E Unit 105 - Palmetto, FL 34221",
    "location": "Sarasota"
  },
  {
    "name": "Johnson Printing",
    "description": "Printing Services-Commercial",
    "phone": "(941) 746-4171",
    "address": " 1500 15th Avenue Dr E - Palmetto, FL 34221",
    "location": "Sarasota"
  },
  {
    "name": "R M Enterprises Limited",
    "description": "Advertising Agencies",
    "phone": "(941) 484-9989",
    "address": " 2118 Calusa Lakes Blvd - Nokomis, FL 34275",
    "location": "Sarasota"
  },
  {
    "name": "Dreamflight Designs Inc",
    "description": "Embroidery",
    "phone": "(941) 485-2892",
    "address": " 105 James St - Nokomis, FL 34275",
    "location": "Sarasota"
  },
  {
    "name": "Beach Lion Studios",
    "description": "Internet Marketing & Advertising",
    "phone": "(727) 207-1108",
    "address": " Po Box 416 - Ellenton, FL 34222",
    "location": "Sarasota"
  },
  {
    "name": "Intergroup Media Inc",
    "description": "Advertising Agencies",
    "phone": "(941) 584-4917",
    "address": " 950 Highland Cir - Nokomis, FL 34275",
    "location": "Sarasota"
  },
  {
    "name": "Blue Diamond Webs",
    "description": "Web Site Design & Services",
    "phone": "(907) 355-8883",
    "address": " 8111 Lemonwood Dr. South - Ellenton, FL 34222",
    "location": "Sarasota"
  },
  {
    "name": "Dock29 Marketing",
    "description": "Internet Marketing & Advertising",
    "phone": "(941) 776-1925",
    "address": " 3823 91st Ave E - Parrish, FL 34219",
    "location": "Sarasota"
  },
  {
    "name": "Dorsett Signs Inc",
    "description": "Advertising Specialties",
    "phone": "(941) 484-4877",
    "address": " 258 Grove St - Nokomis, FL 34275",
    "location": "Sarasota"
  },
  {
    "name": "Trafficcentral",
    "description": "Advertising Agencies",
    "phone": "(941) 485-9200",
    "address": " 603 Coquina Ct - Nokomis, FL 34275",
    "location": "Sarasota"
  },
  {
    "name": "Artisan Sign Tech",
    "description": "Advertising Specialties",
    "phone": "(941) 480-1510",
    "address": " 580 Central Ave - Nokomis, FL 34275",
    "location": "Sarasota"
  },
  {
    "name": "Bruce's Signs & Vinyl Graphics",
    "description": "Signs",
    "phone": "(941) 322-2721",
    "address": " 26920 Gopher Hill Rd - Myakka City, FL 34251",
    "location": "Sarasota"
  }
]
