[
  {
    "name": "Glomaster Sign Co. Inc.",
    "description": "Signs-Erectors & Hangers",
    "phone": "(772) 464-0718",
    "address": " 3311 Industrial 25th St - Fort Pierce, FL 34946",
    "location": "St._Lucie"
  },
  {
    "name": "Sunrise City Signs",
    "description": "Advertising Specialties",
    "phone": "(772) 466-1889",
    "address": " 9 Fishermans Wharf - Fort Pierce, FL 34950",
    "location": "St._Lucie"
  },
  {
    "name": "Thomas Stift",
    "description": "Advertising Agencies",
    "phone": "(772) 672-4314",
    "address": " 1002 Seaway Dr - Fort Pierce, FL 34949",
    "location": "St._Lucie"
  },
  {
    "name": "Giganticprints",
    "description": "Advertising Specialties",
    "phone": "(772) 224-1646",
    "address": " 2101 Orange Ave - Fort Pierce, FL 34950",
    "location": "St._Lucie"
  },
  {
    "name": "Ballylhou",
    "description": "Advertising-Promotional Products",
    "phone": "(772) 242-8484",
    "address": " 4995 Conley Pl - Fort Pierce, FL 34951",
    "location": "St._Lucie"
  },
  {
    "name": "Pirate Advertising",
    "description": "Directory & Guide Advertising",
    "phone": "(321) 300-6775",
    "address": " 131 N 2nd St Ste 208 - Fort Pierce, FL 34950",
    "location": "St._Lucie"
  },
  {
    "name": "Website Management Plus",
    "description": "Internet Consultants",
    "phone": "(772) 405-7230",
    "address": " 131 N 2nd St - Fort Pierce, FL 34950",
    "location": "St._Lucie"
  },
  {
    "name": "Media Giant Design",
    "description": "Web Site Design & Services",
    "phone": "(772) 205-3584",
    "address": " 108 N Depot Dr - Fort Pierce, FL 34950",
    "location": "St._Lucie"
  },
  {
    "name": "Angel on Assignment",
    "description": "Advertising Agencies",
    "phone": "(772) 924-0409",
    "address": " 5703 University Ln - Fort Pierce, FL 34951",
    "location": "St._Lucie"
  },
  {
    "name": "Leverage Marketing Enterprises",
    "description": "Advertising Agencies",
    "phone": "(772) 577-6467",
    "address": " 200 S Indian River Dr Ste 309 - Fort Pierce, FL 34950",
    "location": "St._Lucie"
  },
  {
    "name": "Ditch Diggers Inc",
    "description": "Advertising Agencies",
    "phone": "(772) 461-5656",
    "address": " 1501 S 31st St - Fort Pierce, FL 34947",
    "location": "St._Lucie"
  },
  {
    "name": "RPW Sales Inc",
    "description": "Advertising Agencies",
    "phone": "(772) 287-9454",
    "address": " 7370 Commercial Cir - Fort Pierce, FL 34951",
    "location": "St._Lucie"
  },
  {
    "name": "Fully Promoted Vero Beach, FL",
    "description": "Advertising-Promotional Products",
    "phone": "(772) 299-3879",
    "address": " 915 17th St - Vero Beach, FL 32960",
    "location": "St._Lucie"
  },
  {
    "name": "Advertising Promotional Innovative",
    "description": "Advertising-Promotional Products",
    "phone": "(954) 437-7591",
    "address": " 2925 Cardinal Dr Ste C - Vero Beach, FL 32963",
    "location": "St._Lucie"
  },
  {
    "name": "Classic Awards & Promotions",
    "description": "Advertising-Promotional Products",
    "phone": "(772) 569-0259",
    "address": " 1605 10th Ave - Vero Beach, FL 32960",
    "location": "St._Lucie"
  },
  {
    "name": "The Brandit Agency",
    "description": "Advertising-Promotional Products",
    "phone": "(772) 567-9177",
    "address": " 1175 19th St - Vero Beach, FL 32960",
    "location": "St._Lucie"
  },
  {
    "name": "Brandit Corporation",
    "description": "Advertising-Promotional Products",
    "phone": "(772) 567-9177",
    "address": " 1201 19th Pl - Vero Beach, FL 32960",
    "location": "St._Lucie"
  },
  {
    "name": "Wilkins Brothers",
    "description": "Advertising-Promotional Products",
    "phone": "(772) 231-1488",
    "address": " 505 Beachland Blvd - Vero Beach, FL 32963",
    "location": "St._Lucie"
  },
  {
    "name": "Minuteman Press",
    "description": "Advertising-Promotional Products",
    "phone": "(772) 567-4645",
    "address": " 983 12th St - Vero Beach, FL 32960",
    "location": "St._Lucie"
  },
  {
    "name": "SignEdge Graphics",
    "description": "Graphic Designers",
    "phone": "(772) 429-8818",
    "address": " 606 S Market Ave - Fort Pierce, FL 34982",
    "location": "St._Lucie"
  },
  {
    "name": "TAS Advertising & Integrated Communications",
    "description": "Marketing Programs & Services",
    "phone": "(772) 489-2502",
    "address": " 601 21st St Ste 300 - Vero Beach, FL 32960",
    "location": "St._Lucie"
  },
  {
    "name": "EyeLevelDigital.com",
    "description": "Transit Advertising",
    "phone": "(772) 473-8278",
    "address": " PO Box 643896 - Vero Beach, FL 32964",
    "location": "St._Lucie"
  },
  {
    "name": "Websuited",
    "description": "Advertising Agencies",
    "phone": "(772) 266-3226",
    "address": " 3259 River Dr - Fort Pierce, FL 34981",
    "location": "St._Lucie"
  },
  {
    "name": "WebSuited",
    "description": "Internet Marketing & Advertising",
    "phone": "(772) 266-3226",
    "address": " 3259 River Drive - Fort Pierce, FL 34981",
    "location": "St._Lucie"
  },
  {
    "name": "South Florida Savers",
    "description": "Directory & Guide Advertising",
    "phone": "(772) 577-8894",
    "address": " 6015 Seagrape Dr - Fort Pierce, FL 34982",
    "location": "St._Lucie"
  },
  {
    "name": "Guru Graphics",
    "description": "Graphic Designers",
    "phone": "(772) 925-3106",
    "address": " 408 Old Dixie Hwy SW - Vero Beach, FL 32962",
    "location": "St._Lucie"
  },
  {
    "name": "Signs in A Day",
    "description": "Signs",
    "phone": "(772) 562-1228",
    "address": " 652 Old Dixie Hwy - Vero Beach, FL 32962",
    "location": "St._Lucie"
  },
  {
    "name": "Brister Signs Inc",
    "description": "Signs-Erectors & Hangers",
    "phone": "(772) 562-9263",
    "address": " 1051 Old Dixie Hwy - Vero Beach, FL 32960",
    "location": "St._Lucie"
  },
  {
    "name": "The Science of Social Media",
    "description": "Advertising Agencies",
    "phone": "(772) 226-0792",
    "address": " 1595 24th Ave - Vero Beach, FL 32960",
    "location": "St._Lucie"
  },
  {
    "name": "Green Marketing",
    "description": "Internet Marketing & Advertising",
    "phone": "(772) 361-6137",
    "address": " 601 21st St - Vero Beach, FL 32960",
    "location": "St._Lucie"
  },
  {
    "name": "Moseley Outdoor Advertising",
    "description": "Transit Advertising",
    "phone": "(772) 465-5125",
    "address": " 5300 S Indian River Dr - Fort Pierce, FL 34982",
    "location": "St._Lucie"
  },
  {
    "name": "Preserve",
    "description": "Advertising Agencies",
    "phone": "(772) 978-9056",
    "address": " 2365 10th Rd SW - Vero Beach, FL 32962",
    "location": "St._Lucie"
  },
  {
    "name": "Idea Garden Advertising",
    "description": "Advertising Agencies",
    "phone": "(772) 778-2832",
    "address": " 865 16th Pl - Vero Beach, FL 32960",
    "location": "St._Lucie"
  },
  {
    "name": "Adams Media Group",
    "description": "Marketing Consultants",
    "phone": "(772) 492-6570",
    "address": " 2801 Ocean Dr Ste 204 - Vero Beach, FL 32963",
    "location": "St._Lucie"
  },
  {
    "name": "Jones & Jones Advertising",
    "description": "Advertising Agencies",
    "phone": "(772) 778-9797",
    "address": " 1015 28th St - Vero Beach, FL 32960",
    "location": "St._Lucie"
  },
  {
    "name": "Elgins Designer Trim",
    "description": "Signs",
    "phone": "(772) 466-1992",
    "address": " 3289 S Us Highway 1 - Fort Pierce, FL 34982",
    "location": "St._Lucie"
  },
  {
    "name": "We Sign It",
    "description": "Signs",
    "phone": "(772) 577-4400",
    "address": " 15838 Orange Ave - Fort Pierce, FL 34945",
    "location": "St._Lucie"
  },
  {
    "name": "Hi Tech Signs Graphics",
    "description": "Graphic Designers",
    "phone": "(772) 207-7710",
    "address": " 6795 S Us Highway 1 - Port Saint Lucie, FL 34952",
    "location": "St._Lucie"
  },
  {
    "name": "Advertise for Income Work from Home",
    "description": "Business Forms & Systems",
    "phone": "(323) 451-9675",
    "address": " 7526 S Us Highway 1 - Port Saint LUcie, FL 34952",
    "location": "St._Lucie"
  },
  {
    "name": "We Sign IT Inc",
    "description": "Advertising Specialties",
    "phone": "(772) 800-7373",
    "address": " 889 E Prima Vista Blvd - Port Saint Lucie, FL 34952",
    "location": "St._Lucie"
  },
  {
    "name": "Complete Wholesale and Supply Inc",
    "description": "Advertising Agencies",
    "phone": "(772) 204-7996",
    "address": " 575 NW Mercantile Pl - Port Saint Lucie, FL 34986",
    "location": "St._Lucie"
  },
  {
    "name": "Sandlin And Associates",
    "description": "Advertising Agencies",
    "phone": "(772) 492-7117",
    "address": " 169 Anchor Dr - Vero Beach, FL 32963",
    "location": "St._Lucie"
  },
  {
    "name": "Assured Signs",
    "description": "Advertising Specialties",
    "phone": "(772) 999-2900",
    "address": " 595 W Pointe Ct SW - Vero Beach, FL 32962",
    "location": "St._Lucie"
  },
  {
    "name": "Blueberry Creative Group",
    "description": "Web Site Hosting",
    "phone": "(772) 205-0788",
    "address": " 1571 Smugglers Cv - Vero Beach, FL 32963",
    "location": "St._Lucie"
  },
  {
    "name": "Mainstream Consulting",
    "description": "Advertising Agencies",
    "phone": "(772) 473-1043",
    "address": " 633 30th Ave SW - Vero Beach, FL 32968",
    "location": "St._Lucie"
  },
  {
    "name": "Anna Gales & Associates Inc",
    "description": "Advertising Agencies",
    "phone": "(772) 778-2984",
    "address": " 2250 4th Pl - Vero Beach, FL 32962",
    "location": "St._Lucie"
  },
  {
    "name": "Hometown News",
    "description": "Advertising Agencies",
    "phone": "(772) 465-5656",
    "address": " 1020 Old Dixie Hwy - Vero Beach, FL 32960",
    "location": "St._Lucie"
  },
  {
    "name": "Sun Media Inc",
    "description": "Advertising Agencies",
    "phone": "(772) 770-1043",
    "address": " 651 Tangelo Cir SW - Vero Beach, FL 32968",
    "location": "St._Lucie"
  },
  {
    "name": "Rdc Productions",
    "description": "Advertising Agencies",
    "phone": "(772) 226-7462",
    "address": " 1031 18th St - Vero Beach, FL 32960",
    "location": "St._Lucie"
  },
  {
    "name": "Indian River Signs & Graphics Inc",
    "description": "Signs",
    "phone": "(772) 226-7134",
    "address": " 1138 17th Pl - Vero Beach, FL 32960",
    "location": "St._Lucie"
  },
  {
    "name": "Digital Marketing Experts",
    "description": "Marketing Programs & Services",
    "phone": "(321) 594-4441",
    "address": " 601 21st St - Vero Beach, FL 32960",
    "location": "St._Lucie"
  },
  {
    "name": "Privatecommunities.com",
    "description": "Advertising Agencies",
    "phone": "(772) 234-0434",
    "address": " 601 21st St - Vero Beach, FL 32960",
    "location": "St._Lucie"
  },
  {
    "name": "FASTSIGNS",
    "description": "Signs",
    "phone": "(772) 774-7554",
    "address": " 1925 14th Ave - Vero Beach, FL 32960",
    "location": "St._Lucie"
  },
  {
    "name": "Business Benefit Consultants",
    "description": "Advertising Agencies",
    "phone": "(772) 562-9321",
    "address": " 80 Royal Palm Pt - Vero Beach, FL 32960",
    "location": "St._Lucie"
  },
  {
    "name": "Management Advisory Consultants",
    "description": "Advertising Agencies",
    "phone": "(772) 460-1777",
    "address": " 2345 14th Ave - Vero Beach, FL 32960",
    "location": "St._Lucie"
  },
  {
    "name": "Squared Studios",
    "description": "Advertising Agencies",
    "phone": "(772) 713-6884",
    "address": " PO Box 643873 - Vero Beach, FL 32964",
    "location": "St._Lucie"
  },
  {
    "name": "Strategic Impact Inc",
    "description": "Advertising Agencies",
    "phone": "(772) 299-7878",
    "address": " 1550 53rd Ave - Vero Beach, FL 32966",
    "location": "St._Lucie"
  },
  {
    "name": "Dawn Dearrastia",
    "description": "Advertising Agencies",
    "phone": "(772) 257-5032",
    "address": " 1535 56th Sq E - Vero Beach, FL 32966",
    "location": "St._Lucie"
  },
  {
    "name": "Sound Expressions LLC",
    "description": "Advertising-Promotional Products",
    "phone": "(484) 769-5250",
    "address": " 1220 SW Paradise Cv - Port Saint Lucie, FL 34986",
    "location": "St._Lucie"
  },
  {
    "name": "Pers Collection Promotional Products Distributor",
    "description": "Advertising-Promotional Products",
    "phone": "(772) 925-5027",
    "address": " 3105 Ashford Sq - Vero Beach, FL 32966",
    "location": "St._Lucie"
  },
  {
    "name": "Image360 - Vero Beach",
    "description": "Advertising-Promotional Products",
    "phone": "(772) 567-3000",
    "address": " 3300 43rd Ave - Vero Beach, FL 32960",
    "location": "St._Lucie"
  },
  {
    "name": "Special Touch Graphics",
    "description": "Advertising-Promotional Products",
    "phone": "(772) 410-4959",
    "address": " PO Box 7103 - Port Saint Lucie, FL 34985",
    "location": "St._Lucie"
  },
  {
    "name": "WebMediaFX",
    "description": "Internet Marketing & Advertising",
    "phone": "(772) 340-6069",
    "address": " 1131 SW Forest Hill Cv - Port Saint Lucie, FL 34986",
    "location": "St._Lucie"
  },
  {
    "name": "LinkBlaze Marketing",
    "description": "Internet Directories",
    "phone": "(888) 255-9315",
    "address": " 8433 S Us Highway 1 Ste 4 - Port Saint Lucie, FL 34952",
    "location": "St._Lucie"
  },
  {
    "name": "TCoast Studios",
    "description": "Advertising Agencies",
    "phone": "(772) 245-3036",
    "address": " 540 NW University Blvd Ste 202 - Port St Lucie, FL 34986",
    "location": "St._Lucie"
  },
  {
    "name": "Falco Discount Printing",
    "description": "Print Advertising",
    "phone": "(877) 774-6801",
    "address": " 8024 Meadowlark Ln - Port Saint Lucie, FL 34952",
    "location": "St._Lucie"
  },
  {
    "name": "Mousekey Design",
    "description": "Advertising Specialties",
    "phone": "(678) 936-5116",
    "address": " 1093 SE Sandia Dr - Port Saint Lucie, FL 34983",
    "location": "St._Lucie"
  },
  {
    "name": "Effectv",
    "description": "Advertising Agencies",
    "phone": "(888) 877-9799",
    "address": " 1850 SW Fountainview Blvd Ste 102 - Port Saint Lucie, FL 34986",
    "location": "St._Lucie"
  },
  {
    "name": "Valpak",
    "description": "Advertising Agencies",
    "phone": "(772) 224-6922",
    "address": " 5976 20th St # 131 - Vero Beach, FL 32966",
    "location": "St._Lucie"
  },
  {
    "name": "Signs of the Times Ventures",
    "description": "Signs",
    "phone": "(772) 873-5170",
    "address": " 8291 S Us Highway 1 - Port Saint Lucie, FL 34952",
    "location": "St._Lucie"
  },
  {
    "name": "Mobile Graphics",
    "description": "Graphic Designers",
    "phone": "(772) 207-7379",
    "address": " 8291 S Us Highway 1 - Port Saint Lucie, FL 34952",
    "location": "St._Lucie"
  },
  {
    "name": "Our Hometown Advertising",
    "description": "Advertising Specialties",
    "phone": "(772) 785-9558",
    "address": " 105 SE Castana Ct - Port Saint Lucie, FL 34983",
    "location": "St._Lucie"
  },
  {
    "name": "Ronda M",
    "description": "Advertising Agencies",
    "phone": "(646) 296-3387",
    "address": " 1391 NW Saint Lucie West Blvd - Port Saint Lucie, FL 34986",
    "location": "St._Lucie"
  },
  {
    "name": "Fine Furniture Restauracion",
    "description": "Advertising Agencies",
    "phone": "(772) 873-4691",
    "address": " 822 SW Carmelite St - Port Saint Lucie, FL 34983",
    "location": "St._Lucie"
  },
  {
    "name": "JHV Management Inc",
    "description": "Advertising Agencies",
    "phone": "(772) 466-8876",
    "address": " 7964 Saddlebrook Dr - Port Saint Lucie, FL 34986",
    "location": "St._Lucie"
  },
  {
    "name": "Kool Stuff",
    "description": "Advertising Specialties",
    "phone": "(772) 794-1706",
    "address": " 5967 20th St # 257 - Vero Beach, FL 32966",
    "location": "St._Lucie"
  },
  {
    "name": "VB Custom Signs Inc",
    "description": "Advertising Specialties",
    "phone": "(772) 257-5831",
    "address": " 2458 57th Cir - Vero Beach, FL 32966",
    "location": "St._Lucie"
  },
  {
    "name": "Columbus & Cook LTD",
    "description": "Advertising Agencies",
    "phone": "(772) 770-1544",
    "address": " 4412 Us Highway 1 - Vero Beach, FL 32967",
    "location": "St._Lucie"
  },
  {
    "name": "Mindayz",
    "description": "Advertising Agencies",
    "phone": "(772) 538-3733",
    "address": " 8535 24th St - Vero Beach, FL 32966",
    "location": "St._Lucie"
  },
  {
    "name": "Inside Track Almanac",
    "description": "Advertising Specialties",
    "phone": "(772) 999-3362",
    "address": " 4185 70th Ave - Vero Beach, FL 32967",
    "location": "St._Lucie"
  },
  {
    "name": "Morrow Enterprises",
    "description": "Advertising-Promotional Products",
    "phone": "(772) 257-3300",
    "address": " 112 130th Ave - Vero Beach, FL 32968",
    "location": "St._Lucie"
  }
]
