[
  {
    "name": "Label Seven Apparel",
    "description": "Advertising-Promotional Products",
    "phone": "(689) 208-8417",
    "address": " 1243 Commons Ct - Clermont, FL 34711",
    "location": "Sumter"
  },
  {
    "name": "Coleman Design Service",
    "description": "Advertising-Promotional Products",
    "phone": "(407) 399-7378",
    "address": " P O Box 618174 - Orlando, FL 32861",
    "location": "Sumter"
  },
  {
    "name": "Central Florida Travel",
    "description": "Advertising-Promotional Products",
    "phone": "(407) 494-0595",
    "address": " 4327 S Highway 27 PMB 184 - Clermont, FL 34711",
    "location": "Sumter"
  },
  {
    "name": "Graphix Solutions",
    "description": "Advertising-Promotional Products",
    "phone": "(407) 234-7271",
    "address": " 2478 Lake Debra Dr - orlando, FL 32835",
    "location": "Sumter"
  },
  {
    "name": "Economical Quality Products",
    "description": "Advertising-Promotional Products",
    "phone": "(407) 497-1351",
    "address": " 738 Business Park Blvd - Winter Garden, FL 34787",
    "location": "Sumter"
  },
  {
    "name": "Proforma Platinum Impressions",
    "description": "Advertising-Promotional Products",
    "phone": "(407) 877-9186",
    "address": " 6982 Swinscoe Ln - Windermere, FL 34786",
    "location": "Sumter"
  },
  {
    "name": "Miracle's Digital Promise",
    "description": "Advertising-Promotional Products",
    "phone": "(407) 968-5966",
    "address": " 3100 Old Winter Garden Rd - Ocoee, FL 34761",
    "location": "Sumter"
  },
  {
    "name": "Speciatly Incentives- Florida",
    "description": "Advertising-Promotional Products",
    "phone": "(904) 253-5128",
    "address": " 1316 Westmeath Ct - Apopka, FL 32703",
    "location": "Sumter"
  },
  {
    "name": "DeHarris Advertising & Promotions",
    "description": "Advertising-Promotional Products",
    "phone": "(407) 202-2370",
    "address": " 934 S Central Ave - Apopka, FL 32703",
    "location": "Sumter"
  },
  {
    "name": "A1 Balloon",
    "description": "Advertising-Promotional Products",
    "phone": "(407) 354-2300",
    "address": " 2773 N Apopka Vineland Rd - Orlando, FL 32818",
    "location": "Sumter"
  },
  {
    "name": "Trump Auto Promotions",
    "description": "Advertising-Promotional Products",
    "phone": "(407) 203-0854",
    "address": " 7065 Westpointe Blvd Ste 319 - Orlando, FL 32835",
    "location": "Sumter"
  },
  {
    "name": "Vision and Designs Central Florida Signs",
    "description": "Advertising-Promotional Products",
    "phone": "(305) 349-3597",
    "address": " 6644 Old Winter Garden Rd - Orlando, FL 32835",
    "location": "Sumter"
  },
  {
    "name": "South Lake Quick Print",
    "description": "Advertising-Promotional Products",
    "phone": "(352) 243-2265",
    "address": " 331 N Highway 27 - Clermont, FL 34711",
    "location": "Sumter"
  },
  {
    "name": "Minuteman Press",
    "description": "Advertising-Promotional Products",
    "phone": "(352) 394-7770",
    "address": " 304 Mohawk Rd - Minneola, FL 34715",
    "location": "Sumter"
  },
  {
    "name": "Wicked Motosports",
    "description": "Advertising-Promotional Products",
    "phone": "(352) 989-5922",
    "address": " 1516 Max Hooks Rd Ste J - Groveland, FL 34736",
    "location": "Sumter"
  },
  {
    "name": "Burnt Toast Productions",
    "description": "Advertising-Promotional Products",
    "phone": "(208) 477-6667",
    "address": " 4548 Barrister Dr - Clermont, FL 34711",
    "location": "Sumter"
  },
  {
    "name": "Reaching Our Destiny, Inc",
    "description": "Advertising-Promotional Products",
    "phone": "(407) 603-5387",
    "address": " 13162 Social Ln - Winter Garden, FL 34787",
    "location": "Sumter"
  },
  {
    "name": "AD & Expressions",
    "description": "Advertising-Promotional Products",
    "phone": "(407) 579-8753",
    "address": " 600 Cagan Park Ave - Clermont, FL 34714",
    "location": "Sumter"
  },
  {
    "name": "Tshirt Society Group",
    "description": "Advertising-Promotional Products",
    "phone": "(407) 404-1299",
    "address": " 979 Almond Tree Cir - Orlando, FL 32835",
    "location": "Sumter"
  },
  {
    "name": "CreoleBiz.com",
    "description": "Advertising-Promotional Products",
    "phone": "(407) 949-2590",
    "address": " 581 N Park Ave Unit 952 - Apopka, FL 32704",
    "location": "Sumter"
  },
  {
    "name": "Kreative Koncepts",
    "description": "Advertising-Promotional Products",
    "phone": "(407) 889-8200",
    "address": " 746 Primrose Willow Way - Apopka, FL 32712",
    "location": "Sumter"
  },
  {
    "name": "Skillful Antics Web & Seo",
    "description": "Web Site Design & Services",
    "phone": "(352) 516-2649",
    "address": " 141 N Highway 27 - Clermont, FL 34711",
    "location": "Sumter"
  },
  {
    "name": "Graphics Direct Inc",
    "description": "Signs",
    "phone": "(352) 432-3996",
    "address": " 552 S Highway 27 Ste B - Minneola, FL 34715",
    "location": "Sumter"
  },
  {
    "name": "Affordable Sings",
    "description": "Signs",
    "phone": "(352) 241-7645",
    "address": " 192 W Highway 50 - Clermont, FL 34711",
    "location": "Sumter"
  },
  {
    "name": "Red Giant Entertainment Inc",
    "description": "Product Design, Development & Marketing",
    "phone": "(866) 926-6427",
    "address": " 614 E Highway 50 # 235 - Clermont, FL 34711",
    "location": "Sumter"
  },
  {
    "name": "Kyle Promotions",
    "description": "Advertising Specialties",
    "phone": "(352) 394-5493",
    "address": " 748 Lake Ave - Clermont, FL 34711",
    "location": "Sumter"
  },
  {
    "name": "Appletree Ink",
    "description": "Copying & Duplicating Service",
    "phone": "(352) 243-1066",
    "address": " 761 W Montrose St - Clermont, FL 34711",
    "location": "Sumter"
  },
  {
    "name": "Sales Bait - Print, Promotion, Marketing",
    "description": "Marketing Programs & Services",
    "phone": "(321) 356-5471",
    "address": " We ship EVERYWHERE - Longwood, FL 32750",
    "location": "Sumter"
  },
  {
    "name": "Vital Signs Physicians",
    "description": "Advertising Specialties",
    "phone": "(407) 846-0202",
    "address": " 1504 Village Oak Ln - Kissimmee, FL 34746",
    "location": "Sumter"
  },
  {
    "name": "Nia Riddle",
    "description": "Marketing Programs & Services",
    "phone": "(407) 283-7805",
    "address": " 3518 W Bind St. - Kissimmee, FL 34741",
    "location": "Sumter"
  },
  {
    "name": "Lighthouse Address Systems Inc",
    "description": "Signs",
    "phone": "(352) 243-4788",
    "address": " 12538 Katherine Cir - Clermont, FL 34711",
    "location": "Sumter"
  },
  {
    "name": "Hughes Dralene",
    "description": "Advertising Agencies",
    "phone": "(407) 469-2155",
    "address": " 15935 Willo Pines Ln - Montverde, FL 34756",
    "location": "Sumter"
  },
  {
    "name": "Market VINE inc",
    "description": "Marketing Programs & Services",
    "phone": "(352) 708-4922",
    "address": " 1502 Max Hooks Rd Ste C - Groveland, FL 34736",
    "location": "Sumter"
  },
  {
    "name": "500 Web Design",
    "description": "Advertising Agencies",
    "phone": "(352) 353-8480",
    "address": " 1502 Max Hooks Rd Ste C - Groveland, FL 34736",
    "location": "Sumter"
  },
  {
    "name": "Selzlers Installation",
    "description": "Advertising Agencies",
    "phone": "(352) 242-2465",
    "address": " 11406 Beggs Ct - Clermont, FL 34711",
    "location": "Sumter"
  },
  {
    "name": "D & P Advertising",
    "description": "Advertising Agencies",
    "phone": "(352) 429-9983",
    "address": " 16540 Lake Stewart Dr - Groveland, FL 34736",
    "location": "Sumter"
  },
  {
    "name": "Sign Eddie",
    "description": "Advertising Specialties",
    "phone": "(352) 557-4265",
    "address": " 1133 Bluegrass Dr - Groveland, FL 34736",
    "location": "Sumter"
  },
  {
    "name": "Graphix Wizard Inc",
    "description": "Lithographers",
    "phone": "(407) 656-9742",
    "address": " 308 Valencia Ct - Winter Garden, FL 34787",
    "location": "Sumter"
  },
  {
    "name": "Vidaroo Corp",
    "description": "Advertising Agencies",
    "phone": "(321) 293-3360",
    "address": " 8 N Highland Ave - Winter Garden, FL 34787",
    "location": "Sumter"
  },
  {
    "name": "My Website Spot - Winter Garden Web Design & SEO",
    "description": "Web Site Design & Services",
    "phone": "(407) 499-4008",
    "address": " 2968 Irish Peach Dr - Winter Garden, FL 34787",
    "location": "Sumter"
  },
  {
    "name": "My Website Spot-Custom Tailored Web Design",
    "description": "Web Site Design & Services",
    "phone": "(407) 499-4008",
    "address": " 2968 Irish Peach Dr - Winter Garden, FL 34787",
    "location": "Sumter"
  },
  {
    "name": "Jose Aldamuy Advertising",
    "description": "Advertising Agencies",
    "phone": "(407) 877-8451",
    "address": " 102 W Story Rd - Winter Garden, FL 34787",
    "location": "Sumter"
  },
  {
    "name": "Plan A Pr Marketing Inc",
    "description": "Marketing Consultants",
    "phone": "(407) 905-0608",
    "address": " 132 W Plant St - Winter Garden, FL 34787",
    "location": "Sumter"
  },
  {
    "name": "Anonymous Productions",
    "description": "Advertising Agencies",
    "phone": "(407) 654-9090",
    "address": " 130 S Main St - Winter Garden, FL 34787",
    "location": "Sumter"
  },
  {
    "name": "Valpak of Central Florida",
    "description": "Advertising Agencies",
    "phone": "(407) 973-7357",
    "address": " 14027 Hampshire Bay Cir - Winter Garden, FL 34787",
    "location": "Sumter"
  },
  {
    "name": "Central Graphics",
    "description": "Signs",
    "phone": "(407) 877-4781",
    "address": " 417 S Dillard St - Winter Garden, FL 34787",
    "location": "Sumter"
  },
  {
    "name": "Alarie Design Associates Inc",
    "description": "Graphic Designers",
    "phone": "(407) 656-8879",
    "address": " 260 E Plant St - Winter Garden, FL 34787",
    "location": "Sumter"
  },
  {
    "name": "Sign Wave",
    "description": "Signs",
    "phone": "(407) 614-5913",
    "address": " 537 S Dillard St - Winter Garden, FL 34787",
    "location": "Sumter"
  },
  {
    "name": "West Orange Times",
    "description": "Advertising Specialties",
    "phone": "(407) 656-2121",
    "address": " 720 S Dillard St - Winter Garden, FL 34787",
    "location": "Sumter"
  },
  {
    "name": "Freebie Wallet Inc",
    "description": "Advertising Agencies",
    "phone": "(407) 877-7008",
    "address": " 13350 W Colonial Dr - Winter Garden, FL 34787",
    "location": "Sumter"
  },
  {
    "name": "Cypress Signs Inc",
    "description": "Signs",
    "phone": "(407) 654-4316",
    "address": " 13340 W Colonial Dr - Winter Garden, FL 34787",
    "location": "Sumter"
  },
  {
    "name": "Detorres Group",
    "description": "Advertising Agencies",
    "phone": "(877) 700-1592",
    "address": " 13340 W Colonial Dr - Winter Garden, FL 34787",
    "location": "Sumter"
  },
  {
    "name": "Em Agency",
    "description": "Advertising Agencies",
    "phone": "(407) 573-6061",
    "address": " 855 E Plant St - Winter Garden, FL 34787",
    "location": "Sumter"
  },
  {
    "name": "Fourcolor.net",
    "description": "Printing Services-Commercial",
    "phone": "(407) 877-7222",
    "address": " 1308 Vic Kay Ct - Winter Garden, FL 34787",
    "location": "Sumter"
  },
  {
    "name": "Daily Graphics and Design",
    "description": "Graphic Designers",
    "phone": "(407) 877-7222",
    "address": " Po Box 770430 - Winter Garden, FL 34777",
    "location": "Sumter"
  },
  {
    "name": "Central Florida Signpros",
    "description": "Embroidery",
    "phone": "(407) 656-7699",
    "address": " 13028 W Colonial Dr - Winter Garden, FL 34787",
    "location": "Sumter"
  },
  {
    "name": "The Apopka Chief",
    "description": "Advertising Specialties",
    "phone": "(407) 886-2777",
    "address": " 400 N Park Ave - Apopka, FL 32712",
    "location": "Sumter"
  },
  {
    "name": "Inspire Visual",
    "description": "Web Site Design & Services",
    "phone": "(407) 476-1950",
    "address": " 1100 Us Highway 27 # 6774 - Clermont, FL 34713",
    "location": "Sumter"
  },
  {
    "name": "Terpexpo",
    "description": "Advertising Specialties",
    "phone": "(407) 329-3677",
    "address": " 17105 Cypresswood Way - Clermont, FL 34714",
    "location": "Sumter"
  },
  {
    "name": "Central Florida Graphic Design",
    "description": "Computer Graphics",
    "phone": "(321) 439-1356",
    "address": " 16744 Cagan Crossings Blvd - Clermont, FL 34714",
    "location": "Sumter"
  },
  {
    "name": "Enterprise Integration Solutions",
    "description": "Advertising Agencies",
    "phone": "(407) 905-9536",
    "address": " 2130 Tall Oak Dr - Winter Garden, FL 34787",
    "location": "Sumter"
  },
  {
    "name": "Big Daddy's Signs",
    "description": "Signs",
    "phone": "(407) 347-5965",
    "address": " 1319 Green Forest Ct - Winter Garden, FL 34787",
    "location": "Sumter"
  },
  {
    "name": "J M Design",
    "description": "Graphic Designers",
    "phone": "(407) 654-9007",
    "address": " 370 Blue Stone Cir - Winter Garden, FL 34787",
    "location": "Sumter"
  },
  {
    "name": "FPIS Brochure Distribution",
    "description": "Advertising Specialties",
    "phone": "(407) 656-8818",
    "address": " 220 Story Rd - Ocoee, FL 34761",
    "location": "Sumter"
  },
  {
    "name": "I and J Signs and Awnings Inc",
    "description": "Signs",
    "phone": "(407) 378-2054",
    "address": " 844 Maguire Rd - Ocoee, FL 34761",
    "location": "Sumter"
  },
  {
    "name": "The Sign Factory",
    "description": "Signs",
    "phone": "(407) 656-7986",
    "address": " 711 S Bluford Ave - Ocoee, FL 34761",
    "location": "Sumter"
  },
  {
    "name": "Nicholas Prowse",
    "description": "Advertising Specialties",
    "phone": "(973) 886-7138",
    "address": " 2476 Sweet Viburnum Way - Ocoee, FL 34761",
    "location": "Sumter"
  },
  {
    "name": "Trighton Interactive",
    "description": "Web Site Design & Services",
    "phone": "(407) 440-2972",
    "address": " 2582 Maguire Rd # 417 - Ocoee, FL 34761",
    "location": "Sumter"
  },
  {
    "name": "Ashland",
    "description": "Advertising Agencies",
    "phone": "(407) 876-0045",
    "address": " 2042 Maguire Rd - Windermere, FL 34786",
    "location": "Sumter"
  },
  {
    "name": "Prince Michael",
    "description": "Advertising Agencies",
    "phone": "(407) 347-7887",
    "address": " 7749 Jailene Dr - Windermere, FL 34786",
    "location": "Sumter"
  },
  {
    "name": "Diggersleather",
    "description": "Advertising Agencies",
    "phone": "(407) 367-8874",
    "address": " 1612 Blackwood Ave - Gotha, FL 34734",
    "location": "Sumter"
  },
  {
    "name": "Amy Jones Creative Pro",
    "description": "Advertising Agencies",
    "phone": "(407) 466-6852",
    "address": " 3460 Crystal St - Gotha, FL 34734",
    "location": "Sumter"
  },
  {
    "name": "Best Read Guide",
    "description": "Directory & Guide Advertising",
    "phone": "(407) 654-0220",
    "address": " 33 Main St - Windermere, FL 34786",
    "location": "Sumter"
  },
  {
    "name": "Shiver Outdoor Advertising",
    "description": "Transit Advertising",
    "phone": "(407) 889-7734",
    "address": " 3367 N Washington St - Zellwood, FL 32798",
    "location": "Sumter"
  },
  {
    "name": "Maranatha Motors",
    "description": "Advertising Agencies",
    "phone": "(352) 735-2565",
    "address": " 4275 N Orange Blossom Trl - Mount Dora, FL 32757",
    "location": "Sumter"
  },
  {
    "name": "Guru Design",
    "description": "Web Site Design & Services",
    "phone": "(407) 616-7646",
    "address": " 6757 Sadler Rd - Mount Dora, FL 32757",
    "location": "Sumter"
  },
  {
    "name": "HI4OC",
    "description": "Direct Mail Advertising",
    "phone": "(407) 287-6129",
    "address": " PO Box 1022 - Gotha, FL 34734",
    "location": "Sumter"
  },
  {
    "name": "Prodigy Launch",
    "description": "Advertising Agencies",
    "phone": "(540) 404-1572",
    "address": " 10631 Village Lake Rd - Windermere, FL 34786",
    "location": "Sumter"
  },
  {
    "name": "Alan D Kennedy & Associates",
    "description": "Advertising Agencies",
    "phone": "(407) 876-2128",
    "address": " 9807 Walzer Ct - Windermere, FL 34786",
    "location": "Sumter"
  },
  {
    "name": "Equity Source Consultants Inc",
    "description": "Advertising Agencies",
    "phone": "(407) 522-9664",
    "address": " 1902 Reed Hill Dr - Windermere, FL 34786",
    "location": "Sumter"
  },
  {
    "name": "Sunshine Print Signs",
    "description": "Signs-Maintenance & Repair",
    "phone": "(407) 757-0834",
    "address": " 8991 W Colonial Dr - Ocoee, FL 34761",
    "location": "Sumter"
  },
  {
    "name": "Forte Models",
    "description": "Advertising Agencies",
    "phone": "(407) 744-5451",
    "address": " 380 Hawthorne Hills Pl - Orlando, FL 32835",
    "location": "Sumter"
  },
  {
    "name": "GSK Consulting",
    "description": "Directory & Guide Advertising",
    "phone": "(813) 431-1278",
    "address": " 1713 Westover Reserve Blvd - Windermere, FL 34786",
    "location": "Sumter"
  },
  {
    "name": "Nationwide Marketing and Advertising",
    "description": "Advertising Agencies",
    "phone": "(407) 814-3929",
    "address": " 1077 W Orange Blossom Trl - Apopka, FL 32712",
    "location": "Sumter"
  },
  {
    "name": "TodaysLocalBusiness.com",
    "description": "Internet Marketing & Advertising",
    "phone": "(386) 337-2816",
    "address": " 9311 Woodbreeze Blvd - Windermere, FL 34786",
    "location": "Sumter"
  },
  {
    "name": "More Commerce, Inc.",
    "description": "Marketing Consultants",
    "phone": "(407) 505-5588",
    "address": " 1168 Woodman Way - Orlando, FL 32818",
    "location": "Sumter"
  },
  {
    "name": "Rcp Advertising & Marketing Inc",
    "description": "Advertising Agencies",
    "phone": "(407) 578-5955",
    "address": " 7849 Saint Andrews Cir - Orlando, FL 32835",
    "location": "Sumter"
  },
  {
    "name": "Stahl Beizen",
    "description": "Radio Station Equipment",
    "phone": "(407) 610-0991",
    "address": " 3409 Dragoon Pl - Orlando, FL 32818",
    "location": "Sumter"
  },
  {
    "name": "TAG Digital Marketing",
    "description": "Marketing Programs & Services",
    "phone": "(407) 398-6629",
    "address": " 4705 S Apopka Vineland Rd Ste 130 - Orlando, FL 32819",
    "location": "Sumter"
  },
  {
    "name": "Kim Parrish Creative Services",
    "description": "Advertising Specialties",
    "phone": "(407) 880-0201",
    "address": " 314 S Central Ave - Apopka, FL 32703",
    "location": "Sumter"
  },
  {
    "name": "Parrish Sena Group",
    "description": "Advertising Agencies",
    "phone": "(407) 880-0208",
    "address": " 314 S Central Ave - Apopka, FL 32703",
    "location": "Sumter"
  },
  {
    "name": "Web Science",
    "description": "Internet Marketing & Advertising",
    "phone": "(407) 473-4039",
    "address": " 509 S Park Ave - Apopka, FL 32703",
    "location": "Sumter"
  },
  {
    "name": "Local Phone Book",
    "description": "Directory & Guide Advertising",
    "phone": "(407) 884-0199",
    "address": " 54 E 2nd St - Apopka, FL 32703",
    "location": "Sumter"
  },
  {
    "name": "Central Florida Sign Installers",
    "description": "Advertising Agencies",
    "phone": "(407) 880-7446",
    "address": " 54 E 2nd St - Apopka, FL 32703",
    "location": "Sumter"
  },
  {
    "name": "Grand Design Advertising Inc",
    "description": "Advertising Agencies",
    "phone": "(407) 599-0759",
    "address": " 7516 Old Winter Garden Rd - Orlando, FL 32835",
    "location": "Sumter"
  },
  {
    "name": "FASTSIGNS",
    "description": "Signs",
    "phone": "(407) 770-1500",
    "address": " 7154 W Colonial Dr - Orlando, FL 32818",
    "location": "Sumter"
  },
  {
    "name": "Aox Leads",
    "description": "Advertising Agencies",
    "phone": "(854) 269-5323",
    "address": " 7651 Ashley Park Ct - Orlando, FL 32835",
    "location": "Sumter"
  },
  {
    "name": "watergraphics",
    "description": "Marketing Programs & Services",
    "phone": "(407) 913-6379",
    "address": " 5036 Dr Phillips Blvd - Orlando, FL 32819",
    "location": "Sumter"
  },
  {
    "name": "Think Agency",
    "description": "Advertising Agencies",
    "phone": "(407) 875-1999",
    "address": " 5036 Dr Phillips Blvd - Orlando, FL 32819",
    "location": "Sumter"
  },
  {
    "name": "Creative Signs Inc",
    "description": "Advertising Specialties",
    "phone": "(407) 293-9393",
    "address": " 2301 S Hiawassee Rd - Orlando, FL 32835",
    "location": "Sumter"
  },
  {
    "name": "Sewing Studio Fabric Superstore",
    "description": "Quilting Machines",
    "phone": "(407) 910-2761",
    "address": " 9605 S Us Highway 17/92 - Maitland, FL 32751",
    "location": "Sumter"
  },
  {
    "name": "Reputation Savior Inc",
    "description": "Advertising Agencies",
    "phone": "(800) 826-1372",
    "address": " 1706 E Semoran Blvd Ste 112 - Apopka, FL 32703",
    "location": "Sumter"
  },
  {
    "name": "Reputation Savior",
    "description": "Advertising Agencies",
    "phone": "(407) 464-0036",
    "address": " 1661 Votaw Rd - Apopka, FL 32703",
    "location": "Sumter"
  }
]
