[
  {
    "name": "Premiums Promotions & Imports",
    "description": "Advertising-Promotional Products",
    "phone": "(386) 258-1900",
    "address": " 2441 Bellevue Ave - Daytona Beach, FL 32114",
    "location": "Volusia"
  },
  {
    "name": "V.I.P. Printing & Promotional Product",
    "description": "Advertising-Promotional Products",
    "phone": "(386) 258-3326",
    "address": " 133 W. Intl. Speedway Blvd - Daytona Beach, FL 32114",
    "location": "Volusia"
  },
  {
    "name": "Inform Print & Promotions",
    "description": "Advertising-Promotional Products",
    "phone": "(386) 252-5766",
    "address": " 1209 S Ridgewood Ave - Daytona Beach, FL 32114",
    "location": "Volusia"
  },
  {
    "name": "Premiums Promotions and Imports",
    "description": "Advertising-Promotional Products",
    "phone": "(386) 258-1900",
    "address": " 952 Big Tree Rd - South Daytona, FL 32119",
    "location": "Volusia"
  },
  {
    "name": "Cruising International",
    "description": "Advertising-Promotional Products",
    "phone": "(386) 254-8753",
    "address": " 115 Mason Ave - Daytona Beach, FL 32117",
    "location": "Volusia"
  },
  {
    "name": "Added Incentives",
    "description": "Advertising-Promotional Products",
    "phone": "(386) 492-9231",
    "address": " 302 Daytona Ave - Daytona Beach, FL 32117",
    "location": "Volusia"
  },
  {
    "name": "Eternal Brandings, Inc",
    "description": "Advertising-Promotional Products",
    "phone": "(386) 214-0267",
    "address": " 231 7th St Unit 250802 - Daytona Beach, FL 32125",
    "location": "Volusia"
  },
  {
    "name": "Ocean Promotions International",
    "description": "Advertising-Promotional Products",
    "phone": "(386) 673-0730",
    "address": " 935 Carswell Ave - Holly Hill, FL 32117",
    "location": "Volusia"
  },
  {
    "name": "American Image Marketing",
    "description": "Advertising-Promotional Products",
    "phone": "(386) 492-5945",
    "address": " 705 Samms Ave - Port Orange, FL 32129",
    "location": "Volusia"
  },
  {
    "name": "Internet Entrepreneur",
    "description": "Advertising-Promotional Products",
    "phone": "(386) 679-2641",
    "address": " 90 Springer Ct - Ormond Beach, FL 32174",
    "location": "Volusia"
  },
  {
    "name": "Eurosport Daytona Inc",
    "description": "Advertising-Promotional Products",
    "phone": "(386) 672-7199",
    "address": " 355 Tomoka Ave - Ormond Beach, FL 32174",
    "location": "Volusia"
  },
  {
    "name": "Promotion Store LLC",
    "description": "Advertising-Promotional Products",
    "phone": "(386) 585-9600",
    "address": " 880 Airport Rd Ste 111 - Ormond Beach, FL 32174",
    "location": "Volusia"
  },
  {
    "name": "Beach Club Promotions Inc",
    "description": "Advertising-Promotional Products",
    "phone": "(386) 673-0073",
    "address": " 115 Business Center Dr - Ormond Beach, FL 32174",
    "location": "Volusia"
  },
  {
    "name": "On Wax Dup Signs & Print",
    "description": "Advertising-Promotional Products",
    "phone": "(386) 873-2919",
    "address": " 1720 Palm Ave - Deland, FL 32724",
    "location": "Volusia"
  },
  {
    "name": "Colorcards2go Inc.",
    "description": "Advertising-Promotional Products",
    "phone": "(386) 271-2278",
    "address": " 1808 Concept Ct - Daytona Beach, FL 32114",
    "location": "Volusia"
  },
  {
    "name": "Alan & Bob McGarity Advertising",
    "description": "Advertising-Promotional Products",
    "phone": "(386) 252-6655",
    "address": " 401 Skyview Ln - Daytona Beach, FL 32114",
    "location": "Volusia"
  },
  {
    "name": "Ubik Promotional, LLC",
    "description": "Advertising-Promotional Products",
    "phone": "(386) 868-4243",
    "address": " 1220 Woodbridge Cir S - Daytona Beach, FL 32119",
    "location": "Volusia"
  },
  {
    "name": "Coastline Advertising Specialties",
    "description": "Advertising-Promotional Products",
    "phone": "(386) 238-7703",
    "address": " 370 N Nova Rd - Daytona Beach, FL 32114",
    "location": "Volusia"
  },
  {
    "name": "Speedway Press",
    "description": "Advertising-Promotional Products",
    "phone": "(386) 255-1565",
    "address": " 705 W International Speedway Blvd - Daytona Beach, FL 32114",
    "location": "Volusia"
  },
  {
    "name": "ColorCards2Go, Inc",
    "description": "Advertising-Promotional Products",
    "phone": "(386) 271-2278",
    "address": " 1440 N Nova Rd - Daytona Beach, FL 32117",
    "location": "Volusia"
  },
  {
    "name": "Wishworks Media",
    "description": "Advertising-Promotional Products",
    "phone": "(386) 308-3986",
    "address": " 669 Beville Rd Fl 32119 - South Daytona, FL 32119",
    "location": "Volusia"
  },
  {
    "name": "Image360 Daytona",
    "description": "Advertising-Promotional Products",
    "phone": "(386) 238-5507",
    "address": " 1440 N Nova Rd Ste 308 - Holly Hill, FL 32117",
    "location": "Volusia"
  },
  {
    "name": "CRAVE Marketing & Social Media Solutions - $99 Website*",
    "description": "Advertising-Promotional Products",
    "phone": "(386) 746-7578",
    "address": " US Hwy 1 - South Daytona, FL 32119",
    "location": "Volusia"
  },
  {
    "name": "National Sportswear & Emblem, Ltd.",
    "description": "Advertising-Promotional Products",
    "phone": "(800) 741-0643",
    "address": " 341 Carswell Ave - Holly Hill, FL 32117",
    "location": "Volusia"
  },
  {
    "name": "Daytona Sportswear",
    "description": "Advertising-Promotional Products",
    "phone": "(386) 615-1416",
    "address": " 712 N Beach St - Daytona Beach, FL 32114",
    "location": "Volusia"
  },
  {
    "name": "Copy Cat Printing Center",
    "description": "Advertising-Promotional Products",
    "phone": "(386) 677-6911",
    "address": " 1501 Ridgewood Ave Ste 104 - Daytona Beach, FL 32117",
    "location": "Volusia"
  },
  {
    "name": "Mad Macs Custom",
    "description": "Advertising-Promotional Products",
    "phone": "(386) 202-4185",
    "address": " 636 Lenox Ave - Daytona Beach, FL 32118",
    "location": "Volusia"
  },
  {
    "name": "Fama Printing",
    "description": "Advertising-Promotional Products",
    "phone": "(386) 255-2767",
    "address": " 1518 State Ave - Daytona Beach, FL 32117",
    "location": "Volusia"
  },
  {
    "name": "Corporate Image S of Dayton",
    "description": "Advertising-Promotional Products",
    "phone": "(386) 274-7100",
    "address": " 1648 Taylor Rd Unit 453 - Port Orange, FL 32128",
    "location": "Volusia"
  },
  {
    "name": "Lithocraft Inc",
    "description": "Advertising-Promotional Products",
    "phone": "(386) 761-3584",
    "address": " 4460 S Ridgewood Ave - Port Orange, FL 32127",
    "location": "Volusia"
  },
  {
    "name": "Hot Action Sportswear",
    "description": "Advertising-Promotional Products",
    "phone": "(386) 677-5680",
    "address": " 307 Division Ave - Ormond Beach, FL 32174",
    "location": "Volusia"
  },
  {
    "name": "RAM Promotions",
    "description": "Advertising Specialties",
    "phone": "(386) 677-2075",
    "address": " 221 Fentress Blvd - Daytona Beach, FL 32114",
    "location": "Volusia"
  },
  {
    "name": "Federal Sign",
    "description": "Signs",
    "phone": "(386) 255-1901",
    "address": " 300 Fentress Blvd - Daytona Beach, FL 32114",
    "location": "Volusia"
  },
  {
    "name": "Lamar Advertising Co",
    "description": "Transit Advertising",
    "phone": "(386) 258-0206",
    "address": " 475 Fentress Blvd Ste L - Daytona Beach, FL 32114",
    "location": "Volusia"
  },
  {
    "name": "Hawkeye Brothers Sign & Graphics",
    "description": "Signs",
    "phone": "(386) 492-3883",
    "address": " 480 Fentress Blvd Ste A - Daytona Beach, FL 32114",
    "location": "Volusia"
  },
  {
    "name": "Artyst Tyrant - Affordable Premium Website Design and Graphic Design",
    "description": "Marketing Programs & Services",
    "phone": "(386) 366-0431",
    "address": " 125 Powell Blvd Apt 12102 - Daytona Beach, FL 32114",
    "location": "Volusia"
  },
  {
    "name": "King Direct Marketing",
    "description": "Direct Mail Advertising",
    "phone": "(386) 788-8925",
    "address": " 1184 Pelican Bay Dr - Daytona Beach, FL 32119",
    "location": "Volusia"
  },
  {
    "name": "Brochure Displays, Inc.",
    "description": "Advertising Agencies",
    "phone": "(386) 271-5500",
    "address": " 1808 Concept Ct - Daytona Beach, FL 32114",
    "location": "Volusia"
  },
  {
    "name": "Mesio Public Relations",
    "description": "Marketing Programs & Services",
    "phone": "(386) 226-9963",
    "address": " Po Box 265791 - Daytona Beach, FL 32126",
    "location": "Volusia"
  },
  {
    "name": "Springboard Marketing Group",
    "description": "Advertising Agencies",
    "phone": "(386) 947-4360",
    "address": " 1575 Aviation Center Pkwy - Daytona Beach, FL 32114",
    "location": "Volusia"
  },
  {
    "name": "A L C H Advertising & Mail Inc",
    "description": "Advertising Agencies",
    "phone": "(386) 322-3737",
    "address": " 6 Cormorant Cir - Daytona Beach, FL 32119",
    "location": "Volusia"
  },
  {
    "name": "YELLOW PAGES CUTTER",
    "description": "Directory & Guide Advertising",
    "phone": "(386) 438-7325",
    "address": " Atlantic Ave - Daytona Beach, FL 32118",
    "location": "Volusia"
  },
  {
    "name": "Southeastern Lighting Solutions",
    "description": "Signs",
    "phone": "(386) 238-1711",
    "address": " 821 Fentress Ct - Daytona Beach, FL 32117",
    "location": "Volusia"
  },
  {
    "name": "Kaltek International Inc",
    "description": "Advertising Agencies",
    "phone": "(386) 756-5535",
    "address": " 1335 Beville Rd - Daytona Beach, FL 32119",
    "location": "Volusia"
  },
  {
    "name": "Sunshine Multimedia Solutions",
    "description": "Interactive Media",
    "phone": "(386) 866-0070",
    "address": " 1301 Beville Road Suite 7 - Daytona Beach, FL 32119",
    "location": "Volusia"
  },
  {
    "name": "The Brichard Group",
    "description": "Internet Marketing & Advertising",
    "phone": "(253) 237-4774",
    "address": " 1600 Big Tree Rd - South Daytona, FL 32119",
    "location": "Volusia"
  },
  {
    "name": "Al's Signs",
    "description": "Signs",
    "phone": "(386) 252-8108",
    "address": " 228 Carswell Ave - Daytona Beach, FL 32117",
    "location": "Volusia"
  },
  {
    "name": "FASTSIGNS",
    "description": "Signs",
    "phone": "(386) 256-4784",
    "address": " 1025 N Nova Rd - Daytona Beach, FL 32117",
    "location": "Volusia"
  },
  {
    "name": "P J Sign Systems",
    "description": "Signs",
    "phone": "(386) 257-4522",
    "address": " 614 Fern Ave - Daytona Beach, FL 32117",
    "location": "Volusia"
  },
  {
    "name": "Signs Now Daytona",
    "description": "Signs",
    "phone": "(386) 238-5507",
    "address": " 1440 N Nova Rd Suite 308/309 - Daytona Beach, FL 32117",
    "location": "Volusia"
  },
  {
    "name": "Nerve Marketing",
    "description": "Advertising Agencies",
    "phone": "(386) 257-3030",
    "address": " 600 Mason Ave - Daytona Beach, FL 32117",
    "location": "Volusia"
  },
  {
    "name": "Fair-Way Sign Corporation",
    "description": "Signs",
    "phone": "(386) 253-2300",
    "address": " 418 Fremont Ave Bldg C - Daytona Beach, FL 32114",
    "location": "Volusia"
  },
  {
    "name": "Coastline Signs & Leds",
    "description": "Signs",
    "phone": "(386) 238-6200",
    "address": " 532 N Segrave St - Daytona Beach, FL 32114",
    "location": "Volusia"
  },
  {
    "name": "Action Signs D esigns Inc",
    "description": "Signs",
    "phone": "(386) 238-9159",
    "address": " 530 Mason Ave - Daytona Beach, FL 32117",
    "location": "Volusia"
  },
  {
    "name": "D R Signs",
    "description": "Signs",
    "phone": "(386) 252-2777",
    "address": " 133 Thomasson Ave - Daytona Beach, FL 32117",
    "location": "Volusia"
  },
  {
    "name": "Valpak of Volusia",
    "description": "Advertising Agencies",
    "phone": "(800) 550-5025",
    "address": " 119 S Palmetto Ave Ste 201 - Daytona Beach, FL 32114",
    "location": "Volusia"
  },
  {
    "name": "Web Daytona",
    "description": "Internet Marketing & Advertising",
    "phone": "(386) 405-4281",
    "address": " 115 S Palmetto Ave - Daytona Beach, FL 32114",
    "location": "Volusia"
  },
  {
    "name": "Florida Marketing & Pr",
    "description": "Advertising Agencies",
    "phone": "(386) 479-5544",
    "address": " 100 Marina Point Dr - Daytona Beach, FL 32114",
    "location": "Volusia"
  },
  {
    "name": "Click Geeks",
    "description": "Advertising Agencies",
    "phone": "(800) 988-7579",
    "address": " 250 S Beach St Ste 20A - Daytona Beach, FL 32114",
    "location": "Volusia"
  },
  {
    "name": "Dream Light Digital",
    "description": "Advertising Agencies",
    "phone": "(386) 212-4646",
    "address": " 140 S Beach St - Daytona Beach, FL 32114",
    "location": "Volusia"
  },
  {
    "name": "Image Makers Advertising Inc",
    "description": "Advertising Agencies",
    "phone": "(386) 236-1200",
    "address": " 140 S Beach St Ste 202 - Daytona Beach, FL 32114",
    "location": "Volusia"
  },
  {
    "name": "MP Marketing",
    "description": "Advertising Agencies",
    "phone": "(386) 268-4536",
    "address": " 214 N Beach St - Daytona Beach, FL 32114",
    "location": "Volusia"
  },
  {
    "name": "Zgraph Design & Marketing",
    "description": "Marketing Programs & Services",
    "phone": "(386) 255-5556",
    "address": " 125 Basin St Ste 203 - Daytona Beach, FL 32114",
    "location": "Volusia"
  },
  {
    "name": "Signs Now",
    "description": "Signs",
    "phone": "(386) 238-5507",
    "address": " 1757 N Nova Rd Ste 112 - Daytona Beach, FL 32117",
    "location": "Volusia"
  },
  {
    "name": "SHAKLEE Authorized Distributor",
    "description": "Advertising Agencies",
    "phone": "(386) 236-9911",
    "address": " 2001 Kenilworth Ave - South Daytona, FL 32119",
    "location": "Volusia"
  },
  {
    "name": "Hometown News",
    "description": "Print Advertising",
    "phone": "(386) 322-5900",
    "address": " 2400 S Ridgewood Ave Ste 22 - South Daytona, FL 32119",
    "location": "Volusia"
  },
  {
    "name": "Speedi Sign",
    "description": "Signs",
    "phone": "(386) 258-1183",
    "address": " 421 Ridgewood Ave - Daytona Beach, FL 32117",
    "location": "Volusia"
  },
  {
    "name": "e-Quality Web Solutions",
    "description": "Web Site Hosting",
    "phone": "(386) 295-5213",
    "address": " 225 Anita Ave - Daytona Beach, FL 32114",
    "location": "Volusia"
  },
  {
    "name": "Homeland Therapy Consult",
    "description": "Advertising Agencies",
    "phone": "(386) 236-9986",
    "address": " 519 N Peninsula Dr - Daytona Beach, FL 32118",
    "location": "Volusia"
  },
  {
    "name": "Gano Signs & Graphics",
    "description": "Advertising Specialties",
    "phone": "(386) 238-8653",
    "address": " 310 Seabreeze Blvd - Daytona Beach, FL 32118",
    "location": "Volusia"
  },
  {
    "name": "Benedict Advertising",
    "description": "Direct Mail Advertising",
    "phone": "(386) 255-1222",
    "address": " 640 N Peninsula Dr - Daytona Beach, FL 32118",
    "location": "Volusia"
  },
  {
    "name": "Educational Funding Systems",
    "description": "Advertising Specialties",
    "phone": "(386) 334-9872",
    "address": " 708 N Peninsula Dr - Daytona Beach, FL 32118",
    "location": "Volusia"
  },
  {
    "name": "Jiloty Shipley & Associates Inc",
    "description": "Advertising Agencies",
    "phone": "(386) 677-0673",
    "address": " 1510 Ridgewood Ave - Daytona Beach, FL 32117",
    "location": "Volusia"
  },
  {
    "name": "Orlando Sentinel",
    "description": "Advertising Specialties",
    "phone": "(386) 257-3761",
    "address": " 501 N Grandview Ave - Daytona Beach, FL 32118",
    "location": "Volusia"
  },
  {
    "name": "Permacraft Signs",
    "description": "Signs",
    "phone": "(386) 767-8011",
    "address": " 1644 Ridgewood Ave - Daytona Beach, FL 32117",
    "location": "Volusia"
  },
  {
    "name": "Torq Design",
    "description": "Advertising Agencies",
    "phone": "(386) 763-5558",
    "address": " 2990 S Atlantic Ave - Daytona Beach, FL 32118",
    "location": "Volusia"
  },
  {
    "name": "Sign Power Inc",
    "description": "Signs",
    "phone": "(386) 255-8835",
    "address": " 325 6th St - Holly Hill, FL 32117",
    "location": "Volusia"
  },
  {
    "name": "I Spotted Youcom Inc",
    "description": "Advertising Agencies",
    "phone": "(386) 788-5502",
    "address": " 4606 Clyde Morris Blvd - Port Orange, FL 32129",
    "location": "Volusia"
  },
  {
    "name": "Blazin Creationz",
    "description": "Advertising Specialties",
    "phone": "(877) 470-2952",
    "address": " 1841 S Ridgewood Ave - South Daytona, FL 32119",
    "location": "Volusia"
  },
  {
    "name": "Missing Link Communications INC",
    "description": "Advertising Agencies",
    "phone": "(386) 297-6500",
    "address": " 1840 S Palmetto Ave - South Daytona, FL 32119",
    "location": "Volusia"
  },
  {
    "name": "Signosaurus of Daytona In",
    "description": "Signs",
    "phone": "(386) 322-5222",
    "address": " 2127 S Ridgewood Ave - South Daytona, FL 32119",
    "location": "Volusia"
  },
  {
    "name": "Mr Spikes Signs",
    "description": "Signs",
    "phone": "(386) 226-8984",
    "address": " 1111 Enterprise Ct - Holly Hill, FL 32117",
    "location": "Volusia"
  },
  {
    "name": "Turnkey Enterprises Inc",
    "description": "Advertising Agencies",
    "phone": "(386) 304-8303",
    "address": " 5338 Georgia Peach Ave - Port Orange, FL 32128",
    "location": "Volusia"
  },
  {
    "name": "Clifford Kellogg Cemetery Svc",
    "description": "Advertising Agencies",
    "phone": "(386) 679-6423",
    "address": " 1120 Avenue F - Ormond Beach, FL 32174",
    "location": "Volusia"
  },
  {
    "name": "Kenco Sign & Awning",
    "description": "Signs",
    "phone": "(386) 672-1590",
    "address": " 1539 Garden Ave - Holly Hill, FL 32117",
    "location": "Volusia"
  },
  {
    "name": "Affordable Display Products Inc",
    "description": "Display Designers & Producers",
    "phone": "(407) 862-0656",
    "address": " 400 Venture Dr - South Daytona, FL 32119",
    "location": "Volusia"
  },
  {
    "name": "Valor Signs",
    "description": "Signs",
    "phone": "(386) 281-5164",
    "address": " 707 Samms Ave Ste D - Port Orange, FL 32129",
    "location": "Volusia"
  },
  {
    "name": "Car People Marketing Inc",
    "description": "Marketing Consultants",
    "phone": "(386) 761-3131",
    "address": " 3818 S Nova Rd Suite C - Port Orange, FL 32127",
    "location": "Volusia"
  },
  {
    "name": "Valpak",
    "description": "Advertising Agencies",
    "phone": "(386) 226-4889",
    "address": " 3817 S Nova Rd - Port Orange, FL 32127",
    "location": "Volusia"
  },
  {
    "name": "Waverly Media LLC",
    "description": "Advertising Agencies",
    "phone": "(386) 322-3600",
    "address": " 4188 Dairy Ct - Port Orange, FL 32127",
    "location": "Volusia"
  },
  {
    "name": "DSC Sales Inc",
    "description": "Advertising Agencies",
    "phone": "(386) 761-6642",
    "address": " 413 Oak Pl - Port Orange, FL 32127",
    "location": "Volusia"
  },
  {
    "name": "Kerbox Media",
    "description": "Advertising Agencies",
    "phone": "(310) 600-4484",
    "address": " 762 S Beach St - Ormond Beach, FL 32174",
    "location": "Volusia"
  },
  {
    "name": "Gameday R Media Network",
    "description": "Advertising Agencies",
    "phone": "(386) 492-2916",
    "address": " 5889 S Williamson Blvd - Port Orange, FL 32128",
    "location": "Volusia"
  },
  {
    "name": "Creative Dynamic Displays Signs & Lighting",
    "description": "Signs",
    "phone": "(386) 671-2454",
    "address": " 337 Parque Dr - Ormond Beach, FL 32174",
    "location": "Volusia"
  },
  {
    "name": "Smart Marketing",
    "description": "Marketing Programs & Services",
    "phone": "(386) 265-9469",
    "address": " 40 Soco Trl - Ormond Beach, FL 32174",
    "location": "Volusia"
  },
  {
    "name": "New Vision Videos LLC",
    "description": "Commercials-Radio & Television",
    "phone": "(386) 788-1596",
    "address": " 3280 S Atlantic Ave - Daytona Beach, FL 32118",
    "location": "Volusia"
  },
  {
    "name": "Hayworth Creative",
    "description": "Advertising Agencies",
    "phone": "(386) 677-7000",
    "address": " 700 W Granada Blvd - Ormond Beach, FL 32174",
    "location": "Volusia"
  },
  {
    "name": "Lord & Lasker",
    "description": "Advertising Agencies",
    "phone": "(386) 615-8170",
    "address": " 555 W Granada Blvd Ste F5 - Ormond Beach, FL 32174",
    "location": "Volusia"
  },
  {
    "name": "Dolphin Signs",
    "description": "Signs",
    "phone": "(386) 788-3035",
    "address": " 5027 S Ridgewood Ave - Port Orange, FL 32127",
    "location": "Volusia"
  },
  {
    "name": "Benedict Advertising & Marketing",
    "description": "Advertising Agencies",
    "phone": "(386) 255-1222",
    "address": " 59 Dunlawton Ave - Port Orange, FL 32127",
    "location": "Volusia"
  },
  {
    "name": "Mastando Media",
    "description": "Advertising Agencies",
    "phone": "(386) 846-3363",
    "address": " 3 Ormond Green Blvd - Ormond Beach, FL 32174",
    "location": "Volusia"
  },
  {
    "name": "DMV High Impact Mail",
    "description": "Direct Mail Advertising",
    "phone": "(386) 256-3823",
    "address": " 468 Riverside Dr - Ormond Beach, FL 32176",
    "location": "Volusia"
  },
  {
    "name": "D2 Advertising",
    "description": "Advertising Agencies",
    "phone": "(866) 275-5108",
    "address": " 307 W Granada Blvd - Ormond Beach, FL 32174",
    "location": "Volusia"
  },
  {
    "name": "Belden & Associates Inc",
    "description": "Advertising Agencies",
    "phone": "(386) 756-0302",
    "address": " 5825 Southport Dr - Port Orange, FL 32127",
    "location": "Volusia"
  },
  {
    "name": "Townsend Signs Inc",
    "description": "Signs",
    "phone": "(386) 255-1955",
    "address": " 303 Lincoln Ave - Ormond Beach, FL 32174",
    "location": "Volusia"
  },
  {
    "name": "Eat Leasing LLC",
    "description": "Directory & Guide Advertising",
    "phone": "(386) 237-0446",
    "address": " 232 River Beach Dr - Ormond Beach, FL 32176",
    "location": "Volusia"
  },
  {
    "name": "Promoteme Advertising",
    "description": "Advertising Agencies",
    "phone": "(386) 320-9999",
    "address": " 1 N Beach St - Ormond Beach, FL 32174",
    "location": "Volusia"
  },
  {
    "name": "Buttleman Sporting Goods & Trophies Inc",
    "description": "Awards",
    "phone": "(386) 677-0183",
    "address": " 175 N Yonge St - Ormond Beach, FL 32174",
    "location": "Volusia"
  },
  {
    "name": "S 2 Advertising",
    "description": "Advertising Agencies",
    "phone": "(386) 672-3150",
    "address": " 533 N Nova Rd Ste 213B - Ormond Beach, FL 32174",
    "location": "Volusia"
  },
  {
    "name": "Resorts Solutions of America",
    "description": "Internet Marketing & Advertising",
    "phone": "(386) 317-5969",
    "address": " 5243 S Nova Rd - Port Orange, FL 32127",
    "location": "Volusia"
  },
  {
    "name": "Valorbound",
    "description": "Web Site Hosting",
    "phone": "(386) 478-6320",
    "address": " 18 Canterbury Woods - Ormond Beach, FL 32174",
    "location": "Volusia"
  },
  {
    "name": "Pando Design",
    "description": "Advertising Agencies",
    "phone": "(386) 898-2703",
    "address": " 6145 Sanctuary Garden Blvd - Port Orange, FL 32128",
    "location": "Volusia"
  },
  {
    "name": "DAYTONA BEACH OFFICIALS ASSOCIATION, INC",
    "description": "General Merchandise",
    "phone": "(386) 562-4139",
    "address": " 281 S Atlantic Ave - Ormond Beach, FL 32176",
    "location": "Volusia"
  },
  {
    "name": "King Direct Marketing Inc",
    "description": "Marketing Consultants",
    "phone": "(386) 788-8925",
    "address": " 1916 Bay Lake Way - Port Orange, FL 32128",
    "location": "Volusia"
  },
  {
    "name": "Hamlin & Associates",
    "description": "Direct Mail Advertising",
    "phone": "(386) 672-4113",
    "address": " 575 N Nova Rd - Ormond Beach, FL 32174",
    "location": "Volusia"
  },
  {
    "name": "Twilight Grooves Inc",
    "description": "Advertising Agencies",
    "phone": "(386) 676-1015",
    "address": " 9 Sunshine Blvd - Ormond Beach, FL 32174",
    "location": "Volusia"
  },
  {
    "name": "Trands Inc",
    "description": "Advertising Agencies",
    "phone": "(386) 672-3131",
    "address": " 195 Coquina Ct - Ormond Beach, FL 32176",
    "location": "Volusia"
  },
  {
    "name": "Anello Enterprises",
    "description": "Advertising Agencies",
    "phone": "(386) 761-4511",
    "address": " 5540 W Bayshore Dr - Port Orange, FL 32127",
    "location": "Volusia"
  },
  {
    "name": "Independent Sign & Lighting",
    "description": "Advertising Specialties",
    "phone": "(386) 451-6857",
    "address": " 1 Main St - Port Orange, FL 32127",
    "location": "Volusia"
  },
  {
    "name": "357webdesign",
    "description": "Web Site Design & Services",
    "phone": "(386) 290-3143",
    "address": " 357 John Anderson Dr - Ormond Beach, FL 32176",
    "location": "Volusia"
  },
  {
    "name": "Colonblow Inc",
    "description": "Advertising Agencies",
    "phone": "(386) 441-2706",
    "address": " 97 Dawn Dr - Ormond Beach, FL 32176",
    "location": "Volusia"
  },
  {
    "name": "Image Makers Advertising",
    "description": "Advertising Specialties",
    "phone": "(386) 236-1200",
    "address": " 140 Beach St - Ponce Inlet, FL 32127",
    "location": "Volusia"
  },
  {
    "name": "Captree Advertising",
    "description": "Advertising Agencies",
    "phone": "(386) 871-2080",
    "address": " 555 Maribella Ct - New Smyrna Beach, FL 32168",
    "location": "Volusia"
  },
  {
    "name": "Dawn Kolet Volusia Savings",
    "description": "Advertising Agencies",
    "phone": "(386) 405-6706",
    "address": " 362 N Airport Rd - New Smyrna Beach, FL 32168",
    "location": "Volusia"
  },
  {
    "name": "Woodham & Associates Inc",
    "description": "Advertising Agencies",
    "phone": "(386) 441-8400",
    "address": " 2290 Ocean Shore Blvd Apt 102 - Ormond Beach, FL 32176",
    "location": "Volusia"
  },
  {
    "name": "Alchemy Sewing & Custom Embroidery",
    "description": "Embroidery",
    "phone": "(386) 734-4448",
    "address": " 1741 Langley Ave - Deland, FL 32724",
    "location": "Volusia"
  },
  {
    "name": "Gerson Art And Sign",
    "description": "Signs",
    "phone": "(386) 426-6302",
    "address": " 1102 N Dixie Fwy - New Smyrna Beach, FL 32168",
    "location": "Volusia"
  },
  {
    "name": "Revenue Cycle Resources- RCR|HUB",
    "description": "Directory & Guide Advertising",
    "phone": "(407) 421-4940",
    "address": " 538 Canal St - New Smyrna Beach, FL 32168",
    "location": "Volusia"
  },
  {
    "name": "Sign of the Times",
    "description": "Signs",
    "phone": "(386) 423-5512",
    "address": " 511 Canal St - New Smyrna Beach, FL 32168",
    "location": "Volusia"
  },
  {
    "name": "Shok Idea Group",
    "description": "Advertising Agencies",
    "phone": "(386) 957-3939",
    "address": " 434 Canal St - New Smyrna Beach, FL 32168",
    "location": "Volusia"
  },
  {
    "name": "Image Today Graphics",
    "description": "Advertising Agencies",
    "phone": "(386) 428-5556",
    "address": " 516 Magnolia St - New Smyrna Beach, FL 32168",
    "location": "Volusia"
  },
  {
    "name": "Morris Sign Company",
    "description": "Signs",
    "phone": "(386) 736-1600",
    "address": " 1380 Saratoga St - Deland, FL 32724",
    "location": "Volusia"
  },
  {
    "name": "Pinnacle Services",
    "description": "Advertising Specialties",
    "phone": "(386) 748-2420",
    "address": " 1412 Intrepid Dr - Deland, FL 32724",
    "location": "Volusia"
  }
]
