[
  {
    "name": "Money Mo",
    "description": "Advertising-Promotional Products",
    "phone": "(850) 456-5375",
    "address": " 21 N New Warrington Rd - Pensacola, FL 32506",
    "location": "Washington"
  },
  {
    "name": "Mo Money Associates Inc",
    "description": "Advertising-Promotional Products",
    "phone": "(850) 432-6301",
    "address": " 3838 N Palafox St - Pensacola, FL 32505",
    "location": "Washington"
  },
  {
    "name": "The Kirkman Co",
    "description": "Advertising-Promotional Products",
    "phone": "(850) 455-1500",
    "address": " 5106 Treahna Rd - Pensacola, FL 32526",
    "location": "Washington"
  },
  {
    "name": "The Boatwright Company Inc",
    "description": "Advertising-Promotional Products",
    "phone": "(850) 434-1084",
    "address": " 1125 E Cross St - Pensacola, FL 32503",
    "location": "Washington"
  },
  {
    "name": "MPB Today",
    "description": "Advertising-Promotional Products",
    "phone": "(919) 344-6637",
    "address": " 2401 Langley Ave - Pensacola, FL 32504",
    "location": "Washington"
  },
  {
    "name": "A PROPER STITCH",
    "description": "Advertising-Promotional Products",
    "phone": "(850) 232-5535",
    "address": " 639 Bonilace Cir - Gulf Breeze, FL 32561",
    "location": "Washington"
  },
  {
    "name": "Paradigm Promotions",
    "description": "Advertising-Promotional Products",
    "phone": "(850) 304-0510",
    "address": " 7761 Northpointe Blvd - Pensacola, FL 32514",
    "location": "Washington"
  },
  {
    "name": "Logo Masters",
    "description": "Advertising-Promotional Products",
    "phone": "(850) 937-6770",
    "address": " 3069 Turners Meadow Rd - Pensacola, FL 32514",
    "location": "Washington"
  },
  {
    "name": "Logo Masters International Inc",
    "description": "Advertising-Promotional Products",
    "phone": "(850) 937-6770",
    "address": " 3018 Stefani Road, Bldg. 2 - Cantonment, FL 32533",
    "location": "Washington"
  },
  {
    "name": "Breeze Promotions",
    "description": "Advertising-Promotional Products",
    "phone": "(850) 932-2530",
    "address": " 1174 Harbor Ln - Gulf Breeze, FL 32563",
    "location": "Washington"
  },
  {
    "name": "Crystal Images 4 U",
    "description": "Advertising-Promotional Products",
    "phone": "(334) 400-3974",
    "address": " 7680 W Highway 98 - Pensacola, FL 32506",
    "location": "Washington"
  },
  {
    "name": "Premier Marketing Associates",
    "description": "Advertising-Promotional Products",
    "phone": "(850) 497-6208",
    "address": " 125 W Romana St Ste 525 - Pensacola, FL 32502",
    "location": "Washington"
  },
  {
    "name": "The Marketing Bar",
    "description": "Advertising-Promotional Products",
    "phone": "(850) 435-4600",
    "address": " 260 S Tarragona St Ste 140 - Pensacola, FL 32502",
    "location": "Washington"
  },
  {
    "name": "Award Masters Inc",
    "description": "Advertising-Promotional Products",
    "phone": "(850) 438-2124",
    "address": " 5353 N Palafox St - Pensacola, FL 32505",
    "location": "Washington"
  },
  {
    "name": "DLUX Printing, Inc.",
    "description": "Advertising-Promotional Products",
    "phone": "(850) 457-8494",
    "address": " 3320 N W St - Pensacola, FL 32505",
    "location": "Washington"
  },
  {
    "name": "StepAbove Graphics & Printing",
    "description": "Advertising-Promotional Products",
    "phone": "(850) 466-2800",
    "address": " 3391 N Pace Blvd - Pensacola, FL 32505",
    "location": "Washington"
  },
  {
    "name": "Elite Printing & Marketing",
    "description": "Advertising-Promotional Products",
    "phone": "(850) 474-0894",
    "address": " 3636 N L st Building D Suite A - Pensacola, FL 32503",
    "location": "Washington"
  },
  {
    "name": "Logo Motion Marketing",
    "description": "Advertising-Promotional Products",
    "phone": "(850) 434-1084",
    "address": " 1125 E Cross St - Pensacola, FL 32503",
    "location": "Washington"
  },
  {
    "name": "Qualified Marketing Service",
    "description": "Advertising-Promotional Products",
    "phone": "(850) 932-8383",
    "address": " 6231 N W St - Pensacola, FL 32505",
    "location": "Washington"
  },
  {
    "name": "Apostolic Voice Magazine",
    "description": "Advertising-Promotional Products",
    "phone": "(850) 292-2350",
    "address": " 1024 Sawyer St - Pensacola, FL 32534",
    "location": "Washington"
  },
  {
    "name": "Currin Graphics",
    "description": "Advertising-Promotional Products",
    "phone": "(850) 505-0955",
    "address": " 2814 Copter Rd - Pensacola, FL 32514",
    "location": "Washington"
  },
  {
    "name": "Fsi Group",
    "description": "Advertising-Promotional Products",
    "phone": "(850) 434-2597",
    "address": " 3700 Creighton Rd Ste 3 - Pensacola, FL 32504",
    "location": "Washington"
  },
  {
    "name": "Nai Print Solutions",
    "description": "Advertising-Promotional Products",
    "phone": "(850) 637-1260",
    "address": " 457 Strandview Dr - Pensacola, FL 32534",
    "location": "Washington"
  },
  {
    "name": "Sals Tshirt",
    "description": "Advertising-Promotional Products",
    "phone": "(850) 733-9177",
    "address": " 3072 Auburn Pkwy - Gulf Breeze, FL 32563",
    "location": "Washington"
  },
  {
    "name": "Gary Summitt Promotions",
    "description": "Advertising-Promotional Products",
    "phone": "(850) 484-2812",
    "address": " 621 Copper Ridge Dr - Cantonment, FL 32533",
    "location": "Washington"
  },
  {
    "name": "Proforma Key Solutions",
    "description": "Advertising-Promotional Products",
    "phone": "(850) 932-2530",
    "address": " 1174 Harbor Ln - Gulf Breeze, FL 32563",
    "location": "Washington"
  },
  {
    "name": "Tech savvy",
    "description": "Advertising-Promotional Products",
    "phone": "(251) 504-9575",
    "address": " 9529 Perdido Vista Dr - Perdido Beach, AL 36530",
    "location": "Washington"
  },
  {
    "name": "Williams",
    "description": "Advertising Agencies",
    "phone": "(850) 572-7229",
    "address": " 1006 Hawthorn Dr - Pensacola, FL 32507",
    "location": "Washington"
  },
  {
    "name": "Bright's Signs",
    "description": "Advertising Specialties",
    "phone": "(850) 455-6143",
    "address": " 1103 S Fairfield Dr - Pensacola, FL 32506",
    "location": "Washington"
  },
  {
    "name": "Vista Outdoor Advertising Inc",
    "description": "Transit Advertising",
    "phone": "(888) 603-0804",
    "address": " 3384 Barrancas Ave - Pensacola, FL 32507",
    "location": "Washington"
  },
  {
    "name": "Advertising Done Smart Inc",
    "description": "Advertising Specialties",
    "phone": "(850) 912-4675",
    "address": " 609 Frances Dr - Pensacola, FL 32506",
    "location": "Washington"
  },
  {
    "name": "3SIXTY Marketing",
    "description": "Marketing Programs & Services",
    "phone": "(850) 393-4605",
    "address": " 350 W Cedar St Ste 300C - Pensacola, FL 32502",
    "location": "Washington"
  },
  {
    "name": "Carol Pepper Enterprises",
    "description": "Advertising Specialties",
    "phone": "(850) 456-7359",
    "address": " 313 Petherton Pl - Pensacola, FL 32506",
    "location": "Washington"
  },
  {
    "name": "Triple R Signs & Lighting",
    "description": "Advertising Specialties",
    "phone": "(850) 637-2771",
    "address": " 100 S Pace Blvd - Pensacola, FL 32502",
    "location": "Washington"
  },
  {
    "name": "Talbot Wilson & Associates, Inc",
    "description": "Advertising Specialties",
    "phone": "(850) 217-7137",
    "address": " 841 S H St - Pensacola, FL 32502",
    "location": "Washington"
  },
  {
    "name": "Joshua Lyons Marketing",
    "description": "Internet Marketing & Advertising",
    "phone": "(850) 898-2237",
    "address": " 225 N Pace Blvd - Pensacola, FL 32505",
    "location": "Washington"
  },
  {
    "name": "Thrifty Nickel",
    "description": "Advertising Agencies",
    "phone": "(850) 469-9712",
    "address": " 225 N Pace Blvd - Pensacola, FL 32505",
    "location": "Washington"
  },
  {
    "name": "George Markham & Sons Signs & Awnings, Inc.",
    "description": "Signs",
    "phone": "(850) 433-3032",
    "address": " 1401 Barrancas Ave - Pensacola, FL 32502",
    "location": "Washington"
  },
  {
    "name": "Vowells Downtown Printing",
    "description": "Advertising-Aerial",
    "phone": "(850) 438-7831",
    "address": " 1233 Barrancas Ave - Pensacola, FL 32502",
    "location": "Washington"
  },
  {
    "name": "Lisa Bradley",
    "description": "Copying & Duplicating Service",
    "phone": "(850) 438-7831",
    "address": " 1233 Barrancas Ave - Pensacola, FL 32502",
    "location": "Washington"
  },
  {
    "name": "McGrail Signs & Graphics",
    "description": "Signs",
    "phone": "(850) 435-1017",
    "address": " 1011 N P St - Pensacola, FL 32505",
    "location": "Washington"
  },
  {
    "name": "DonDiva Marketing",
    "description": "Marketing Programs & Services",
    "phone": "(866) 473-2186",
    "address": " 1820 W De Soto St - Pensacola, FL 32501",
    "location": "Washington"
  },
  {
    "name": "Valpak of The Gulf Coast",
    "description": "Advertising Agencies",
    "phone": "(850) 530-8557",
    "address": " 109 N A St - Pensacola, FL 32502",
    "location": "Washington"
  },
  {
    "name": "Maps & Legends Marketing",
    "description": "Marketing Programs & Services",
    "phone": "(850) 462-4982",
    "address": " 418 W Garden St Ste 306 - Pensacola, FL 32502",
    "location": "Washington"
  },
  {
    "name": "Advertising Agent: Andrea Bonner",
    "description": "Advertising-Broadcast & Film",
    "phone": "(850) 982-0848",
    "address": " 500 W Belmont St - Pensacola, FL 32501",
    "location": "Washington"
  },
  {
    "name": "HIP Creative Inc.",
    "description": "Advertising Specialties",
    "phone": "(850) 359-3081",
    "address": " 301 N Barcelona St - Pensacola, FL 32501",
    "location": "Washington"
  },
  {
    "name": "Prolegal Copies",
    "description": "Copying & Duplicating Service",
    "phone": "(850) 470-9779",
    "address": " 209 S Baylen St - Pensacola, FL 32502",
    "location": "Washington"
  },
  {
    "name": "Get Net Marketing LLC",
    "description": "Internet Products & Services",
    "phone": "(850) 376-2701",
    "address": " 101 Palafox Pl Unit 12670 - Pensacola, FL 32591",
    "location": "Washington"
  },
  {
    "name": "Lucid Advertising, Inc.",
    "description": "Print Advertising",
    "phone": "(850) 760-0478",
    "address": " 226 Palafox Pl Ste 400 - Pensacola, FL 32502",
    "location": "Washington"
  },
  {
    "name": "Baybridge Idea Group",
    "description": "Marketing Consultants",
    "phone": "(850) 444-9849",
    "address": " 226 Palafox Pl Ste 402 - Pensacola, FL 32502",
    "location": "Washington"
  },
  {
    "name": "E.W. Bullock Associates Inc.",
    "description": "Advertising Specialties",
    "phone": "(850) 438-4015",
    "address": " 19 W Garden St Ste 201 - Pensacola, FL 32502",
    "location": "Washington"
  },
  {
    "name": "Metrics + Message",
    "description": "Web Site Design & Services",
    "phone": "(850) 270-8083",
    "address": " 3 W Garden St - Pensacola, FL 32502",
    "location": "Washington"
  },
  {
    "name": "Reel Centric",
    "description": "Advertising Agencies",
    "phone": "(850) 912-4229",
    "address": " 3 W Garden St - Pensacola, FL 32502",
    "location": "Washington"
  },
  {
    "name": "LocaliQ",
    "description": "Advertising Agencies",
    "phone": "(877) 525-6084",
    "address": " 2 N Palafox St - Pensacola, FL 32502",
    "location": "Washington"
  },
  {
    "name": "Pnj Media Solutions",
    "description": "Advertising Agencies",
    "phone": "(850) 435-8660",
    "address": " 101 E Romana St - Pensacola, FL 32502",
    "location": "Washington"
  },
  {
    "name": "Gosport Editorial",
    "description": "Advertising Specialties",
    "phone": "(850) 452-3100",
    "address": " 1 News Journal Plz - Pensacola, FL 32502",
    "location": "Washington"
  },
  {
    "name": "Diane Mack Advertising",
    "description": "Advertising Agencies",
    "phone": "(850) 438-0207",
    "address": " 29 E Wright St - Pensacola, FL 32501",
    "location": "Washington"
  },
  {
    "name": "AC Advertising",
    "description": "Advertising Agencies",
    "phone": "(850) 437-3301",
    "address": " 10526 Heatherwood Dr - Pensacola, FL 32506",
    "location": "Washington"
  },
  {
    "name": "Write Away",
    "description": "Signs",
    "phone": "(850) 456-5571",
    "address": " 5712 Ventura Ln - Pensacola, FL 32526",
    "location": "Washington"
  },
  {
    "name": "Creative Instinct Signs & Graphics",
    "description": "Signs",
    "phone": "(850) 436-2040",
    "address": " 4800 N W St - Pensacola, FL 32505",
    "location": "Washington"
  },
  {
    "name": "Electronic Display Networks",
    "description": "Signs",
    "phone": "(850) 432-8080",
    "address": " 105 E Gregory Sq - Pensacola, FL 32502",
    "location": "Washington"
  },
  {
    "name": "Ideaworks, Inc.",
    "description": "Advertising Specialties",
    "phone": "(850) 434-9095",
    "address": " 1110 N Palafox St - Pensacola, FL 32501",
    "location": "Washington"
  },
  {
    "name": "Idgroup",
    "description": "Advertising Agencies",
    "phone": "(850) 438-7823",
    "address": " 300 E Intendencia St - Pensacola, FL 32502",
    "location": "Washington"
  },
  {
    "name": "Image Development Marketing Group",
    "description": "Advertising Specialties",
    "phone": "(850) 438-7823",
    "address": " 300 E Intendencia St - Pensacola, FL 32502",
    "location": "Washington"
  },
  {
    "name": "Wilson Talbot & Associates Inc",
    "description": "Advertising Agencies",
    "phone": "(850) 432-8170",
    "address": " 529 E Government St - Pensacola, FL 32502",
    "location": "Washington"
  },
  {
    "name": "Built Rite Signs",
    "description": "Signs",
    "phone": "(850) 433-1018",
    "address": " 308 N Davis Hwy - Pensacola, FL 32501",
    "location": "Washington"
  },
  {
    "name": "Lamar Advertising Company of Pensacola",
    "description": "Outdoor Advertising",
    "phone": "(850) 433-0024",
    "address": " 1401 N Tarragona St - Pensacola, FL 32501",
    "location": "Washington"
  },
  {
    "name": "Vital Signs",
    "description": "Signs",
    "phone": "(850) 434-6364",
    "address": " 606 N Davis Hwy - Pensacola, FL 32501",
    "location": "Washington"
  },
  {
    "name": "Tmt Printing & Mailing",
    "description": "Direct Mail Advertising",
    "phone": "(850) 432-8300",
    "address": " 10 E Jordan St - Pensacola, FL 32501",
    "location": "Washington"
  },
  {
    "name": "J. Howard",
    "description": "Advertising Agencies",
    "phone": "(850) 629-9564",
    "address": " 707 E Cervantes St - Pensacola, FL 32501",
    "location": "Washington"
  },
  {
    "name": "Local Web Branding",
    "description": "Advertising Agencies",
    "phone": "(850) 725-5696",
    "address": " 5336 N Blue Angel Pkwy - Pensacola, FL 32526",
    "location": "Washington"
  },
  {
    "name": "Parkes Signs",
    "description": "Advertising Specialties",
    "phone": "(850) 261-6320",
    "address": " 10850 Lillian Hwy - Pensacola, FL 32506",
    "location": "Washington"
  },
  {
    "name": "Level Graphics",
    "description": "Signs",
    "phone": "(850) 433-0903",
    "address": " 801 N 9th Ave - Pensacola, FL 32501",
    "location": "Washington"
  },
  {
    "name": "Marketing Management Inc",
    "description": "Marketing Consultants",
    "phone": "(850) 435-9201",
    "address": " 10 E Fairfield Dr Ste C - Pensacola, FL 32501",
    "location": "Washington"
  },
  {
    "name": "Community Services Bureau",
    "description": "Advertising Specialties",
    "phone": "(850) 469-9091",
    "address": " 902 E Blount St - Pensacola, FL 32503",
    "location": "Washington"
  },
  {
    "name": "The Sign Shop",
    "description": "Signs",
    "phone": "(850) 912-6503",
    "address": " 6050 Mobile Hwy - Pensacola, FL 32526",
    "location": "Washington"
  },
  {
    "name": "E W Bullock Associates",
    "description": "Advertising Agencies",
    "phone": "(850) 438-4015",
    "address": " 730 Bayfront Pkwy - Pensacola, FL 32502",
    "location": "Washington"
  },
  {
    "name": "F9 Digital Media",
    "description": "Advertising Agencies",
    "phone": "(850) 857-8335",
    "address": " 195 E Fairfield Dr - Pensacola, FL 32503",
    "location": "Washington"
  },
  {
    "name": "Michael Kenney Graphic Design & Advertising",
    "description": "Graphic Designers",
    "phone": "(850) 433-1972",
    "address": " 1010 N 12th Ave - Pensacola, FL 32501",
    "location": "Washington"
  },
  {
    "name": "Signtronix",
    "description": "Signs",
    "phone": "(850) 607-7404",
    "address": " 1204 E Gonzalez St - Pensacola, FL 32501",
    "location": "Washington"
  },
  {
    "name": "Local Edge",
    "description": "Directory & Guide Advertising",
    "phone": "(850) 477-7111",
    "address": " 1403 E Belmont St - Pensacola, FL 32501",
    "location": "Washington"
  },
  {
    "name": "Something Stitchy",
    "description": "Embroidery",
    "phone": "(850) 458-6525",
    "address": " 5989 N Blue Angel Pkwy - Pensacola, FL 32526",
    "location": "Washington"
  },
  {
    "name": "Compu Graphix",
    "description": "Signs",
    "phone": "(850) 433-2455",
    "address": " 800 Beverly Pkwy - Pensacola, FL 32505",
    "location": "Washington"
  },
  {
    "name": "Hi-Impact Designs",
    "description": "Signs",
    "phone": "(850) 432-6149",
    "address": " 709 Concordia Blvd - Pensacola, FL 32505",
    "location": "Washington"
  },
  {
    "name": "J & C Co",
    "description": "Advertising Agencies",
    "phone": "(850) 607-8882",
    "address": " 11596 Belize Dr - Pensacola, FL 32506",
    "location": "Washington"
  },
  {
    "name": "Southern Media Inc",
    "description": "Advertising Agencies",
    "phone": "(850) 477-3995",
    "address": " 9165 Roe St 4400 Bayou Bl - Pensacola, FL 32503",
    "location": "Washington"
  },
  {
    "name": "Level Up Web Design",
    "description": "Web Site Design & Services",
    "phone": "(850) 565-1688",
    "address": " PO Box 827 - Pensacola, FL 32591",
    "location": "Washington"
  },
  {
    "name": "Adergy",
    "description": "Advertising Agencies",
    "phone": "(850) 932-5700",
    "address": " 14 Live Oak St - Gulf Breeze, FL 32561",
    "location": "Washington"
  },
  {
    "name": "Appleyard Agency",
    "description": "Advertising Specialties",
    "phone": "(850) 494-2194",
    "address": " 4400 Bayou Blvd - Pensacola, FL 32503",
    "location": "Washington"
  },
  {
    "name": "Prosperous I.M.",
    "description": "Internet Marketing & Advertising",
    "phone": "(850) 475-4460",
    "address": " 180 E Burgess Rd Ste E - Pensacola, FL 32503",
    "location": "Washington"
  },
  {
    "name": "FASTSIGNS",
    "description": "Signs",
    "phone": "(850) 477-9744",
    "address": " 6060 Tippin Ave - Pensacola, FL 32504",
    "location": "Washington"
  },
  {
    "name": "Gator Grafix Signs & Printing",
    "description": "Signs",
    "phone": "(850) 478-0486",
    "address": " 8447 Pensacola Blvd - Pensacola, FL 32534",
    "location": "Washington"
  },
  {
    "name": "Graphic Grooves Production Company",
    "description": "Marketing Consultants",
    "phone": "(850) 291-3003",
    "address": " 804 Royce St Apt 126 - Pensacola, FL 32503",
    "location": "Washington"
  },
  {
    "name": "McCall Duncan",
    "description": "Advertising Agencies",
    "phone": "(850) 476-5035",
    "address": " 4400 Bayou Blvd - Pensacola, FL 32503",
    "location": "Washington"
  },
  {
    "name": "Michael Kenney Graphic Design",
    "description": "Advertising Agencies",
    "phone": "(850) 433-1972",
    "address": " 4400 Bayou Blvd - Pensacola, FL 32503",
    "location": "Washington"
  },
  {
    "name": "Our Sign Guy",
    "description": "Signs",
    "phone": "(850) 607-6228",
    "address": " 7000 Pine Forest Rd - Pensacola, FL 32526",
    "location": "Washington"
  },
  {
    "name": "Say It By Song, LLC",
    "description": "Marketing Programs & Services",
    "phone": "(850) 207-6388",
    "address": " 13011 Lillian Hwy - Pensacola, FL 32506",
    "location": "Washington"
  },
  {
    "name": "Name Droppers",
    "description": "Advertising Agencies",
    "phone": "(850) 492-4900",
    "address": " 1192 Naples Dr - Pensacola, FL 32507",
    "location": "Washington"
  },
  {
    "name": "Prosperous Internet Marketing Inc",
    "description": "Advertising Agencies",
    "phone": "(850) 462-5272",
    "address": " 180 E Burgess Rd - Pensacola, FL 32503",
    "location": "Washington"
  },
  {
    "name": "Clear Channel Airports",
    "description": "Advertising Agencies",
    "phone": "(850) 433-1118",
    "address": " 2430 Airport Blvd - Pensacola, FL 32504",
    "location": "Washington"
  },
  {
    "name": "Interspace Airport Advertising",
    "description": "Advertising Specialties",
    "phone": "(850) 433-1118",
    "address": " 2430 Airport Blvd - Pensacola, FL 32504",
    "location": "Washington"
  },
  {
    "name": "Advertising Internet",
    "description": "Internet Service Providers (ISP)",
    "phone": "(850) 479-3966",
    "address": " 7100 Plantation Rd - Pensacola, FL 32504",
    "location": "Washington"
  },
  {
    "name": "Gator Express Signs",
    "description": "Advertising Specialties",
    "phone": "(850) 473-9143",
    "address": " 6159 N 9th Ave - Pensacola, FL 32504",
    "location": "Washington"
  },
  {
    "name": "Hensley Signs & T's",
    "description": "Signs",
    "phone": "(850) 221-1452",
    "address": " 1921 Creighton Rd - Pensacola, FL 32504",
    "location": "Washington"
  },
  {
    "name": "Hitman Advertising",
    "description": "Advertising Specialties",
    "phone": "(850) 474-1110",
    "address": " 1116 E Olive Rd - Pensacola, FL 32514",
    "location": "Washington"
  },
  {
    "name": "Hutchinson Communications",
    "description": "Internet Marketing & Advertising",
    "phone": "(850) 572-3172",
    "address": " 5350 Flax Rd - Pensacola, FL 32504",
    "location": "Washington"
  },
  {
    "name": "Romjue Advertising & Co",
    "description": "Advertising Agencies",
    "phone": "(850) 916-2822",
    "address": " 913 Gulf Breeze Pkwy - Gulf Breeze, FL 32561",
    "location": "Washington"
  },
  {
    "name": "Property By Owner List",
    "description": "Real Estate Investing",
    "phone": "(850) 563-1798",
    "address": " Po Box 1362 - Gulf Breeze, FL 32562",
    "location": "Washington"
  },
  {
    "name": "Jo Services",
    "description": "Advertising Agencies",
    "phone": "(850) 677-8028",
    "address": " 1101 Gulf Breeze Pkwy - Gulf Breeze, FL 32561",
    "location": "Washington"
  },
  {
    "name": "Shopper The",
    "description": "Copying & Duplicating Service",
    "phone": "(850) 478-2222",
    "address": " 3041 E Olive Rd - Pensacola, FL 32514",
    "location": "Washington"
  },
  {
    "name": "OverPower Marketing",
    "description": "Marketing Programs & Services",
    "phone": "(850) 972-2666",
    "address": " 8327 Wilde Lake Rd - Pensacola, FL 32526",
    "location": "Washington"
  },
  {
    "name": "Lea Personnel Management",
    "description": "Advertising Agencies",
    "phone": "(850) 494-9168",
    "address": " 6210 Maybelle Dr - Pensacola, FL 32504",
    "location": "Washington"
  },
  {
    "name": "Pensacola Instant Promotions",
    "description": "Advertising Specialties",
    "phone": "(850) 434-1528",
    "address": " 7145 N 9th Ave - Pensacola, FL 32504",
    "location": "Washington"
  },
  {
    "name": "Betacom Inc",
    "description": "Advertising Agencies",
    "phone": "(850) 912-8682",
    "address": " 8670 Fowler Ave - Pensacola, FL 32534",
    "location": "Washington"
  },
  {
    "name": "ELW Consulting",
    "description": "Advertising Agencies",
    "phone": "(850) 476-1646",
    "address": " 6311 Dunlieth Pl - Pensacola, FL 32504",
    "location": "Washington"
  },
  {
    "name": "Goodson Racing",
    "description": "Advertising Agencies",
    "phone": "(850) 477-0994",
    "address": " 89 W Hood Dr - Pensacola, FL 32534",
    "location": "Washington"
  },
  {
    "name": "Bruno Marketing & Design",
    "description": "Marketing Consultants",
    "phone": "(850) 477-5885",
    "address": " 4340 Costa Mesa - Pensacola, FL 32504",
    "location": "Washington"
  },
  {
    "name": "Consult 4",
    "description": "Interactive Media",
    "phone": "(850) 430-9805",
    "address": " 4752 Livingston Dr - Pensacola, FL 32504",
    "location": "Washington"
  },
  {
    "name": "Paradigm Training Systems Inc",
    "description": "Advertising Specialties",
    "phone": "(850) 475-9147",
    "address": " 8048 Eastwood Ln - Pensacola, FL 32514",
    "location": "Washington"
  },
  {
    "name": "Cox Media",
    "description": "Television Stations & Broadcast Companies",
    "phone": "(850) 432-1403",
    "address": " 3405 McLemore Dr - Pensacola, FL 32514",
    "location": "Washington"
  },
  {
    "name": "Sign Supply USA",
    "description": "Advertising Specialties",
    "phone": "(850) 476-0084",
    "address": " 9900 N Palafox St - Pensacola, FL 32534",
    "location": "Washington"
  },
  {
    "name": "Saritus",
    "description": "Advertising Agencies",
    "phone": "(850) 291-6837",
    "address": " 1765 E Nine Mile Rd - Pensacola, FL 32514",
    "location": "Washington"
  },
  {
    "name": "US Digital Media Inc",
    "description": "Advertising Agencies",
    "phone": "(850) 473-8886",
    "address": " 9100 Hamman Ave - Pensacola, FL 32514",
    "location": "Washington"
  },
  {
    "name": "Hilight Electronic Displays",
    "description": "Advertising Specialties",
    "phone": "(850) 484-9829",
    "address": " 10030 Autumn Ln - Pensacola, FL 32514",
    "location": "Washington"
  },
  {
    "name": "Onmedia Gulf Coast",
    "description": "Marketing Consultants",
    "phone": "(866) 819-9399",
    "address": " 1613 Nantahala Beach Rd - Gulf Breeze, FL 32563",
    "location": "Washington"
  },
  {
    "name": "Wcaa Inc",
    "description": "Advertising Agencies",
    "phone": "(850) 478-6540",
    "address": " 3533 Pine Forest Rd - Cantonment, FL 32533",
    "location": "Washington"
  },
  {
    "name": "Hip Creative Agency",
    "description": "Advertising Agencies",
    "phone": "(850) 359-3081",
    "address": " 2690 S Highway 95a - Cantonment, FL 32533",
    "location": "Washington"
  },
  {
    "name": "Signature Selections",
    "description": "Embroidery",
    "phone": "(850) 937-9090",
    "address": " 2450 S Highway 29 Ste 4 - Cantonment, FL 32533",
    "location": "Washington"
  },
  {
    "name": "The Original Clark's Flea Market U.S.A",
    "description": "Advertising Agencies",
    "phone": "(850) 968-9595",
    "address": " 2345 Pompano Rd - Cantonment, FL 32533",
    "location": "Washington"
  },
  {
    "name": "Randall, Hamishe N",
    "description": "Advertising Agencies",
    "phone": "(850) 916-4901",
    "address": " 3880 Paradise Bay Dr - Gulf Breeze, FL 32563",
    "location": "Washington"
  },
  {
    "name": "Williams Signs",
    "description": "Signs",
    "phone": "(850) 968-0427",
    "address": " 1350 E Kingsfield Rd - Cantonment, FL 32533",
    "location": "Washington"
  }
]
