[
  {
    "name": "Beautiful Barbies Fashion",
    "description": "Women's Clothing",
    "phone": "(815) 579-6767",
    "address": "13345 Willow Bluestar Loop  Riverview, FL 33579",
    "location": "Bay"
  },
  {
    "name": "Bealls Department Store",
    "description": "Clothing Stores",
    "phone": "(813) 671-2895",
    "address": "13120 Us Highway 301 S Ste 120  Riverview, FL 33578",
    "location": "Bay"
  },
  {
    "name": "De'Silhouette Boutique LLC",
    "description": "Clothing Stores",
    "phone": "(813) 297-6326",
    "address": "Po Box 1181  Riverview, FL 33568",
    "location": "Bay"
  },
  {
    "name": "FB Collections",
    "description": "Clothing Stores",
    "phone": "(813) 255-1169",
    "address": "11834 frost aster dr  Riverview, FL 33579",
    "location": "Bay"
  },
  {
    "name": "Forever 21",
    "description": "Clothing Stores",
    "phone": "(813) 991-1114",
    "address": "28210 Paseo Drive Unit #190 Building No Two  Wesley Chapel, FL 33544",
    "location": "Bay"
  },
  {
    "name": "Eyes of Creativity",
    "description": "Clothing Stores",
    "phone": "(813) 671-9881",
    "address": "11335 Brighton Knoll Loop  Riverview, FL 33579",
    "location": "Bay"
  },
  {
    "name": "Marshalls",
    "description": "Clothing Stores",
    "phone": "(813) 677-3112",
    "address": "13120 Us Highway 301 S  Riverview, FL 33578",
    "location": "Bay"
  },
  {
    "name": "WTVT Television",
    "description": "Clothing Stores",
    "phone": "(813) 681-4646",
    "address": "16445 Boyette Rd  Riverview, FL 33579",
    "location": "Bay"
  },
  {
    "name": "Bealls Florida",
    "description": "Department Stores",
    "phone": "(813) 671-2895",
    "address": "13120 Us Highway 301 S  Riverview, FL 33578",
    "location": "Bay"
  },
  {
    "name": "Bella Latina Swimwear",
    "description": "Swimwear & Accessories",
    "phone": "(813) 438-0474",
    "address": "Pobox 262181  tampa, FL 33685",
    "location": "Bay"
  },
  {
    "name": "Be Happy Boutique",
    "description": "Boutique Items",
    "phone": "(813) 677-2300",
    "address": "11369 Big Bend Rd  Riverview, FL 33579",
    "location": "Bay"
  },
  {
    "name": "Lady Chameleon",
    "description": "Women's Clothing",
    "phone": "(813) 645-1964",
    "address": "301 S US Highway 41  Ruskin, FL 33570",
    "location": "Bay"
  },
  {
    "name": "Natural Glow Accessories",
    "description": "Clothing Stores",
    "phone": "(941) 545-6108",
    "address": "7517 Oxford Garden Cir  Apollo Beach, FL 33572",
    "location": "Bay"
  },
  {
    "name": "Stein Mart",
    "description": "Clothing Stores",
    "phone": "(813) 689-0025",
    "address": "3456 Lithia Pinecrest Rd  Valrico, FL 33596",
    "location": "Bay"
  },
  {
    "name": "SolaSkins High Performance Bandanas",
    "description": "Clothing Stores",
    "phone": "(813) 641-9194",
    "address": "6522 Senegal Palm Way  Apollo Beach, FL 33572",
    "location": "Bay"
  },
  {
    "name": "Vasciannie Vintage",
    "description": "Clothing Stores",
    "phone": "(813) 352-8460",
    "address": "Riverview Flea Market - 7415 US-301 Shop 59  Riverview, FL 33578",
    "location": "Bay"
  },
  {
    "name": "Orange Blossom Boutique",
    "description": "Clothing Stores",
    "phone": "(813) 785-7118",
    "address": "12527 Midpointe Dr  Riverview, FL 33578",
    "location": "Bay"
  },
  {
    "name": "Sage Garments",
    "description": "Clothing Stores",
    "phone": "(813) 672-4022",
    "address": "11444 Us Highway 301 S  Riverview, FL 33578",
    "location": "Bay"
  },
  {
    "name": "New Sunny Horizons",
    "description": "Clothing Stores",
    "phone": "(813) 654-0147",
    "address": "720 Wendel Ave  Lithia, FL 33547",
    "location": "Bay"
  },
  {
    "name": "Scavenger Brands Inc",
    "description": "Clothing Stores",
    "phone": "(813) 507-8926",
    "address": "15803 Oakleaf Run Dr  Lithia, FL 33547",
    "location": "Bay"
  },
  {
    "name": "Apollo Uniforms Screening & Embroidery",
    "description": "Clothing Stores",
    "phone": "(813) 321-7376",
    "address": "300 Frandorson Cir Ste 103  Apollo Beach, FL 33572",
    "location": "Bay"
  },
  {
    "name": "Way-the Otaku Custom Apparel",
    "description": "Clothing Stores",
    "phone": "(813) 419-4463",
    "address": "300 Frandorson Cir  Apollo Beach, FL 33572",
    "location": "Bay"
  },
  {
    "name": "Liz N Things",
    "description": "Clothing Stores",
    "phone": "(813) 324-8951",
    "address": "3515 Bell Shoals Rd  Valrico, FL 33596",
    "location": "Bay"
  },
  {
    "name": "Frogzilla",
    "description": "Clothing Stores",
    "phone": "(813) 684-2937",
    "address": "3478 Lithia Pinecrest Rd  Valrico, FL 33596",
    "location": "Bay"
  },
  {
    "name": "Shop Wholesale America Liquidations",
    "description": "Clothing Stores",
    "phone": "(800) 608-4872",
    "address": "11705 Boyette Rd  Riverview, FL 33569",
    "location": "Bay"
  },
  {
    "name": "Bealls",
    "description": "Clothing Stores",
    "phone": "(813) 681-1421",
    "address": "925 E Bloomingdale Ave  Brandon, FL 33511",
    "location": "Bay"
  },
  {
    "name": "Royalty X Thr33",
    "description": "Clothing Stores",
    "phone": "(813) 638-1354",
    "address": "6032 Winthrop Town Centre Ave  Riverview, FL 33578",
    "location": "Bay"
  },
  {
    "name": "Bealls Outlet Stores",
    "description": "Clothing Stores",
    "phone": "(813) 634-2900",
    "address": "3840 Sun City Center Blvd  Ruskin, FL 33573",
    "location": "Bay"
  },
  {
    "name": "Bealls Outlet",
    "description": "Clothing Stores",
    "phone": "(813) 671-1732",
    "address": "9630 US Highway 301 S  Riverview, FL 33578",
    "location": "Bay"
  },
  {
    "name": "Bon Worth",
    "description": "Clothing Stores",
    "phone": "(813) 634-7296",
    "address": "1517 Sun City Center Plz  Sun City Center, FL 33573",
    "location": "Bay"
  },
  {
    "name": "GARAGE",
    "description": "Clothing Stores",
    "phone": "(813) 530-9027",
    "address": "6005 Big Bend Rd  Gibsonton, FL 33534",
    "location": "Bay"
  },
  {
    "name": "Men's Fashions",
    "description": "Clothing Stores",
    "phone": "(813) 684-3152",
    "address": "6905 Summer Harbor Ln  Riverview, FL 33578",
    "location": "Bay"
  },
  {
    "name": "Allure Physique Boutique",
    "description": "Clothing Stores",
    "phone": "(813) 458-0823",
    "address": "8432 Deer Chase Dr  Riverview, FL 33578",
    "location": "Bay"
  },
  {
    "name": "Renown Goods",
    "description": "Clothing Stores",
    "phone": "(813) 330-7953",
    "address": "6028 Winthrop Town Centre Ave  Riverview, FL 33578",
    "location": "Bay"
  },
  {
    "name": "The Velvet",
    "description": "Clothing Stores",
    "phone": "(813) 381-3865",
    "address": "1042 Bloomingdale Ave  Valrico, FL 33596",
    "location": "Bay"
  },
  {
    "name": "Salt Devils",
    "description": "Clothing Stores",
    "phone": "(813) 741-2700",
    "address": "11225 Restwood Dr  Gibsonton, FL 33534",
    "location": "Bay"
  },
  {
    "name": "Satin Lace Bridal Boutique",
    "description": "Boutique Items",
    "phone": "(813) 381-4110",
    "address": "11286 Sullivan St  Riverview, FL 33578",
    "location": "Bay"
  },
  {
    "name": "Walmart Supercenter",
    "description": "General Merchandise",
    "phone": "(813) 633-1467",
    "address": "4928 State Road 674  Wimauma, FL 33598",
    "location": "Bay"
  },
  {
    "name": "GameReadyFootbalPrep",
    "description": "Sporting Goods",
    "phone": "(813) 459-6375",
    "address": "11407 Emerald Shore Dr  Riverview, FL 33579",
    "location": "Bay"
  },
  {
    "name": "Doyen Archery",
    "description": "Sporting Goods",
    "phone": "(813) 633-8609",
    "address": "16439 S County Road 39  Lithia, FL 33547",
    "location": "Bay"
  },
  {
    "name": "Patsy's Salon",
    "description": "Beauty Salons",
    "phone": "(813) 741-2887",
    "address": "11234 Boyette Rd  Riverview, FL 33569",
    "location": "Bay"
  },
  {
    "name": "West Marine",
    "description": "Boat Equipment & Supplies",
    "phone": "(813) 645-6144",
    "address": "6492 N Us Highway 41  Apollo Beach, FL 33572",
    "location": "Bay"
  },
  {
    "name": "Target",
    "description": "General Merchandise",
    "phone": "(813) 387-1161",
    "address": "10150 Bloomingdale Ave  Riverview, FL 33578",
    "location": "Bay"
  },
  {
    "name": "T Marie's Fashion and Gifts Boutique",
    "description": "Boutique Items",
    "phone": "(813) 530-0922",
    "address": "3407 Lithia Pinecrest Rd  Valrico, FL 33596",
    "location": "Bay"
  },
  {
    "name": "Agape Chic Consignment Boutique, Inc.",
    "description": "Resale Shops",
    "phone": "(813) 571-7871",
    "address": "151 E Bloomingdale Ave  Brandon, FL 33511",
    "location": "Bay"
  },
  {
    "name": "Hit the Trails!",
    "description": "Running Stores",
    "phone": "(813) 681-6141",
    "address": "16144 Churchview Dr Ste 105  Lithia, FL 33547",
    "location": "Bay"
  },
  {
    "name": "El Bori Mex Supermarket",
    "description": "Department Stores",
    "phone": "(813) 374-2353",
    "address": "9613 Us Highway 301 S  Riverview, FL 33578",
    "location": "Bay"
  },
  {
    "name": "Fitnich Brandon",
    "description": "Sportswear",
    "phone": "(813) 502-5919",
    "address": "3428 Lithia Pinecrest Rd  Valrico, FL 33596",
    "location": "Bay"
  },
  {
    "name": "Walmart",
    "description": "General Merchandise",
    "phone": "(813) 655-1984",
    "address": "949 E Bloomingdale Ave  Brandon, FL 33511",
    "location": "Bay"
  },
  {
    "name": "Corsa Racewear",
    "description": "Sportswear",
    "phone": "(813) 685-6900",
    "address": "4205 Trumpworth Ct  Valrico, FL 33596",
    "location": "Bay"
  },
  {
    "name": "Lena Maxey Salon",
    "description": "Boutique Items",
    "phone": "(813) 523-2006",
    "address": "13210 Boyette Rd  Riverview, FL 33569",
    "location": "Bay"
  },
  {
    "name": "Camden Elizabeth Boutique",
    "description": "Boutique Items",
    "phone": "(813) 892-9794",
    "address": "16013 Ternglade Dr  Lithia, FL 33547",
    "location": "Bay"
  },
  {
    "name": "Pipeline Surf Gear",
    "description": "Women's Clothing",
    "phone": "(855) 216-3680",
    "address": "16535 Kingletridge Ave  Lithia, FL 33547",
    "location": "Bay"
  },
  {
    "name": "Fifis Fine Resale Apparel",
    "description": "Consignment Service",
    "phone": "(813) 641-8444",
    "address": "6410 N Us Highway 41  Apollo Beach, FL 33572",
    "location": "Bay"
  },
  {
    "name": "Next Level Signs Printing Apparel",
    "description": "Screen Printing",
    "phone": "(813) 290-7446",
    "address": "7441 US Highway 301 S  Riverview, FL 33578",
    "location": "Bay"
  },
  {
    "name": "Lucky Brand",
    "description": "Women's Clothing",
    "phone": "(813) 643-5170",
    "address": "2533 Westfield Dr  Brandon, FL 33511",
    "location": "Bay"
  },
  {
    "name": "Upscale Boutique",
    "description": "Boutique Items",
    "phone": "(813) 684-7222",
    "address": "924 Buck Ct  Brandon, FL 33511",
    "location": "Bay"
  },
  {
    "name": "Kris Sara Designer Consigner",
    "description": "Women's Clothing",
    "phone": "(813) 324-8911",
    "address": "6128 Winthrop Town Centre Ave  Riverview, FL 33578",
    "location": "Bay"
  },
  {
    "name": "Tilly's",
    "description": "Clothing Stores",
    "phone": "(813) 689-3537",
    "address": "955 Brandon Town Center Mall  Brandon, FL 33511",
    "location": "Bay"
  },
  {
    "name": "Fashions Niche",
    "description": "Clothing Stores",
    "phone": "(813) 356-8085",
    "address": "502 Sideview ct  Brandon, FL 33510",
    "location": "Bay"
  },
  {
    "name": "Hollister",
    "description": "Clothing Stores",
    "phone": "(813) 654-7189",
    "address": "555 Brandon Town Center Mall  Brandon, FL 33511",
    "location": "Bay"
  },
  {
    "name": "Charlotte Russe",
    "description": "Clothing Stores",
    "phone": "(813) 655-6752",
    "address": "459 Brandon Town Center Mall  Brandon, FL 33511",
    "location": "Bay"
  },
  {
    "name": "Apple & Eagle Apparel",
    "description": "Clothing Stores",
    "phone": "(813) 280-9932",
    "address": "7802 Rideout Rd  Tampa, FL 33619",
    "location": "Bay"
  },
  {
    "name": "AÃ©ropostale",
    "description": "Clothing Stores",
    "phone": "(813) 654-3452",
    "address": "553 Brandon Town Center Mall  Brandon, FL 33511",
    "location": "Bay"
  },
  {
    "name": "American Eagle Store",
    "description": "Clothing Stores",
    "phone": "(813) 654-8724",
    "address": "582 Brandon Town Center Mall  Brandon, FL 33511",
    "location": "Bay"
  },
  {
    "name": "Abercrombie & Fitch",
    "description": "Clothing Stores",
    "phone": "(813) 681-8895",
    "address": "421 Brandon Town Center  Brandon, FL 33511",
    "location": "Bay"
  },
  {
    "name": "PacSun",
    "description": "Clothing Stores",
    "phone": "(813) 684-5155",
    "address": "551 Brandon Town Center Mall  Brandon, FL 33511",
    "location": "Bay"
  },
  {
    "name": "Express - Closed",
    "description": "Clothing Stores",
    "phone": "(813) 654-3160",
    "address": "565 Brandon Town Center Mall  Brandon, FL 33511",
    "location": "Bay"
  },
  {
    "name": "Tillys",
    "description": "Clothing Stores",
    "phone": "(813) 689-3537",
    "address": "562 Brandon Town Center Mall  Brandon, FL 33511",
    "location": "Bay"
  },
  {
    "name": "Guess",
    "description": "Clothing Stores",
    "phone": "(813) 684-4993",
    "address": "413 Brandon Town Center Mall  Brandon, FL 33511",
    "location": "Bay"
  },
  {
    "name": "Citi Trends",
    "description": "Clothing Stores",
    "phone": "(813) 395-9811",
    "address": "7438 Palm River Rd  Tampa, FL 33619",
    "location": "Bay"
  },
  {
    "name": "Fresh N Dirty",
    "description": "Clothing Stores",
    "phone": "(813) 205-3344",
    "address": "1971 W Lumsden Rd Ste 226  Brandon, FL 33511",
    "location": "Bay"
  },
  {
    "name": "The Simple Life Outfitters",
    "description": "Clothing Stores",
    "phone": "(813) 727-2802",
    "address": "2553 E State Road 60  Valrico, FL 33594",
    "location": "Bay"
  },
  {
    "name": "Brandon Army Navy",
    "description": "Clothing Stores",
    "phone": "(813) 685-8049",
    "address": "146 N Parsons Ave  Brandon, FL 33510",
    "location": "Bay"
  },
  {
    "name": "Jimmy Jazz",
    "description": "Clothing Stores",
    "phone": "(813) 685-1264",
    "address": "459 Brandon Town Center Mall # 674  Brandon, FL 33511",
    "location": "Bay"
  },
  {
    "name": "American Eagle Outfitters",
    "description": "Clothing Stores",
    "phone": "(813) 654-8724",
    "address": "349 Brandon Town Center Mall  Brandon, FL 33511",
    "location": "Bay"
  },
  {
    "name": "Monster Teez",
    "description": "Clothing Stores",
    "phone": "(813) 345-6110",
    "address": "PO Box 2474  Valrico, FL 33595",
    "location": "Bay"
  },
  {
    "name": "Aeropostale",
    "description": "Clothing Stores",
    "phone": "(813) 654-3452",
    "address": "553 Brandon Town Center Mall # 553  Brandon, FL 33511",
    "location": "Bay"
  },
  {
    "name": "Cotton On",
    "description": "Clothing Stores",
    "phone": "(813) 681-3909",
    "address": "577 Brandon Town Center Mall  Brandon, FL 33511",
    "location": "Bay"
  },
  {
    "name": "Hot Topic",
    "description": "Clothing Stores",
    "phone": "(813) 643-0869",
    "address": "459 Brandon Town Center Mall  Brandon, FL 33511",
    "location": "Bay"
  },
  {
    "name": "Express",
    "description": "Clothing Stores",
    "phone": "(813) 654-3160",
    "address": "447 Brandon Town Center Mall  Brandon, FL 33511",
    "location": "Bay"
  },
  {
    "name": "Old Navy",
    "description": "Clothing Stores",
    "phone": "(813) 684-0008",
    "address": "2400 W Brandon Blvd Ste 2578  Brandon, FL 33511",
    "location": "Bay"
  },
  {
    "name": "Rainbow Shops",
    "description": "Clothing Stores",
    "phone": "(813) 689-0413",
    "address": "2466 W Brandon Blvd  Brandon, FL 33511",
    "location": "Bay"
  },
  {
    "name": "MK Collab E-Boutique",
    "description": "Clothing Stores",
    "phone": "(813) 748-5199",
    "address": "1102 Lithia Pinecrest Rd  Brandon, FL 33511",
    "location": "Bay"
  },
  {
    "name": "New York Fashions",
    "description": "Clothing Stores",
    "phone": "(813) 621-3705",
    "address": "7831 Palm River Rd  Tampa, FL 33619",
    "location": "Bay"
  },
  {
    "name": "LSG VF Imagewear",
    "description": "Clothing Stores",
    "phone": "(813) 671-2986",
    "address": "8221 Eagle Palm Dr  Riverview, FL 33578",
    "location": "Bay"
  },
  {
    "name": "Tipsclothing.Com",
    "description": "Clothing Stores",
    "phone": "(813) 401-9156",
    "address": "727 Climate Dr  Brandon, FL 33511",
    "location": "Bay"
  },
  {
    "name": "Cedrics Custom Apparel Inc",
    "description": "Clothing Stores",
    "phone": "(813) 689-4572",
    "address": "2114 Diane Ave  Valrico, FL 33594",
    "location": "Bay"
  },
  {
    "name": "KaTee's Bowtique / Custom Embroidery",
    "description": "Clothing Stores",
    "phone": "(813) 748-7238",
    "address": "763 W Lumsden Rd  Brandon, FL 33511",
    "location": "Bay"
  },
  {
    "name": "Menswear & Tux Inc",
    "description": "Clothing Stores",
    "phone": "(813) 643-3294",
    "address": "2020 Brandon Crossing Cir  Brandon, FL 33511",
    "location": "Bay"
  },
  {
    "name": "Sweet Lexi",
    "description": "Clothing Stores",
    "phone": "(813) 425-4637",
    "address": "1641 Bonita Bluff Ct  Ruskin, FL 33570",
    "location": "Bay"
  },
  {
    "name": "Quiksilver",
    "description": "Clothing Stores",
    "phone": "(813) 661-8784",
    "address": "459 Brandon Town Center Mall  Brandon, FL 33511",
    "location": "Bay"
  },
  {
    "name": "Tommy Hilfiger",
    "description": "Clothing Stores",
    "phone": "(813) 651-5200",
    "address": "638 Brandon Town Center Mall  Brandon, FL 33511",
    "location": "Bay"
  },
  {
    "name": "Amazing Standard Shop",
    "description": "Clothing Stores",
    "phone": "(877) 300-9879",
    "address": "413 Brandon Town Center Mall  Brandon, FL 33511",
    "location": "Bay"
  },
  {
    "name": "Only Jeans",
    "description": "Clothing Stores",
    "phone": "(813) 684-1122",
    "address": "355 Brandon Town Center Mall  Brandon, FL 33511",
    "location": "Bay"
  },
  {
    "name": "Snipes",
    "description": "Clothing Stores",
    "phone": "(813) 685-1264",
    "address": "459 Brandon Town Center Dr # 674  Brandon, FL 33511",
    "location": "Bay"
  },
  {
    "name": "Geekstertees",
    "description": "Clothing Stores",
    "phone": "(727) 808-7919",
    "address": "416 Westchester Hills Ln  valrico, FL 33594",
    "location": "Bay"
  },
  {
    "name": "Simple Life Outfitters",
    "description": "Clothing Stores",
    "phone": "(813) 657-8308",
    "address": "4715 Fietzway Rd  Dover, FL 33527",
    "location": "Bay"
  },
  {
    "name": "All the Way Live Designs",
    "description": "Clothing Stores",
    "phone": "(866) 727-6777",
    "address": "2710 Causeway Center Dr  Tampa, FL 33619",
    "location": "Bay"
  },
  {
    "name": "Eunice Josefa Kindred",
    "description": "Clothing Stores",
    "phone": "(813) 684-6038",
    "address": "1536 Chepacket St  Brandon, FL 33511",
    "location": "Bay"
  },
  {
    "name": "Entourage",
    "description": "Clothing Stores",
    "phone": "(813) 654-5100",
    "address": "628 Brandon Town Center Mall  Brandon, FL 33511",
    "location": "Bay"
  },
  {
    "name": "Rue21",
    "description": "Clothing Stores",
    "phone": "(813) 655-4237",
    "address": "311 Brandon Town Center Mall  Brandon, FL 33511",
    "location": "Bay"
  },
  {
    "name": "T.J. Maxx",
    "description": "Clothing Stores",
    "phone": "(813) 654-4472",
    "address": "2520 W Brandon Blvd  Brandon, FL 33511",
    "location": "Bay"
  },
  {
    "name": "Burlington Coat Factory",
    "description": "Clothing Stores",
    "phone": "(813) 662-9955",
    "address": "955 W Brandon Blvd  Brandon, FL 33511",
    "location": "Bay"
  },
  {
    "name": "Buckle",
    "description": "Clothing Stores",
    "phone": "(813) 571-7750",
    "address": "556 Brandon Town Ctr Mall  Brandon, FL 33511",
    "location": "Bay"
  },
  {
    "name": "New York & Company",
    "description": "Clothing Stores",
    "phone": "(813) 654-9577",
    "address": "407 Brandon Town Center Mall  Brandon, FL 33511",
    "location": "Bay"
  },
  {
    "name": "DXL Destination XL",
    "description": "Clothing Stores",
    "phone": "(813) 651-4096",
    "address": "2406 W Brandon Blvd  Brandon, FL 33511",
    "location": "Bay"
  },
  {
    "name": "Ross Dress for Less",
    "description": "Clothing Stores",
    "phone": "(813) 654-2646",
    "address": "135 Brandon Town Center Dr  Brandon, FL 33511",
    "location": "Bay"
  },
  {
    "name": "Zumiez",
    "description": "Clothing Stores",
    "phone": "(813) 655-3962",
    "address": "418 Brandon Town Center Mall  Brandon, FL 33511",
    "location": "Bay"
  },
  {
    "name": "JCPenney",
    "description": "Clothing Stores",
    "phone": "(813) 654-7748",
    "address": "331 Brandon Town Center Mall  Brandon, FL 33511",
    "location": "Bay"
  },
  {
    "name": "Loft",
    "description": "Clothing Stores",
    "phone": "(813) 684-5405",
    "address": "403 Brandon Town Center Dr  Brandon, FL 33511",
    "location": "Bay"
  },
  {
    "name": "SEPHORA at Kohl's",
    "description": "Clothing Stores",
    "phone": "(813) 684-9200",
    "address": "11151 Lake Brandon Dr  Brandon, FL 33511",
    "location": "Bay"
  },
  {
    "name": "Macy's",
    "description": "Clothing Stores",
    "phone": "(813) 651-5300",
    "address": "638 Brandon Town Center Mall  Brandon, FL 33511",
    "location": "Bay"
  },
  {
    "name": "American Eagle",
    "description": "Clothing Stores",
    "phone": "(813) 654-8724",
    "address": "582 Brandon Tc Mall  Brandon, FL 33511",
    "location": "Bay"
  },
  {
    "name": "Kmart",
    "description": "Clothing Stores",
    "phone": "(813) 685-2994",
    "address": "1602 W Brandon Blvd  Brandon, FL 33511",
    "location": "Bay"
  },
  {
    "name": "DXL Big + Tall",
    "description": "Clothing Stores",
    "phone": "(813) 651-4096",
    "address": "2406 W Brandon Blvd  Brandon, FL 33511",
    "location": "Bay"
  },
  {
    "name": "Aerie",
    "description": "Clothing Stores",
    "phone": "(813) 654-9187",
    "address": "432 Brandon Town Center  Brandon, FL 33511",
    "location": "Bay"
  },
  {
    "name": "Ardene",
    "description": "Clothing Stores",
    "phone": "(813) 445-5520",
    "address": "459 Brandon Town Center Dr  Brandon, FL 33511",
    "location": "Bay"
  },
  {
    "name": "Nordstrom Rack Lake Brandon Plaza",
    "description": "Clothing Stores",
    "phone": "(813) 330-4500",
    "address": "11201 Causeway Blvd  Brandon, FL 33511",
    "location": "Bay"
  },
  {
    "name": "Oakley Store",
    "description": "Clothing Stores",
    "phone": "(813) 685-1467",
    "address": "548 Brandon Town Center Dr  Brandon, FL 33511",
    "location": "Bay"
  },
  {
    "name": "Five Below",
    "description": "Clothing Stores",
    "phone": "(813) 723-2241",
    "address": "1907 W Lumsden Rd  Brandon, FL 33511",
    "location": "Bay"
  },
  {
    "name": "Charming Charlie",
    "description": "Clothing Stores",
    "phone": "(813) 685-2600",
    "address": "836 Brandon Town Center Mall  Brandon, FL 33511",
    "location": "Bay"
  },
  {
    "name": "Chico's",
    "description": "Clothing Stores",
    "phone": "(813) 689-7231",
    "address": "415 Brandon Town Center Dr  Brandon, FL 33511",
    "location": "Bay"
  },
  {
    "name": "Journeys",
    "description": "Clothing Stores",
    "phone": "(813) 654-5494",
    "address": "459 Brandon Town Ctr  Brandon, FL 33511",
    "location": "Bay"
  },
  {
    "name": "Oshkosh B'Gosh",
    "description": "Clothing Stores",
    "phone": "(813) 643-1924",
    "address": "569 Brandon Town Center Mall  Brandon, FL 33511",
    "location": "Bay"
  },
  {
    "name": "abercrombie kids",
    "description": "Clothing Stores",
    "phone": "(813) 681-8895",
    "address": "421 Brandon Town Center Mall  Brandon, FL 33511",
    "location": "Bay"
  },
  {
    "name": "Reds Team Sports",
    "description": "Clothing Stores",
    "phone": "(813) 612-5999",
    "address": "4542 Eagle Falls Pl  Tampa, FL 33619",
    "location": "Bay"
  },
  {
    "name": "Boot Barn",
    "description": "Clothing Stores",
    "phone": "(813) 444-5655",
    "address": "9931 E Adamo Dr  Tampa, FL 33619",
    "location": "Bay"
  },
  {
    "name": "S.A. Elite",
    "description": "Clothing Stores",
    "phone": "(813) 654-7500",
    "address": "11335 Causeway Blvd  Brandon, FL 33511",
    "location": "Bay"
  },
  {
    "name": "Papaya Clothing",
    "description": "Clothing Stores",
    "phone": "(813) 684-7323",
    "address": "459 Brandon Town Center Mall # 446  Brandon, FL 33511",
    "location": "Bay"
  },
  {
    "name": "Avenue",
    "description": "Clothing Stores",
    "phone": "(813) 643-4060",
    "address": "2430 W Brandon Blvd  Brandon, FL 33511",
    "location": "Bay"
  },
  {
    "name": "Catherines Plus Sizes",
    "description": "Clothing Stores",
    "phone": "(813) 571-0880",
    "address": "11229 Causeway Blvd  Brandon, FL 33511",
    "location": "Bay"
  },
  {
    "name": "Tamela's Boutique",
    "description": "Clothing Stores",
    "phone": "(813) 653-2890",
    "address": "202 E Robertson St  Brandon, FL 33511",
    "location": "Bay"
  },
  {
    "name": "Cache",
    "description": "Clothing Stores",
    "phone": "(813) 684-0200",
    "address": "459 Brandon Town Center Mall  Brandon, FL 33511",
    "location": "Bay"
  },
  {
    "name": "Ceci Beauty & Fashion Inc",
    "description": "Clothing Stores",
    "phone": "(813) 657-4700",
    "address": "459 Brandon Town Center Mall  Brandon, FL 33511",
    "location": "Bay"
  },
  {
    "name": "Netties Closet",
    "description": "Clothing Stores",
    "phone": "(813) 381-3889",
    "address": "529 W Brandon Blvd  Brandon, FL 33511",
    "location": "Bay"
  },
  {
    "name": "Fly Fashion Inc",
    "description": "Clothing Stores",
    "phone": "(813) 653-3708",
    "address": "645 Brandon Town Center Mall  Brandon, FL 33511",
    "location": "Bay"
  },
  {
    "name": "White House | Black Market",
    "description": "Clothing Stores",
    "phone": "(813) 651-1308",
    "address": "872 Brandon Town Center Mall  Brandon, FL 33511",
    "location": "Bay"
  },
  {
    "name": "Rainbow",
    "description": "Clothing Stores",
    "phone": "(813) 820-5040",
    "address": "2476 W Brandon Blvd  Brandon, FL 33511",
    "location": "Bay"
  },
  {
    "name": "Buy Buy Baby",
    "description": "Clothing Stores",
    "phone": "(813) 661-7169",
    "address": "11345 Causeway Blvd  Brandon, FL 33511",
    "location": "Bay"
  },
  {
    "name": "Justice",
    "description": "Clothing Stores",
    "phone": "(813) 684-9583",
    "address": "566 Brandon Town Center Mall  Brandon, FL 33511",
    "location": "Bay"
  },
  {
    "name": "Julie's Walk In Closet",
    "description": "Clothing Stores",
    "phone": "(813) 381-3846",
    "address": "720 W Robertson St  Brandon, FL 33511",
    "location": "Bay"
  },
  {
    "name": "The Children's Place",
    "description": "Clothing Stores",
    "phone": "(813) 681-1322",
    "address": "592 Brandon Town Center Mall  Brandon, FL 33511",
    "location": "Bay"
  },
  {
    "name": "Custom Tshirts",
    "description": "Clothing Stores",
    "phone": "(813) 689-6377",
    "address": "459 Brandon Town Center Mall  Brandon, FL 33511",
    "location": "Bay"
  },
  {
    "name": "TeeMalls",
    "description": "Clothing Stores",
    "phone": "(888) 491-8876",
    "address": "4618 Eagle Falls Pl  Tampa, FL 33619",
    "location": "Bay"
  },
  {
    "name": "T Shirt Station Shops",
    "description": "Clothing Stores",
    "phone": "(813) 653-2009",
    "address": "950 Brandon Town Center Mall  Brandon, FL 33511",
    "location": "Bay"
  },
  {
    "name": "Rink Side Sports",
    "description": "Clothing Stores",
    "phone": "(813) 643-6404",
    "address": "10222 Elizabeth Pl  Tampa, FL 33619",
    "location": "Bay"
  },
  {
    "name": "Speedy Pros Inc",
    "description": "Clothing Stores",
    "phone": "(813) 324-8838",
    "address": "725 Lidhia Binecrest Rd  Tampa, FL 33619",
    "location": "Bay"
  },
  {
    "name": "Torrid",
    "description": "Clothing Stores",
    "phone": "(813) 657-1646",
    "address": "459 Brandon Town Center Mall  Brandon, FL 33511",
    "location": "Bay"
  },
  {
    "name": "Georggis Menswear",
    "description": "Clothing Stores",
    "phone": "(813) 653-3124",
    "address": "435 E Brandon Blvd Ste A  Brandon, FL 33511",
    "location": "Bay"
  },
  {
    "name": "Diva Consignment Boutique",
    "description": "Consignment Service",
    "phone": "(813) 681-5500",
    "address": "206 Oakfield Dr  Brandon, FL 33511",
    "location": "Bay"
  },
  {
    "name": "Lane Bryant",
    "description": "Women's Clothing",
    "phone": "(813) 689-6811",
    "address": "621 Brandon Town Center Mall  Brandon, FL 33511",
    "location": "Bay"
  },
  {
    "name": "Wal-Mart",
    "description": "General Merchandise",
    "phone": "(813) 689-4778",
    "address": "2021 W Brandon Blvd  Brandon, FL 33511",
    "location": "Bay"
  },
  {
    "name": "Sam's Club",
    "description": "Consumer Electronics",
    "phone": "(813) 685-8223",
    "address": "2021 W Brandon Blvd  Brandon, FL 33511",
    "location": "Bay"
  },
  {
    "name": "Dillard's",
    "description": "Department Stores",
    "phone": "(813) 653-4436",
    "address": "303 Brandon Town Center Mall  Brandon, FL 33511",
    "location": "Bay"
  },
  {
    "name": "DICK'S Sporting Goods",
    "description": "Exercise & Fitness Equipment",
    "phone": "(813) 684-3100",
    "address": "901 Brandon Town Center Mall  Brandon, FL 33511",
    "location": "Bay"
  },
  {
    "name": "Rack Room Shoes",
    "description": "Shoe Stores",
    "phone": "(813) 653-2260",
    "address": "314 Brandon Town Center Mall  Brandon, FL 33511",
    "location": "Bay"
  },
  {
    "name": "Lady Foot Locker",
    "description": "Shoe Stores",
    "phone": "(813) 685-8349",
    "address": "615 Brandon Town Center Mall  Brandon, FL 33511",
    "location": "Bay"
  },
  {
    "name": "Motherhood Maternity",
    "description": "Maternity Clothes",
    "phone": "(813) 662-3539",
    "address": "638 Brandon Town Center Mall  Brandon, FL 33511",
    "location": "Bay"
  },
  {
    "name": "Vans",
    "description": "Shoe Stores",
    "phone": "(813) 681-9184",
    "address": "614 Brandon Town Center Dr  Brandon, FL 33511",
    "location": "Bay"
  },
  {
    "name": "Dave Dorsey Enterprises Inc",
    "description": "Uniforms-Manufacturers & Wholesale",
    "phone": "(813) 681-7685",
    "address": "222 Oakfield Dr  Brandon, FL 33511",
    "location": "Bay"
  },
  {
    "name": "Crocs",
    "description": "Shoe Stores",
    "phone": "(813) 657-7000",
    "address": "459 Brandon Town Center Mall  Brandon, FL 33511",
    "location": "Bay"
  },
  {
    "name": "Finish Line",
    "description": "Shoe Stores",
    "phone": "(813) 684-0118",
    "address": "622 Brandon Town Center Mall  Brandon, FL 33511",
    "location": "Bay"
  },
  {
    "name": "Champs Sports",
    "description": "Sportswear",
    "phone": "(813) 685-8514",
    "address": "654 Brandon Town Center Mall  Brandon, FL 33511",
    "location": "Bay"
  },
  {
    "name": "Foot Locker",
    "description": "Shoe Stores",
    "phone": "(813) 685-8417",
    "address": "351 Brandon Town Center Mall  Brandon, FL 33511",
    "location": "Bay"
  },
  {
    "name": "Famous Footwear",
    "description": "Shoe Stores",
    "phone": "(813) 681-9215",
    "address": "2448 W Brandon Blvd  Brandon, FL 33511",
    "location": "Bay"
  },
  {
    "name": "Michael Kors",
    "description": "Women's Clothing",
    "phone": "(813) 413-3310",
    "address": "909 Brandon Town Center  Brandon, FL 33511",
    "location": "Bay"
  },
  {
    "name": "Victoria's Secret & PINK by Victoria's Secret",
    "description": "Lingerie",
    "phone": "(813) 651-2961",
    "address": "459 Brandon Town Center Mall  Brandon, FL 33511",
    "location": "Bay"
  },
  {
    "name": "Windsor (Westfield Brandon - Brandon, FL)",
    "description": "Women's Clothing",
    "phone": "(813) 654-7629",
    "address": "316 Brandon Town Center Mall  Brandon, FL 33511",
    "location": "Bay"
  },
  {
    "name": "MENSWEAR & TUX",
    "description": "Men's Clothing",
    "phone": "(813) 643-3294",
    "address": "2020 W Brandon Blvd Suite # 109  Brandon, FL 33511",
    "location": "Bay"
  },
  {
    "name": "Men's Wearhouse",
    "description": "Men's Clothing",
    "phone": "(813) 684-9454",
    "address": "115 Brandon Town Center Dr  Brandon, FL 33511",
    "location": "Bay"
  },
  {
    "name": "Talbots",
    "description": "Women's Clothing",
    "phone": "(813) 681-2219",
    "address": "413 Brandon Town Center Mall  Brandon, FL 33511",
    "location": "Bay"
  },
  {
    "name": "Casual Male XL",
    "description": "Men's Clothing",
    "phone": "(813) 651-4096",
    "address": "103 Brandon Town Center Dr  Brandon, FL 33511",
    "location": "Bay"
  },
  {
    "name": "Villages Of Bloomingdale",
    "description": "Department Stores",
    "phone": "(813) 621-6170",
    "address": "9516 Newdale Way  Riverview, FL 33578",
    "location": "Bay"
  },
  {
    "name": "Play It Again Sports",
    "description": "Sporting Goods",
    "phone": "(813) 661-4141",
    "address": "744 W Lumsden Rd  Brandon, FL 33511",
    "location": "Bay"
  },
  {
    "name": "Easy Spirit",
    "description": "Shoe Stores",
    "phone": "(813) 571-2593",
    "address": "573 Brandon Town Center Mall  Brandon, FL 33511",
    "location": "Bay"
  },
  {
    "name": "The PUMA Store",
    "description": "Shoe Stores",
    "phone": "(813) 324-7295",
    "address": "1463 Oakfield Dr  Brandon, FL 33511",
    "location": "Bay"
  },
  {
    "name": "HSN Retail Outlet",
    "description": "Department Stores",
    "phone": "(813) 654-4192",
    "address": "225 W Brandon Blvd  Brandon, FL 33511",
    "location": "Bay"
  },
  {
    "name": "Pro Image",
    "description": "Sportswear",
    "phone": "(813) 571-5517",
    "address": "459 Brandon Town Center Mall  Brandon, FL 33511",
    "location": "Bay"
  },
  {
    "name": "SKECHERS Retail",
    "description": "Shoe Stores",
    "phone": "(813) 685-4433",
    "address": "459 Brandon Town Center Mall  Brandon, FL 33511",
    "location": "Bay"
  },
  {
    "name": "Lids",
    "description": "Hat Shops",
    "phone": "(813) 684-0942",
    "address": "455 Brandon Town Center Mall  Brandon, FL 33511",
    "location": "Bay"
  },
  {
    "name": "Finish Line at Macy's",
    "description": "Shoe Stores",
    "phone": "(813) 651-5200",
    "address": "638 Brandon Town Center Mall  Brandon, FL 33511",
    "location": "Bay"
  },
  {
    "name": "B12 Store",
    "description": "General Merchandise",
    "phone": "(813) 654-5054",
    "address": "873 Brandon Town Center Mall  Brandon, FL 33511",
    "location": "Bay"
  },
  {
    "name": "Luminosity",
    "description": "Department Stores",
    "phone": "(813) 681-7514",
    "address": "339 Brandon Town Center Mall  Brandon, FL 33511",
    "location": "Bay"
  },
  {
    "name": "Lululemon",
    "description": "Sportswear",
    "phone": "(813) 654-4163",
    "address": "904 Brandon Town Center Mall  Brandon, FL 33511",
    "location": "Bay"
  },
  {
    "name": "Swim N Sports",
    "description": "Sportswear",
    "phone": "(813) 653-2095",
    "address": "931 Brandon Town Center Mall  Brandon, FL 33511",
    "location": "Bay"
  },
  {
    "name": "As Seen On TV and More",
    "description": "Variety Stores",
    "phone": "(813) 381-3911",
    "address": "321 Brandon Town Center Mall  Brandon, FL 33511",
    "location": "Bay"
  },
  {
    "name": "Wallace Sales Inc",
    "description": "Department Stores",
    "phone": "(813) 685-4622",
    "address": "501 S Falkenburg Rd  Tampa, FL 33619",
    "location": "Bay"
  },
  {
    "name": "Phat Fashions",
    "description": "Women's Clothing",
    "phone": "(813) 641-7788",
    "address": "517 N Us Highway 41  Ruskin, FL 33570",
    "location": "Bay"
  },
  {
    "name": "Urban Styles Shop",
    "description": "Women's Clothing",
    "phone": "(813) 672-8400",
    "address": "5557 S 78th St  Tampa, FL 33619",
    "location": "Bay"
  },
  {
    "name": "Lujeanik",
    "description": "Women's Clothing",
    "phone": "(813) 409-2551",
    "address": "224 Oakfield Dr  Brandon, FL 33511",
    "location": "Bay"
  },
  {
    "name": "Body Shop",
    "description": "Women's Clothing",
    "phone": "(813) 655-4337",
    "address": "578 Brandon Town Center Mall  Brandon, FL 33511",
    "location": "Bay"
  },
  {
    "name": "Body Central",
    "description": "Women's Clothing",
    "phone": "(813) 655-4337",
    "address": "578 Brandon Town Center Mall  Brandon, FL 33511",
    "location": "Bay"
  },
  {
    "name": "House of Vixen",
    "description": "Women's Clothing",
    "phone": "(813) 360-0647",
    "address": "2406 E State Road 60  Valrico, FL 33594",
    "location": "Bay"
  },
  {
    "name": "Windsor",
    "description": "Women's Clothing",
    "phone": "(813) 654-7629",
    "address": "459 Brandon Town Center Mall  Brandon, FL 33511",
    "location": "Bay"
  },
  {
    "name": "Blu Spero",
    "description": "Women's Fashion Accessories",
    "phone": "(813) 381-3929",
    "address": "459 Brandon Town Center Mall  Brandon, FL 33511",
    "location": "Bay"
  },
  {
    "name": "Windsor Fashions",
    "description": "Women's Clothing",
    "phone": "(813) 654-7803",
    "address": "459 Brandon Town Center Mall  Brandon, FL 33511",
    "location": "Bay"
  },
  {
    "name": "The Limited",
    "description": "Women's Clothing",
    "phone": "(813) 654-6873",
    "address": "413 Brandon Town Center Mall  Brandon, FL 33511",
    "location": "Bay"
  },
  {
    "name": "Francesca's",
    "description": "Women's Clothing",
    "phone": "(813) 315-3161",
    "address": "406 Brandon Town Center Mall  Brandon, FL 33511",
    "location": "Bay"
  },
  {
    "name": "Ann Taylor",
    "description": "Women's Clothing",
    "phone": "(813) 684-5405",
    "address": "403 Brandon Town Center Mall  Brandon, FL 33511",
    "location": "Bay"
  },
  {
    "name": "Cato",
    "description": "Women's Clothing",
    "phone": "(813) 685-6980",
    "address": "201 Thorn Tree Pl  Brandon, FL 33510",
    "location": "Bay"
  },
  {
    "name": "Metro Park Usa Inc",
    "description": "Men's Clothing",
    "phone": "(813) 689-1747",
    "address": "853 Brandon Town Center Mall  Brandon, FL 33511",
    "location": "Bay"
  },
  {
    "name": "bebe",
    "description": "Women's Clothing",
    "phone": "(813) 653-2923",
    "address": "904 Brandon Town Center Mall  Brandon, FL 33511",
    "location": "Bay"
  },
  {
    "name": "BCBGMAXAZRIA",
    "description": "Women's Clothing",
    "phone": "(813) 655-1279",
    "address": "303 Brandon Town Center Mall  Brandon, FL 33511",
    "location": "Bay"
  },
  {
    "name": "TNT CLOTHING",
    "description": "Men's Clothing",
    "phone": "(813) 966-7933",
    "address": "8216 Causeway Blvd  Tampa, FL 33619",
    "location": "Bay"
  },
  {
    "name": "DressBarn",
    "description": "Women's Clothing",
    "phone": "(813) 571-9994",
    "address": "2476 W Brandon Blvd  Brandon, FL 33511",
    "location": "Bay"
  },
  {
    "name": "A. A. Casey Co.",
    "description": "Clothing Stores",
    "phone": "(844) 372-6123",
    "address": "5124 N Nebraska Ave  Tampa, FL 33603",
    "location": "Bay"
  },
  {
    "name": "El Changarrito Mexicano",
    "description": "Men's Clothing",
    "phone": "(813) 531-1931",
    "address": "1204 S 22nd St  Tampa, FL 33605",
    "location": "Bay"
  }
]