[
  {
    "name": "Woods 2 Water Apparel",
    "description": "Clothing Stores",
    "phone": "(321) 225-4293",
    "address": "2400 S Hopkins Ave  Titusville, FL 32780",
    "location": "Brevard"
  },
  {
    "name": "Dots",
    "description": "Clothing Stores",
    "phone": "(321) 567-3527",
    "address": "4424 S Hopkins Ave  Titusville, FL 32780",
    "location": "Brevard"
  },
  {
    "name": "Reelistic Apparel",
    "description": "Clothing Stores",
    "phone": "(321) 480-1370",
    "address": "1990 Old Dixie Hwy  Titusville, FL 32796",
    "location": "Brevard"
  },
  {
    "name": "Gerb USA",
    "description": "Clothing Stores",
    "phone": "(321) 525-1406",
    "address": "5614 Jamaica Rd  Cocoa, FL 32927",
    "location": "Brevard"
  },
  {
    "name": "It's Sew Adorable",
    "description": "Clothing Stores",
    "phone": "(321) 622-6815",
    "address": "6059 Apple Ave  Cocoa, FL 32927",
    "location": "Brevard"
  },
  {
    "name": "Vratim",
    "description": "Clothing Stores",
    "phone": "(321) 806-3249",
    "address": "150 Venetian Way  Merritt Island, FL 32953",
    "location": "Brevard"
  },
  {
    "name": "A & M Auto Salvage",
    "description": "Clothing Stores",
    "phone": "(321) 307-2310",
    "address": "2617 Aurora Road  Melbourne, FL 32935",
    "location": "Brevard"
  },
  {
    "name": "Sears",
    "description": "Clothing Stores",
    "phone": "(321) 268-9255",
    "address": "3550 S Washington Ave  Titusville, FL 32780",
    "location": "Brevard"
  },
  {
    "name": "Bealls",
    "description": "Clothing Stores",
    "phone": "(321) 269-7590",
    "address": "2424 S Washington Ave  Titusville, FL 32780",
    "location": "Brevard"
  },
  {
    "name": "Bealls Department Store",
    "description": "Clothing Stores",
    "phone": "(321) 269-7590",
    "address": "2424 S Washington Ave  Titusville, FL 32780",
    "location": "Brevard"
  },
  {
    "name": "Random Wears",
    "description": "Clothing Stores",
    "phone": "(321) 567-4901",
    "address": "1714 Riverside Dr  Titusville, FL 32780",
    "location": "Brevard"
  },
  {
    "name": "Diverse Fashions",
    "description": "Clothing Stores",
    "phone": "(321) 268-8950",
    "address": "3550 S Washington Ave  Titusville, FL 32780",
    "location": "Brevard"
  },
  {
    "name": "Bealls Outlet Stores",
    "description": "Clothing Stores",
    "phone": "(321) 383-8785",
    "address": "3550 S Washington Ave Ste 17  Titusville, FL 32780",
    "location": "Brevard"
  },
  {
    "name": "JCPenney",
    "description": "Clothing Stores",
    "phone": "(321) 269-5723",
    "address": "500 S Washington Ave  Titusville, FL 32796",
    "location": "Brevard"
  },
  {
    "name": "Marshalls",
    "description": "Clothing Stores",
    "phone": "(321) 264-1579",
    "address": "3055 Columbia Blvd  Titusville, FL 32780",
    "location": "Brevard"
  },
  {
    "name": "Five Below",
    "description": "Clothing Stores",
    "phone": "(321) 499-6667",
    "address": "3055 Columbia Blvd  Titusville, FL 32780",
    "location": "Brevard"
  },
  {
    "name": "Pike Products, Inc. Space Shirts",
    "description": "Clothing Stores",
    "phone": "(321) 453-7453",
    "address": "6116 N Courtenay Pkwy  Merritt Island, FL 32953",
    "location": "Brevard"
  },
  {
    "name": "Rack Room Shoes",
    "description": "Shoe Stores",
    "phone": "(321) 269-1733",
    "address": "2530 S Washington Ave Ste 102  Titusville, FL 32780",
    "location": "Brevard"
  },
  {
    "name": "Old Dead Eye Golf",
    "description": "Golf Equipment & Supplies-Wholesale & Manufacturers",
    "phone": "(321) 543-0646",
    "address": "774 Florencia Cir  Titusville, FL 32780",
    "location": "Brevard"
  },
  {
    "name": "Styles Unlimited",
    "description": "Beauty Salons",
    "phone": "(321) 269-4091",
    "address": "3550 S Washington Ave  Titusville, FL 32780",
    "location": "Brevard"
  },
  {
    "name": "Male",
    "description": "Tuxedos",
    "phone": "(321) 269-4589",
    "address": "3550 S Washington Ave  Titusville, FL 32780",
    "location": "Brevard"
  },
  {
    "name": "Bedlam Skateboards",
    "description": "Men's Clothing",
    "phone": "(321) 362-5388",
    "address": "1137 S Hopkins Ave  Titusville, FL 32780",
    "location": "Brevard"
  },
  {
    "name": "Walmart Supercenter",
    "description": "General Merchandise",
    "phone": "(321) 267-5825",
    "address": "3175 Cheney Hwy  Titusville, FL 32780",
    "location": "Brevard"
  },
  {
    "name": "Belk",
    "description": "Department Stores",
    "phone": "(321) 267-1511",
    "address": "3275 Garden St  Titusville, FL 32796",
    "location": "Brevard"
  },
  {
    "name": "Hibbett Sports",
    "description": "Sporting Goods",
    "phone": "(321) 269-2879",
    "address": "3065 Columbia Blvd  Titusville, FL 32780",
    "location": "Brevard"
  },
  {
    "name": "Tropical Teez Screen Printing",
    "description": "Screen Printing",
    "phone": "(321) 267-6804",
    "address": "3741 Dairy Rd  Titusville, FL 32796",
    "location": "Brevard"
  },
  {
    "name": "Vanity",
    "description": "Women's Clothing",
    "phone": "(321) 978-5444",
    "address": "684 West Ave  Cocoa, FL 32927",
    "location": "Brevard"
  },
  {
    "name": "PIRATA Group LLC",
    "description": "Men's Clothing Wholesalers & Manufacturers",
    "phone": "(877) 366-0616",
    "address": "2460 N Courtenay Pkwy  Merritt Island, FL 32953",
    "location": "Brevard"
  },
  {
    "name": "Observation Deck",
    "description": "Department Stores",
    "phone": "(321) 783-1848",
    "address": "101 A Max Blewer Pkwy  Titusville, FL 32976",
    "location": "Brevard"
  }
]