[
  {
    "name": "Pink Seahorse Boutique",
    "description": "Clothing Stores",
    "phone": "(904) 874-5175",
    "address": "1671 Margarets Walk Rd  Fleming Island, FL 32003",
    "location": "Clay"
  },
  {
    "name": "Wade's World",
    "description": "Clothing Stores",
    "phone": "(904) 644-8098",
    "address": "1489 County Road 220  Fleming Island, FL 32003",
    "location": "Clay"
  },
  {
    "name": "Rue21",
    "description": "Clothing Stores",
    "phone": "(904) 269-5259",
    "address": "1910 Wells Road A 10a  Orange Park, FL 32073",
    "location": "Clay"
  },
  {
    "name": "Stein Mart",
    "description": "Clothing Stores",
    "phone": "(904) 215-8260",
    "address": "1514 County Road 220  Fleming Island, FL 32003",
    "location": "Clay"
  },
  {
    "name": "HalfPipe Orange Park",
    "description": "Clothing Stores",
    "phone": "(904) 276-0047",
    "address": "179 College Dr Ste 18  Orange Park, FL 32065",
    "location": "Clay"
  },
  {
    "name": "HAI Solutions",
    "description": "Clothing Stores",
    "phone": "(904) 849-5482",
    "address": "1293 Harbour Town Dr  Orange Park, FL 32065",
    "location": "Clay"
  },
  {
    "name": "The Supply Bunker",
    "description": "Clothing Stores",
    "phone": "(904) 375-9795",
    "address": "1280 Blanding Blvd  Orange Park, FL 32065",
    "location": "Clay"
  },
  {
    "name": "B N B Boutique",
    "description": "Clothing Stores",
    "phone": "(904) 710-9224",
    "address": "950 Blanding Blvd Ste 23  Orange Park, FL 32065",
    "location": "Clay"
  },
  {
    "name": "ABDS Inc",
    "description": "Clothing Stores",
    "phone": "(904) 677-0627",
    "address": "555F Blanding Blvd  Orange Park, FL 32073",
    "location": "Clay"
  },
  {
    "name": "Adam Last Wear",
    "description": "Clothing Stores",
    "phone": "(904) 458-4380",
    "address": "1988 Kingsley Ave  Orange Park, FL 32073",
    "location": "Clay"
  },
  {
    "name": "HR Formal Wear",
    "description": "Clothing Stores",
    "phone": "(617) 991-0503",
    "address": "1205 Kingsley Ave  Orange Park, FL 32073",
    "location": "Clay"
  },
  {
    "name": "SEPHORA at Kohl's",
    "description": "Clothing Stores",
    "phone": "(904) 269-7034",
    "address": "1995 Eastwest Pkwy  Fleming Island, FL 32003",
    "location": "Clay"
  },
  {
    "name": "Chocolate Shoe Boutique",
    "description": "Clothing Stores",
    "phone": "(904) 269-1976",
    "address": "1524 CR 220, #6  Fleming Island, FL 32003",
    "location": "Clay"
  },
  {
    "name": "Marshalls",
    "description": "Clothing Stores",
    "phone": "(904) 272-1792",
    "address": "661 Blanding Blvd  Orange Park, FL 32073",
    "location": "Clay"
  },
  {
    "name": "Bealls",
    "description": "Clothing Stores",
    "phone": "(904) 272-3204",
    "address": "950 Blanding Blvd  Orange Park, FL 32065",
    "location": "Clay"
  },
  {
    "name": "Style Boutique by JP Fashions",
    "description": "Clothing Stores",
    "phone": "(904) 579-3057",
    "address": "1811 Golden Eagle Way Ste 28  Fleming Island, FL 32003",
    "location": "Clay"
  },
  {
    "name": "MoonBabies Children's Resale",
    "description": "Clothing Stores",
    "phone": "(904) 337-0978",
    "address": "1805 Eastwest Pkwy  Fleming Island, FL 32003",
    "location": "Clay"
  },
  {
    "name": "Boot Barn",
    "description": "Clothing Stores",
    "phone": "(904) 264-3838",
    "address": "249 Blanding Blvd  Orange Park, FL 32073",
    "location": "Clay"
  },
  {
    "name": "The Ink Cartel Print Shop",
    "description": "Clothing Stores",
    "phone": "(904) 762-8187",
    "address": "1165 Spanish Bay Ct  Orange Park, FL 32065",
    "location": "Clay"
  },
  {
    "name": "Bealls Outlet Stores",
    "description": "Clothing Stores",
    "phone": "(904) 272-3204",
    "address": "950 Blanding Blvd  Orange Park, FL 32065",
    "location": "Clay"
  },
  {
    "name": "Bealls Department Store",
    "description": "Clothing Stores",
    "phone": "(904) 272-0757",
    "address": "510 Blanding Blvd  Orange Park, FL 32073",
    "location": "Clay"
  },
  {
    "name": "Justice",
    "description": "Clothing Stores",
    "phone": "(904) 215-3424",
    "address": "1987 Eastwest Pkwy  Fleming Island, FL 32003",
    "location": "Clay"
  },
  {
    "name": "All Laced Up Lingerie",
    "description": "Clothing Stores",
    "phone": "(904) 375-9832",
    "address": "365 College Dr Ste 105  Middleburg, FL 32068",
    "location": "Clay"
  },
  {
    "name": "Custom Shirts & Uniforms",
    "description": "Clothing Stores",
    "phone": "(904) 479-4420",
    "address": "2285 Kingsley Ave Ste D  Orange Park, FL 32073",
    "location": "Clay"
  },
  {
    "name": "Southeast Screenprinting",
    "description": "Clothing Stores",
    "phone": "(904) 272-6645",
    "address": "2175 Kingsley Ave  Orange Park, FL 32073",
    "location": "Clay"
  },
  {
    "name": "Ross Dress for Less",
    "description": "Clothing Stores",
    "phone": "(904) 272-4905",
    "address": "510 Blanding Blvd  Orange Park, FL 32073",
    "location": "Clay"
  },
  {
    "name": "Cotton On",
    "description": "Clothing Stores",
    "phone": "(904) 278-8988",
    "address": "1910 Wells Rd  Orange Park, FL 32073",
    "location": "Clay"
  },
  {
    "name": "Zumiez",
    "description": "Clothing Stores",
    "phone": "(904) 215-9356",
    "address": "1910 Wells Rd  Orange Park, FL 32073",
    "location": "Clay"
  },
  {
    "name": "Uptown Cheapskate",
    "description": "Clothing Stores",
    "phone": "(904) 438-5258",
    "address": "10601 San Jose Blvd  Jacksonville, FL 32257",
    "location": "Clay"
  },
  {
    "name": "AÃ©ropostale",
    "description": "Clothing Stores",
    "phone": "(904) 278-6762",
    "address": "1910 Wells Rd  Orange Park, FL 32073",
    "location": "Clay"
  },
  {
    "name": "Love Rosey",
    "description": "Clothing Stores",
    "phone": "(904) 312-0421",
    "address": "1910 Wells Rd  Orange Park, FL 32073",
    "location": "Clay"
  },
  {
    "name": "Clothes Mentor",
    "description": "Clothing Stores",
    "phone": "(904) 527-3382",
    "address": "11112 San Jose Blvd., Unit 5  Jacksonville, FL 32223",
    "location": "Clay"
  },
  {
    "name": "Fashion Dollz Boutique",
    "description": "Clothing Stores",
    "phone": "(904) 844-9770",
    "address": "1910 Wells Rd  Orange Park, FL 32073",
    "location": "Clay"
  },
  {
    "name": "Mandarin Express",
    "description": "Clothing Stores",
    "phone": "(904) 264-2003",
    "address": "1910 Wells Rd  Orange Park, FL 32073",
    "location": "Clay"
  },
  {
    "name": "Buckle",
    "description": "Clothing Stores",
    "phone": "(904) 269-8816",
    "address": "1900 Wells Rd  Orange Park, FL 32073",
    "location": "Clay"
  },
  {
    "name": "Finish Line",
    "description": "Clothing Stores",
    "phone": "(904) 264-5225",
    "address": "1910 Wells Rd  Orange Park, FL 32073",
    "location": "Clay"
  },
  {
    "name": "Tonieh Fashions and Cosignment",
    "description": "Clothing Stores",
    "phone": "(904) 516-8446",
    "address": "1236 Harbour Town Dr  Orange Park, FL 32065",
    "location": "Clay"
  },
  {
    "name": "youravon.com/cleckrone",
    "description": "Clothing Stores",
    "phone": "(904) 485-7694",
    "address": "130 mars ct  orange park, FL 32073",
    "location": "Clay"
  },
  {
    "name": "Sunshine Fashions",
    "description": "Clothing Stores",
    "phone": "(904) 213-0759",
    "address": "3314 Country Club Blvd  Orange Park, FL 32073",
    "location": "Clay"
  },
  {
    "name": "DoYou247",
    "description": "Clothing Stores",
    "phone": "(904) 990-7496",
    "address": "1120 Park Ave  Orange Park, FL 32073",
    "location": "Clay"
  },
  {
    "name": "On Time Fashion",
    "description": "Clothing Stores",
    "phone": "(904) 375-9795",
    "address": "66 Blanding Blvd  Orange Park, FL 32073",
    "location": "Clay"
  },
  {
    "name": "Sophisticated Ladies of Excellence",
    "description": "Clothing Stores",
    "phone": "(904) 541-4714",
    "address": "1580 Wells Rd  Orange Park, FL 32073",
    "location": "Clay"
  },
  {
    "name": "F & T Apparel",
    "description": "Clothing Stores",
    "phone": "(610) 828-8400",
    "address": "600 Wells Rd  Orange Park, FL 32073",
    "location": "Clay"
  },
  {
    "name": "Stylo Clothing and Shoes for Women",
    "description": "Clothing Stores",
    "phone": "(904) 725-0660",
    "address": "11917 Remsen Rd  Jacksonville, FL 32223",
    "location": "Clay"
  },
  {
    "name": "My Clothing",
    "description": "Clothing Stores",
    "phone": "(904) 422-5881",
    "address": "25 Arrowwood Dr  Jacksonville, FL 32259",
    "location": "Clay"
  },
  {
    "name": "Lacoste",
    "description": "Clothing Stores",
    "phone": "(904) 262-8300",
    "address": "11594 Lake Ride Dr  Jacksonville, FL 32223",
    "location": "Clay"
  },
  {
    "name": "Snatched Fitness",
    "description": "Clothing Stores",
    "phone": "(904) 697-9591",
    "address": "10336 Walnut Bnd N  Jacksonville, FL 32257",
    "location": "Clay"
  },
  {
    "name": "Cheekadees",
    "description": "Clothing Stores",
    "phone": "(904) 371-5717",
    "address": "11345 Landing Estates Dr  Jacksonville, FL 32257",
    "location": "Clay"
  },
  {
    "name": "Makk Fashions",
    "description": "Clothing Stores",
    "phone": "(904) 580-6255",
    "address": "2750 Race Track Rd Ste 303  Saint Johns, FL 32259",
    "location": "Clay"
  },
  {
    "name": "JCPenney",
    "description": "Clothing Stores",
    "phone": "(904) 264-2772",
    "address": "1910 Wells Rd  Orange Park, FL 32073",
    "location": "Clay"
  },
  {
    "name": "JD Sports",
    "description": "Clothing Stores",
    "phone": "(904) 264-5225",
    "address": "1910 Wells Rd  Orange Park, FL 32073",
    "location": "Clay"
  },
  {
    "name": "Windsor",
    "description": "Clothing Stores",
    "phone": "(888) 495-4957",
    "address": "1910 Wells Rd  Orange Park, FL 32073",
    "location": "Clay"
  },
  {
    "name": "Journeys",
    "description": "Clothing Stores",
    "phone": "(904) 269-2927",
    "address": "1910 Wells Rd  Orange Park, FL 32073",
    "location": "Clay"
  },
  {
    "name": "Oshkosh B'Gosh",
    "description": "Clothing Stores",
    "phone": "(904) 292-4698",
    "address": "11111 San Jose Blvd Ste 42  Jacksonville, FL 32223",
    "location": "Clay"
  },
  {
    "name": "Sears",
    "description": "Clothing Stores",
    "phone": "(904) 269-8255",
    "address": "1910 Wells Rd  Orange Park, FL 32073",
    "location": "Clay"
  },
  {
    "name": "Crown Trophy",
    "description": "Clothing Stores",
    "phone": "(904) 260-4871",
    "address": "11792 San Jose Blvd  Jacksonville, FL 32223",
    "location": "Clay"
  },
  {
    "name": "Catherines Plus Sizes",
    "description": "Clothing Stores",
    "phone": "(904) 579-2372",
    "address": "68 Blanding Blvd  Orange Park, FL 32073",
    "location": "Clay"
  },
  {
    "name": "Maurices",
    "description": "Clothing Stores",
    "phone": "(904) 278-8660",
    "address": "1910 Wells Rd Ste A14  Orange Park, FL 32073",
    "location": "Clay"
  },
  {
    "name": "The Children's Place",
    "description": "Clothing Stores",
    "phone": "(904) 213-8007",
    "address": "1910 Wells Rd Spc 803  Orange Park, FL 32073",
    "location": "Clay"
  },
  {
    "name": "Avenue",
    "description": "Clothing Stores",
    "phone": "(904) 268-0899",
    "address": "11111 San Jose Blvd  Jacksonville, FL 32223",
    "location": "Clay"
  },
  {
    "name": "GARAGE",
    "description": "Clothing Stores",
    "phone": "(904) 414-4460",
    "address": "10500 San Jose Blvd  Jacksonville, FL 32257",
    "location": "Clay"
  },
  {
    "name": "Velocity Athletics",
    "description": "Clothing Stores",
    "phone": "(904) 880-4226",
    "address": "2950 Halcyon Ln Ste 503  Jacksonville, FL 32223",
    "location": "Clay"
  },
  {
    "name": "Courtneys Closet",
    "description": "Clothing Stores",
    "phone": "(904) 379-8497",
    "address": "10308 Marble Egret Dr  Jacksonville, FL 32257",
    "location": "Clay"
  },
  {
    "name": "American Eagle",
    "description": "Clothing Stores",
    "phone": "(904) 278-7041",
    "address": "1910 Wells Rd Ste G  Orange Park, FL 32073",
    "location": "Clay"
  },
  {
    "name": "Old Navy",
    "description": "Clothing Stores",
    "phone": "(904) 637-4577",
    "address": "1910 Wells Rd Ste H02  Orange Park, FL 32073",
    "location": "Clay"
  },
  {
    "name": "Hollister",
    "description": "Clothing Stores",
    "phone": "(904) 269-6180",
    "address": "1910 Wells Rd Ste C20A  Orange Park, FL 32073",
    "location": "Clay"
  },
  {
    "name": "Tillys",
    "description": "Clothing Stores",
    "phone": "(904) 264-0892",
    "address": "1910 Wells Rd  Orange Park, FL 32073",
    "location": "Clay"
  },
  {
    "name": "Charlotte Russe",
    "description": "Clothing Stores",
    "phone": "(904) 215-2419",
    "address": "1910 Wells Rd  Orange Park, FL 32073",
    "location": "Clay"
  },
  {
    "name": "T.J. Maxx",
    "description": "Clothing Stores",
    "phone": "(904) 260-6205",
    "address": "11111 San Jose Blvd Ste 16  Jacksonville, FL 32223",
    "location": "Clay"
  },
  {
    "name": "Burlington Coat Factory",
    "description": "Clothing Stores",
    "phone": "(904) 292-0081",
    "address": "11250 Old Saint Augustine Rd Ste 32  Jacksonville, FL 32257",
    "location": "Clay"
  },
  {
    "name": "Hot Topic",
    "description": "Clothing Stores",
    "phone": "(904) 264-1809",
    "address": "1910 Wells Rd # G-14  Orange Park, FL 32073",
    "location": "Clay"
  },
  {
    "name": "PacSun",
    "description": "Clothing Stores",
    "phone": "(904) 278-1910",
    "address": "1910 Wells Rd  Orange Park, FL 32073",
    "location": "Clay"
  },
  {
    "name": "Rue 21",
    "description": "Clothing Stores",
    "phone": "(904) 269-5259",
    "address": "1910 Wells Rd  Orange Park, FL 32073",
    "location": "Clay"
  },
  {
    "name": "New York & Company",
    "description": "Clothing Stores",
    "phone": "(904) 278-6816",
    "address": "1910 Wells Rd  Orange Park, FL 32073",
    "location": "Clay"
  },
  {
    "name": "Baker's Sports",
    "description": "Clothing Stores",
    "phone": "(904) 388-8126",
    "address": "3600 Beachwood Ct  Jacksonville, FL 32224",
    "location": "Clay"
  },
  {
    "name": "Island Cheer and Tumbling",
    "description": "Cheerleading",
    "phone": "(904) 327-2337",
    "address": "3245 Business Park Ct  Green Cove Springs, FL 32043",
    "location": "Clay"
  },
  {
    "name": "Academy Sports + Outdoors",
    "description": "Sporting Goods",
    "phone": "(904) 213-2080",
    "address": "661 Blanding Blvd  Orange Park, FL 32073",
    "location": "Clay"
  },
  {
    "name": "Walmart Supercenter",
    "description": "General Merchandise",
    "phone": "(904) 214-9411",
    "address": "1580 Branan Field Rd  Middleburg, FL 32068",
    "location": "Clay"
  },
  {
    "name": "Target",
    "description": "General Merchandise",
    "phone": "(904) 278-8652",
    "address": "1490 County Road 220  Orange Park, FL 32003",
    "location": "Clay"
  },
  {
    "name": "Home Centric",
    "description": "Housewares",
    "phone": "(904) 272-3204",
    "address": "950 Blanding Blvd Ste 16  Orange Park, FL 32065",
    "location": "Clay"
  },
  {
    "name": "Bealls Florida",
    "description": "Home Furnishings",
    "phone": "(904) 272-0757",
    "address": "510 Blanding Blvd  Orange Park, FL 32073",
    "location": "Clay"
  },
  {
    "name": "Town & Country Alterations & Cleaners",
    "description": "Bridal Shops",
    "phone": "(904) 213-9449",
    "address": "1101 Blanding Blvd Ste 121-b  Orange Park, FL 32065",
    "location": "Clay"
  },
  {
    "name": "Cato Fashions",
    "description": "Women's Clothing",
    "phone": "(904) 272-7887",
    "address": "661 Blanding Blvd  Orange Park, FL 32073",
    "location": "Clay"
  },
  {
    "name": "Clelia's Party Dresses",
    "description": "Women's Clothing",
    "phone": "(904) 342-2144",
    "address": "585 State Road 13  Saint Johns, FL 32259",
    "location": "Clay"
  },
  {
    "name": "The Pink nickl",
    "description": "Women's Clothing",
    "phone": "(904) 230-9288",
    "address": "108 Bartram Oaks Walk  Saint Johns, FL 32259",
    "location": "Clay"
  },
  {
    "name": "Store-Shopping-Center",
    "description": "Boys Clothing",
    "phone": "(904) 203-7263",
    "address": "3064 Tower Oaks Dr  Orange Park, FL 32065",
    "location": "Clay"
  },
  {
    "name": "Hibbett Sports",
    "description": "Sporting Goods",
    "phone": "(904) 215-1654",
    "address": "1991 Eastwest Pkwy  Fleming Island, FL 32003",
    "location": "Clay"
  },
  {
    "name": "Play to Win Sports Company Inc.",
    "description": "Embroidery",
    "phone": "(904) 735-2800",
    "address": "331 Parkridge Ave  Orange Park, FL 32065",
    "location": "Clay"
  },
  {
    "name": "Walmart",
    "description": "General Merchandise",
    "phone": "(904) 272-0036",
    "address": "661 Blanding Blvd  Orange Park, FL 32073",
    "location": "Clay"
  },
  {
    "name": "West Marine",
    "description": "Boat Equipment & Supplies",
    "phone": "(904) 458-1201",
    "address": "311 Blanding Blvd  Orange Park, FL 32073",
    "location": "Clay"
  },
  {
    "name": "Thrifty Dollar",
    "description": "Discount Stores",
    "phone": "(904) 644-8749",
    "address": "724 Kingsley Ave  Orange Park, FL 32073",
    "location": "Clay"
  },
  {
    "name": "VV Apparel",
    "description": "Women's Clothing",
    "phone": "(904) 449-6570",
    "address": "3869 Creek Hollow Ln  Middleburg, FL 32068",
    "location": "Clay"
  },
  {
    "name": "Avon Independent Sales Rep.",
    "description": "Bras",
    "phone": "(904) 282-0219",
    "address": "4614 Antelope St  Middleburg, FL 32068",
    "location": "Clay"
  },
  {
    "name": "Figaro Couture",
    "description": "Men's Clothing",
    "phone": "(904) 365-1493",
    "address": "3595 Live Oak Hollow Dr  Orange Park, FL 32065",
    "location": "Clay"
  },
  {
    "name": "Shops of Bartram Walk",
    "description": "Department Stores",
    "phone": "(904) 287-0334",
    "address": "112 Bartram Oaks Blvd  Saint Augustine, FL 32092",
    "location": "Clay"
  },
  {
    "name": "Dick's Sporting Goods",
    "description": "Exercise & Fitness Equipment",
    "phone": "(904) 215-0207",
    "address": "1910 Wells Rd  Orange Park, FL 32073",
    "location": "Clay"
  },
  {
    "name": "American Freight - Appliance, Furniture, Mattress",
    "description": "Discount Stores",
    "phone": "(904) 262-2203",
    "address": "11111 San Jose Blvd Ste 1  Jacksonville, FL 32223",
    "location": "Clay"
  },
  {
    "name": "Isyss&Company,LLC",
    "description": "Women's Clothing Wholesalers & Manufacturers",
    "phone": "(904) 458-7037",
    "address": "crossing blvd  orange park, FL 32073",
    "location": "Clay"
  },
  {
    "name": "Belk",
    "description": "Department Stores",
    "phone": "(904) 269-1211",
    "address": "1910 Wells Rd Lot 44  Orange Park, FL 32073",
    "location": "Clay"
  },
  {
    "name": "DTLR",
    "description": "Shoe Stores",
    "phone": "(904) 269-2294",
    "address": "1910 Wells Rd  Orange Park, FL 32073",
    "location": "Clay"
  },
  {
    "name": "Vans",
    "description": "Shoe Stores",
    "phone": "(904) 269-0833",
    "address": "1910 Wells Rd Ste H21B  Orange Park, FL 32073",
    "location": "Clay"
  },
  {
    "name": "Rack Room Shoes",
    "description": "Shoe Stores",
    "phone": "(904) 264-5005",
    "address": "1910 Wells Rd Ste J05  Orange Park, FL 32073",
    "location": "Clay"
  },
  {
    "name": "Champs Sports",
    "description": "Sportswear",
    "phone": "(904) 264-6122",
    "address": "1910 Wells Rd Ste F15B  Orange Park, FL 32073",
    "location": "Clay"
  },
  {
    "name": "Foot Locker",
    "description": "Shoe Stores",
    "phone": "(904) 269-6991",
    "address": "1910 Wells Rd Ste E17  Orange Park, FL 32073",
    "location": "Clay"
  },
  {
    "name": "Edwin Watts Golf",
    "description": "Golf Equipment & Supplies",
    "phone": "(904) 264-9801",
    "address": "1540 Wells Rd  Orange Park, FL 32073",
    "location": "Clay"
  },
  {
    "name": "Men's Wearhouse",
    "description": "Men's Clothing",
    "phone": "(904) 264-9199",
    "address": "1939 Wells Rd  Orange Park, FL 32073",
    "location": "Clay"
  },
  {
    "name": "Victoria's Secret & PINK by Victoria's Secret",
    "description": "Lingerie",
    "phone": "(904) 264-0132",
    "address": "1910 Wells Rd  Orange Park, FL 32073",
    "location": "Clay"
  },
  {
    "name": "Homesense",
    "description": "Housewares",
    "phone": "(904) 880-1845",
    "address": "11111 San Jose Blvd  Jacksonville, FL 32223",
    "location": "Clay"
  },
  {
    "name": "Up N Atom Closet Design",
    "description": "Closets & Accessories",
    "phone": "(904) 288-9799",
    "address": "12108 Weatherwood Estates Dr W  Jacksonville, FL 32223",
    "location": "Clay"
  },
  {
    "name": "Play It Again Sports",
    "description": "Sporting Goods",
    "phone": "(904) 272-1242",
    "address": "70 Blanding Blvd  Orange Park, FL 32073",
    "location": "Clay"
  },
  {
    "name": "S & S Menswear",
    "description": "Formal Wear Rental & Sales",
    "phone": "(904) 644-7192",
    "address": "1910 Wells Rd Ste D01b  Orange Park, FL 32073",
    "location": "Clay"
  },
  {
    "name": "Gayfers Department Stores",
    "description": "Department Stores",
    "phone": "(904) 278-9324",
    "address": "1910 Wells Rd  Orange Park, FL 32073",
    "location": "Clay"
  },
  {
    "name": "Legionmark",
    "description": "Department Stores",
    "phone": "(904) 385-0717",
    "address": "34 Industrial Loop N  Orange Park, FL 32073",
    "location": "Clay"
  },
  {
    "name": "Footaction USA",
    "description": "Shoe Stores",
    "phone": "(904) 269-0739",
    "address": "1910 Wells Rd Ste J9/10  Orange Park, FL 32073",
    "location": "Clay"
  },
  {
    "name": "Lids",
    "description": "Hat Shops",
    "phone": "(904) 278-6660",
    "address": "1910 Wells Rd  Orange Park, FL 32073",
    "location": "Clay"
  },
  {
    "name": "Frederick's of Hollywood",
    "description": "Lingerie",
    "phone": "(904) 269-9090",
    "address": "1910 Wells Rd  Orange Park, FL 32073",
    "location": "Clay"
  },
  {
    "name": "Angel Fashion",
    "description": "Women's Clothing",
    "phone": "(904) 541-0766",
    "address": "1910 Wells Rd Ste E21A  Orange Park, FL 32073",
    "location": "Clay"
  },
  {
    "name": "Instyle",
    "description": "Women's Clothing Wholesalers & Manufacturers",
    "phone": "(904) 602-5350",
    "address": "1910 Wells Rd  Orange Park, FL 32073",
    "location": "Clay"
  },
  {
    "name": "Body Central",
    "description": "Women's Clothing",
    "phone": "(904) 269-1224",
    "address": "1910 Wells Rd  Orange Park, FL 32073",
    "location": "Clay"
  },
  {
    "name": "Francesca's",
    "description": "Women's Clothing",
    "phone": "(904) 264-5740",
    "address": "1910 Wells Rd  Orange Park, FL 32073",
    "location": "Clay"
  },
  {
    "name": "Talbots",
    "description": "Women's Clothing",
    "phone": "(904) 262-8015",
    "address": "10311 Big Tree Ln  Jacksonville, FL 32257",
    "location": "Clay"
  },
  {
    "name": "Let's Inspire",
    "description": "Department Stores",
    "phone": "(904) 551-7532",
    "address": "12200 San Jose Blvd  Jacksonville, FL 32223",
    "location": "Clay"
  },
  {
    "name": "Lus Place",
    "description": "Sportswear",
    "phone": "(904) 217-3341",
    "address": "9155 County Road 13 N  Saint Augustine, FL 32092",
    "location": "Clay"
  },
  {
    "name": "Famous Footwear",
    "description": "Shoe Stores",
    "phone": "(904) 292-1393",
    "address": "11111 San Jose Blvd  Jacksonville, FL 32223",
    "location": "Clay"
  },
  {
    "name": "Sears Outlet",
    "description": "Discount Stores",
    "phone": "(904) 262-2203",
    "address": "11111 San Jose Blvd Ste 1  Jacksonville, FL 32223",
    "location": "Clay"
  },
  {
    "name": "Country Store",
    "description": "Women's Clothing",
    "phone": "(904) 940-3320",
    "address": "9155 County Road 13 N  Saint Augustine, FL 32092",
    "location": "Clay"
  },
  {
    "name": "An Avon Representative",
    "description": "Hair Supplies & Accessories",
    "phone": "(904) 504-4200",
    "address": "11570 N Ride Cir W  Jacksonville, FL 32223",
    "location": "Clay"
  },
  {
    "name": "Kim's Corner",
    "description": "Men's Clothing",
    "phone": "(904) 770-5579",
    "address": "1265 Paradise Pond Rd  Saint Augustine, FL 32092",
    "location": "Clay"
  },
  {
    "name": "Fifi's Fine Resale Apparel of Mandarin",
    "description": "Consignment Service",
    "phone": "(904) 288-0035",
    "address": "10400 San Jose Blvd  Jacksonville, FL 32257",
    "location": "Clay"
  },
  {
    "name": "Cycling and Fitness Centeinc",
    "description": "Sporting Goods",
    "phone": "(904) 277-3227",
    "address": "11 S 8th St  Fernandina Beach, FL 32034",
    "location": "Clay"
  }
]