[
  {
    "name": "Queen Custom Creations",
    "description": "Clothing Stores",
    "phone": "(941) 355-4230",
    "address": "1026 Colleton Dr  Sarasota, FL 34234",
    "location": "DeSoto"
  },
  {
    "name": "Topaz Design Group",
    "description": "Clothing Stores",
    "phone": "(941) 444-7939",
    "address": "1870 University Pkwy  Sarasota, FL 34243",
    "location": "DeSoto"
  },
  {
    "name": "Hot Topic",
    "description": "Clothing Stores",
    "phone": "(941) 924-8664",
    "address": "8201 Tamiami Trl  Sarasota, FL 34238",
    "location": "DeSoto"
  },
  {
    "name": "Print My T's",
    "description": "Clothing Stores",
    "phone": "(941) 225-9809",
    "address": "2040 Dr Martin Luther King Way  Sarasota, FL 34234",
    "location": "DeSoto"
  },
  {
    "name": "Jalal Fashion Inc",
    "description": "Clothing Stores",
    "phone": "(941) 924-4600",
    "address": "8201 Tamiami Trl  Sarasota, FL 34238",
    "location": "DeSoto"
  },
  {
    "name": "Fada Fashion",
    "description": "Clothing Stores",
    "phone": "(941) 312-5354",
    "address": "2000 N Washington Blvd Ste B  Sarasota, FL 34234",
    "location": "DeSoto"
  },
  {
    "name": "Eliett's On Palm",
    "description": "Clothing Stores",
    "phone": "(941) 953-2999",
    "address": "45 S Palm Ave  Sarasota, FL 34236",
    "location": "DeSoto"
  },
  {
    "name": "Go Fish Clothing & Jewelry",
    "description": "Clothing Stores",
    "phone": "(941) 953-5730",
    "address": "1463 Main St  Sarasota, FL 34236",
    "location": "DeSoto"
  },
  {
    "name": "Tiara Trading",
    "description": "Clothing Stores",
    "phone": "(941) 365-4554",
    "address": "1620 Main St  Sarasota, FL 34236",
    "location": "DeSoto"
  },
  {
    "name": "Elle La Peche",
    "description": "Clothing Stores",
    "phone": "(847) 340-6382",
    "address": "372 Montgomery Ave  Sarasota, FL 34243",
    "location": "DeSoto"
  },
  {
    "name": "I Tesori",
    "description": "Clothing Stores",
    "phone": "(941) 907-9296",
    "address": "1405 1st St  Sarasota, FL 34236",
    "location": "DeSoto"
  },
  {
    "name": "Rue 21",
    "description": "Clothing Stores",
    "phone": "(941) 373-6333",
    "address": "1439 Main St  Sarasota, FL 34236",
    "location": "DeSoto"
  },
  {
    "name": "Darci",
    "description": "Clothing Stores",
    "phone": "(941) 330-2800",
    "address": "1441 Main St  Sarasota, FL 34236",
    "location": "DeSoto"
  },
  {
    "name": "Mercantile",
    "description": "Clothing Stores",
    "phone": "(941) 366-2457",
    "address": "1463 Main St  Sarasota, FL 34236",
    "location": "DeSoto"
  },
  {
    "name": "Andi's List",
    "description": "Clothing Stores",
    "phone": "(941) 284-2020",
    "address": "553 Magellan Dr  Sarasota, FL 34243",
    "location": "DeSoto"
  },
  {
    "name": "Greiners Fine Mens Clothing",
    "description": "Clothing Stores",
    "phone": "(941) 343-2143",
    "address": "45 S Palm Ave  Sarasota, FL 34236",
    "location": "DeSoto"
  },
  {
    "name": "La Femme Fatale",
    "description": "Clothing Stores",
    "phone": "(941) 365-5100",
    "address": "80 S Palm Ave  Sarasota, FL 34236",
    "location": "DeSoto"
  },
  {
    "name": "Look at Me Now Urban Wear & Beauty Supply",
    "description": "Clothing Stores",
    "phone": "(941) 312-5989",
    "address": "3251 17th St  Sarasota, FL 34235",
    "location": "DeSoto"
  },
  {
    "name": "Souzou Design House",
    "description": "Clothing Stores",
    "phone": "(941) 376-3468",
    "address": "5891 Milton Ave  Sarasota, FL 34243",
    "location": "DeSoto"
  },
  {
    "name": "Rollo Enterprises",
    "description": "Clothing Stores",
    "phone": "(941) 349-4372",
    "address": "1685 Laurel St  Sarasota, FL 34236",
    "location": "DeSoto"
  },
  {
    "name": "Bold & Beautiful",
    "description": "Clothing Stores",
    "phone": "(941) 365-9109",
    "address": "2063 Fruitville Rd  Sarasota, FL 34237",
    "location": "DeSoto"
  },
  {
    "name": "Oh My Gauze!",
    "description": "Clothing Stores",
    "phone": "(941) 388-1964",
    "address": "374 Saint Armands Cir  Sarasota, FL 34236",
    "location": "DeSoto"
  },
  {
    "name": "Island Pursuit",
    "description": "Clothing Stores",
    "phone": "(941) 388-2849",
    "address": "400 Madison Dr Ste 206  Sarasota, FL 34236",
    "location": "DeSoto"
  },
  {
    "name": "Breezin' Up Inc",
    "description": "Clothing Stores",
    "phone": "(941) 388-2950",
    "address": "362 John Ringling Blvd  Sarasota, FL 34236",
    "location": "DeSoto"
  },
  {
    "name": "Ivory Coast",
    "description": "Clothing Stores",
    "phone": "(941) 388-1999",
    "address": "15 N Blvd Of The Presidents  Sarasota, FL 34236",
    "location": "DeSoto"
  },
  {
    "name": "Sahara",
    "description": "Clothing Stores",
    "phone": "(941) 388-0587",
    "address": "362 Saint Armands Cir  Sarasota, FL 34236",
    "location": "DeSoto"
  },
  {
    "name": "Everything But Water",
    "description": "Clothing Stores",
    "phone": "(941) 388-1205",
    "address": "331 John Ringling Blvd  Sarasota, FL 34236",
    "location": "DeSoto"
  },
  {
    "name": "Bealls Department Store",
    "description": "Clothing Stores",
    "phone": "(941) 953-4505",
    "address": "501 N Beneva Rd  Sarasota, FL 34232",
    "location": "DeSoto"
  },
  {
    "name": "Olivia",
    "description": "Clothing Stores",
    "phone": "(941) 388-1677",
    "address": "9 S Blvd Of Presidents  Sarasota, FL 34236",
    "location": "DeSoto"
  },
  {
    "name": "Foxy Lady Siesta Key Inc",
    "description": "Clothing Stores",
    "phone": "(941) 706-4611",
    "address": "14 S Blvd Of The Presidents  Sarasota, FL 34236",
    "location": "DeSoto"
  },
  {
    "name": "Tommy Bahama Store",
    "description": "Clothing Stores",
    "phone": "(941) 388-2446",
    "address": "371 Saint Armands Cir  Sarasota, FL 34236",
    "location": "DeSoto"
  },
  {
    "name": "Butterfly Beach",
    "description": "Clothing Stores",
    "phone": "(941) 346-6785",
    "address": "313 John Ringling Blvd  Sarasota, FL 34236",
    "location": "DeSoto"
  },
  {
    "name": "T.J. Maxx",
    "description": "Clothing Stores",
    "phone": "(941) 758-2222",
    "address": "6100 14th St W  Bradenton, FL 34207",
    "location": "DeSoto"
  },
  {
    "name": "Raffle Mike",
    "description": "Clothing Stores",
    "phone": "(941) 962-4711",
    "address": "6208 26th St W  Bradenton, FL 34207",
    "location": "DeSoto"
  },
  {
    "name": "Johnson Marketing Group",
    "description": "Clothing Stores",
    "phone": "(941) 955-3200",
    "address": "1727 Hyde Park St  Sarasota, FL 34239",
    "location": "DeSoto"
  },
  {
    "name": "Closet Divas",
    "description": "Clothing Stores",
    "phone": "(941) 927-7467",
    "address": "3576 Webber St  Sarasota, FL 34239",
    "location": "DeSoto"
  },
  {
    "name": "The DanceWEAR Shoppe",
    "description": "Clothing Stores",
    "phone": "(941) 312-6312",
    "address": "315 Interstate Blvd  Sarasota, FL 34240",
    "location": "DeSoto"
  },
  {
    "name": "Citi Trends",
    "description": "Clothing Stores",
    "phone": "(941) 877-2001",
    "address": "5108 15th St E Ste 501A  Bradenton, FL 34203",
    "location": "DeSoto"
  },
  {
    "name": "Rainbow Shops",
    "description": "Clothing Stores",
    "phone": "(941) 747-9573",
    "address": "303 301 Blvd W  Bradenton, FL 34205",
    "location": "DeSoto"
  },
  {
    "name": "Stockyard-Feed & Western Wear",
    "description": "Clothing Stores",
    "phone": "(941) 444-1771",
    "address": "1010 Cattlemen Rd  Sarasota, FL 34232",
    "location": "DeSoto"
  },
  {
    "name": "McMahon Fur Storage",
    "description": "Clothing Stores",
    "phone": "(941) 371-6041",
    "address": "233 Avant St  Sarasota, FL 34232",
    "location": "DeSoto"
  },
  {
    "name": "Stitchin' Waves",
    "description": "Clothing Stores",
    "phone": "(941) 929-1155",
    "address": "4433 S Tamiami Trl  Sarasota, FL 34231",
    "location": "DeSoto"
  },
  {
    "name": "King James Big and Tall",
    "description": "Clothing Stores",
    "phone": "(941) 922-1873",
    "address": "4333 S Tamiami Trl Ste D  Sarasota, FL 34231",
    "location": "DeSoto"
  },
  {
    "name": "Free People",
    "description": "Clothing Stores",
    "phone": "(941) 893-1175",
    "address": "140 University Town Center Dr Unit 246  Sarasota, FL 34243",
    "location": "DeSoto"
  },
  {
    "name": "LuLaRoe by Cathy L.",
    "description": "Clothing Stores",
    "phone": "(941) 216-6126",
    "address": "2128 Hyde Park Cir  Sarasota, FL 34239",
    "location": "DeSoto"
  },
  {
    "name": "These Quiet Sounds",
    "description": "Clothing Stores",
    "phone": "(941) 203-5108",
    "address": "3533 Tangier Ter  Sarasota, FL 34239",
    "location": "DeSoto"
  },
  {
    "name": "Srq Lady Fashion",
    "description": "Clothing Stores",
    "phone": "(941) 208-8128",
    "address": "PO Box 5942  Sarasota, FL 34277",
    "location": "DeSoto"
  },
  {
    "name": "Fashion Room",
    "description": "Clothing Stores",
    "phone": "(941) 952-3170",
    "address": "2083 Siesta Dr  Sarasota, FL 34239",
    "location": "DeSoto"
  },
  {
    "name": "Gap",
    "description": "Clothing Stores",
    "phone": "(941) 951-6115",
    "address": "3501 S Tamiami Trl  Sarasota, FL 34239",
    "location": "DeSoto"
  },
  {
    "name": "Abercrombie & Fitch",
    "description": "Clothing Stores",
    "phone": "(941) 366-8958",
    "address": "3501 S Tamiami Trl  Sarasota, FL 34239",
    "location": "DeSoto"
  },
  {
    "name": "Express",
    "description": "Clothing Stores",
    "phone": "(941) 366-6877",
    "address": "108 Southgate Mall  Sarasota, FL 34239",
    "location": "DeSoto"
  },
  {
    "name": "Stein Mart",
    "description": "Clothing Stores",
    "phone": "(941) 355-1300",
    "address": "125 N Cattlemen Rd  Sarasota, FL 34243",
    "location": "DeSoto"
  },
  {
    "name": "Eddie Bauer",
    "description": "Clothing Stores",
    "phone": "(941) 365-4536",
    "address": "747 Southgate Mall  Sarasota, FL 34239",
    "location": "DeSoto"
  },
  {
    "name": "Tommy Hilfiger",
    "description": "Clothing Stores",
    "phone": "(941) 953-9300",
    "address": "600 Southgate Plz  Sarasota, FL 34239",
    "location": "DeSoto"
  },
  {
    "name": "Tom Co",
    "description": "Clothing Stores",
    "phone": "(941) 306-4028",
    "address": "3625 Webber St  Sarasota, FL 34232",
    "location": "DeSoto"
  },
  {
    "name": "David Yurman at Saks Fifth Avenue",
    "description": "Clothing Stores",
    "phone": "(941) 364-5300",
    "address": "120 University Town Center Dr  Sarasota, FL 34243",
    "location": "DeSoto"
  },
  {
    "name": "American Eagle & Aerie",
    "description": "Clothing Stores",
    "phone": "(941) 256-0200",
    "address": "140 University Town Center Dr Unit 187  Sarasota, FL 34243",
    "location": "DeSoto"
  },
  {
    "name": "Banana Republic",
    "description": "Clothing Stores",
    "phone": "(941) 256-0442",
    "address": "140 University Town Center Dr Unit 283  Sarasota, FL 34243",
    "location": "DeSoto"
  },
  {
    "name": "Charlotte Tilbury",
    "description": "Clothing Stores",
    "phone": "(941) 702-9491",
    "address": "140 University Town Center Dr Unit 279  Sarasota, FL 34243",
    "location": "DeSoto"
  },
  {
    "name": "Hollister",
    "description": "Clothing Stores",
    "phone": "(941) 296-7046",
    "address": "140 University Town Center Dr  Sarasota, FL 34243",
    "location": "DeSoto"
  },
  {
    "name": "Buckle",
    "description": "Clothing Stores",
    "phone": "(941) 925-0458",
    "address": "140 University Town Center Dr Unit 190  Sarasota, FL 34243",
    "location": "DeSoto"
  },
  {
    "name": "Urban Outfitters",
    "description": "Clothing Stores",
    "phone": "(941) 213-1426",
    "address": "140 University Town Center Dr  Sarasota, FL 34243",
    "location": "DeSoto"
  },
  {
    "name": "UNTUCKit",
    "description": "Clothing Stores",
    "phone": "(941) 724-8844",
    "address": "140 University Town Center Dr Unit 143  Sarasota, FL 34243",
    "location": "DeSoto"
  },
  {
    "name": "J. Crew",
    "description": "Clothing Stores",
    "phone": "(941) 893-3664",
    "address": "140 University Town Center Dr Unit 271  Sarasota, FL 34243",
    "location": "DeSoto"
  },
  {
    "name": "Tommy Bahama",
    "description": "Clothing Stores",
    "phone": "(941) 866-6614",
    "address": "140 University Town Center Dr Unit 164  Sarasota, FL 34243",
    "location": "DeSoto"
  },
  {
    "name": "PacSun",
    "description": "Clothing Stores",
    "phone": "(941) 866-6332",
    "address": "140 University Town Center Dr  Sarasota, FL 34243",
    "location": "DeSoto"
  },
  {
    "name": "Calypso St Barth",
    "description": "Clothing Stores",
    "phone": "(941) 306-1414",
    "address": "140 University Town Center Dr  Sarasota, FL 34243",
    "location": "DeSoto"
  },
  {
    "name": "H&M",
    "description": "Clothing Stores",
    "phone": "(941) 893-1148",
    "address": "140 University Town Center Dr  Sarasota, FL 34243",
    "location": "DeSoto"
  },
  {
    "name": "H&M (Hennes & Mauritz)",
    "description": "Clothing Stores",
    "phone": "(855) 466-7467",
    "address": "140 University Town Center Dr  Sarasota, FL 34243",
    "location": "DeSoto"
  },
  {
    "name": "Hugo Boss",
    "description": "Clothing Stores",
    "phone": "(941) 536-9000",
    "address": "140 University Town Center Dr Unit 261  Sarasota, FL 34243",
    "location": "DeSoto"
  },
  {
    "name": "Vineyard Vines",
    "description": "Clothing Stores",
    "phone": "(941) 926-6085",
    "address": "140 University Town Center Dr  Sarasota, FL 34243",
    "location": "DeSoto"
  },
  {
    "name": "Jenn's Personalized Impressions",
    "description": "Clothing Stores",
    "phone": "(941) 915-3896",
    "address": "5207 Indian Mound St  Sarasota, FL 34232",
    "location": "DeSoto"
  },
  {
    "name": "Eddy Dick & Jean",
    "description": "Clothing Stores",
    "phone": "(941) 371-2750",
    "address": "5248 Manz Pl  Sarasota, FL 34232",
    "location": "DeSoto"
  },
  {
    "name": "Stitchin' Kitty",
    "description": "Clothing Stores",
    "phone": "(941) 545-8591",
    "address": "2035 Linwood Way  Sarasota, FL 34232",
    "location": "DeSoto"
  },
  {
    "name": "On the Trashy Side",
    "description": "Clothing Stores",
    "phone": "(941) 302-7003",
    "address": "3221 Vesper Ave  Sarasota, FL 34232",
    "location": "DeSoto"
  },
  {
    "name": "Muse Sarasota",
    "description": "Clothing Stores",
    "phone": "(941) 312-4066",
    "address": "3809 McIntosh Rd  Sarasota, FL 34232",
    "location": "DeSoto"
  },
  {
    "name": "Floridafied HD",
    "description": "Clothing Stores",
    "phone": "(941) 961-3471",
    "address": "905 Cattlemen Rd  Sarasota, FL 34232",
    "location": "DeSoto"
  },
  {
    "name": "Marley Vibes",
    "description": "Clothing Stores",
    "phone": "(941) 203-5749",
    "address": "5055 Ocean Blvd  Sarasota, FL 34242",
    "location": "DeSoto"
  },
  {
    "name": "Charlotte Russe",
    "description": "Clothing Stores",
    "phone": "(941) 750-9911",
    "address": "303 301 Blvd W  Bradenton, FL 34205",
    "location": "DeSoto"
  },
  {
    "name": "DD's Discounts",
    "description": "Clothing Stores",
    "phone": "(941) 745-5759",
    "address": "3611 1st St  Bradenton, FL 34208",
    "location": "DeSoto"
  },
  {
    "name": "5.11 Tactical",
    "description": "Clothing Stores",
    "phone": "(941) 538-5402",
    "address": "5231 University Pkwy Unit 101  University Park, FL 34201",
    "location": "DeSoto"
  },
  {
    "name": "Fresh Inc.",
    "description": "Clothing Stores",
    "phone": "(855) 787-5059",
    "address": "4916 21st St W  Bradenton, FL 34207",
    "location": "DeSoto"
  },
  {
    "name": "Poshy",
    "description": "Clothing Stores",
    "phone": "(941) 388-2893",
    "address": "7718 Edmonston Cir  Bradenton, FL 34201",
    "location": "DeSoto"
  },
  {
    "name": "Echo Park Traders",
    "description": "Clothing Stores",
    "phone": "(941) 923-0508",
    "address": "807 Cortez Rd W  Bradenton, FL 34207",
    "location": "DeSoto"
  },
  {
    "name": "Bunulu",
    "description": "Clothing Stores",
    "phone": "(844) 507-5374",
    "address": "1806 38th Ave E  Bradenton, FL 34208",
    "location": "DeSoto"
  },
  {
    "name": "J.Crew Factory",
    "description": "Clothing Stores",
    "phone": "(941) 667-6751",
    "address": "8107 Cooper Creek Blvd  University Park, FL 34201",
    "location": "DeSoto"
  },
  {
    "name": "House Of Fine",
    "description": "Clothing Stores",
    "phone": "(941) 748-8111",
    "address": "303 301 Blvd W  Bradenton, FL 34205",
    "location": "DeSoto"
  },
  {
    "name": "Fashion Looks",
    "description": "Clothing Stores",
    "phone": "(941) 747-1144",
    "address": "303 301 Blvd W Ste 237  Bradenton, FL 34205",
    "location": "DeSoto"
  },
  {
    "name": "Boden",
    "description": "Clothing Stores",
    "phone": "(941) 907-3458",
    "address": "6290 Lake Osprey Dr  Lakewood Ranch, FL 34240",
    "location": "DeSoto"
  },
  {
    "name": "Fifi's Fine Resale Apparel",
    "description": "Clothing Stores",
    "phone": "(941) 758-7222",
    "address": "7343 52nd Pl E  Bradenton, FL 34203",
    "location": "DeSoto"
  },
  {
    "name": "Prayers Apparel",
    "description": "Clothing Stores",
    "phone": "(941) 773-2291",
    "address": "4676 72nd Ct E  Bradenton, FL 34203",
    "location": "DeSoto"
  },
  {
    "name": "New Beginnings Childrens Consignment LLC.",
    "description": "Clothing Stores",
    "phone": "(941) 377-8187",
    "address": "4952 Fruitville Rd  Sarasota, FL 34232",
    "location": "DeSoto"
  },
  {
    "name": "Old Navy",
    "description": "Clothing Stores",
    "phone": "(941) 277-6000",
    "address": "117 N Cattlemen Rd  Sarasota, FL 34243",
    "location": "DeSoto"
  },
  {
    "name": "Street Scences",
    "description": "Clothing Stores",
    "phone": "(941) 746-4511",
    "address": "303 301 Blvd W  Bradenton, FL 34205",
    "location": "DeSoto"
  },
  {
    "name": "Burlington Coat Factory",
    "description": "Clothing Stores",
    "phone": "(941) 756-1546",
    "address": "1205 Cortez Rd W  Bradenton, FL 34207",
    "location": "DeSoto"
  },
  {
    "name": "Aeropostale",
    "description": "Clothing Stores",
    "phone": "(941) 714-0573",
    "address": "303 301 Blvd W  Bradenton, FL 34205",
    "location": "DeSoto"
  },
  {
    "name": "Scrubs Shoes & Chef",
    "description": "Clothing Stores",
    "phone": "(941) 795-1100",
    "address": "1002 Manatee Ave E  Bradenton, FL 34208",
    "location": "DeSoto"
  },
  {
    "name": "Purabell House of Fashion",
    "description": "Clothing Stores",
    "phone": "(941) 752-0202",
    "address": "5002 Lena Rd  Bradenton, FL 34211",
    "location": "DeSoto"
  },
  {
    "name": "Redneck Outpost",
    "description": "Clothing Stores",
    "phone": "(941) 444-7829",
    "address": "4401 Ashton Rd Unit F  Sarasota, FL 34233",
    "location": "DeSoto"
  },
  {
    "name": "Coconuts of Siesta Key",
    "description": "Clothing Stores",
    "phone": "(941) 346-2954",
    "address": "1215 Old Stickney Point Rd  Sarasota, FL 34242",
    "location": "DeSoto"
  },
  {
    "name": "Casa Smeralda",
    "description": "Clothing Stores",
    "phone": "(941) 388-1305",
    "address": "5121 Ocean Blvd  Sarasota, FL 34242",
    "location": "DeSoto"
  },
  {
    "name": "Blaklader",
    "description": "Clothing Stores",
    "phone": "(941) 342-4936",
    "address": "6311 Porter Rd  Sarasota, FL 34240",
    "location": "DeSoto"
  },
  {
    "name": "Jules Lerner",
    "description": "Clothing Stores",
    "phone": "(941) 923-7525",
    "address": "3435 Fox Run Rd  Sarasota, FL 34231",
    "location": "DeSoto"
  },
  {
    "name": "Clothes Mentor",
    "description": "Clothing Stores",
    "phone": "(941) 210-3897",
    "address": "3442 Clark Rd  Sarasota, FL 34231",
    "location": "DeSoto"
  },
  {
    "name": "Rocketman Shop",
    "description": "Clothing Stores",
    "phone": "(941) 923-2096",
    "address": "1888 Stickney Point Rd  Sarasota, FL 34231",
    "location": "DeSoto"
  },
  {
    "name": "Susanmmall",
    "description": "Clothing Stores",
    "phone": "(941) 342-1569",
    "address": "5746 Lake Breeze Ct  Sarasota, FL 34233",
    "location": "DeSoto"
  },
  {
    "name": "Grab Life by the Gills",
    "description": "Clothing Stores",
    "phone": "(941) 378-0957",
    "address": "2041 Misty Sunrise Trl  Sarasota, FL 34240",
    "location": "DeSoto"
  },
  {
    "name": "Wave Inspired",
    "description": "Clothing Stores",
    "phone": "(941) 554-8720",
    "address": "1514 Stickney Point Rd  Sarasota, FL 34231",
    "location": "DeSoto"
  },
  {
    "name": "Apc Fashion Biz Consulting",
    "description": "Clothing Stores",
    "phone": "(941) 313-7166",
    "address": "4283 Express Ln  Sarasota, FL 34249",
    "location": "DeSoto"
  },
  {
    "name": "Metal Sky Wear",
    "description": "Clothing Stores",
    "phone": "(941) 780-3908",
    "address": "2114 Bispham Rd  Sarasota, FL 34231",
    "location": "DeSoto"
  },
  {
    "name": "1 OFF TEE",
    "description": "Clothing Stores",
    "phone": "(941) 807-2741",
    "address": "2214 14th Ave W  bradenton, FL 34205",
    "location": "DeSoto"
  },
  {
    "name": "We Make Custom Teez - Custom T-Shirts",
    "description": "Clothing Stores",
    "phone": "(941) 479-0559",
    "address": "11161 State Road 70 E Unit 110-801  Lakewood Ranch, FL 34202",
    "location": "DeSoto"
  },
  {
    "name": "Rip Current",
    "description": "Clothing Stores",
    "phone": "(941) 554-4388",
    "address": "6850 Gulf Of Mexico Dr  Longboat Key, FL 34228",
    "location": "DeSoto"
  },
  {
    "name": "Burkes Outlet",
    "description": "Clothing Stores",
    "phone": "(941) 761-2516",
    "address": "6355 Manatee Ave W  Bradenton, FL 34209",
    "location": "DeSoto"
  },
  {
    "name": "Designs by Hafapea Gift Shop",
    "description": "Clothing Stores",
    "phone": "(941) 755-6345",
    "address": "PO Box 10660  Bradenton, FL 34282",
    "location": "DeSoto"
  },
  {
    "name": "Simply Sexy Beauty Supply.",
    "description": "Clothing Stores",
    "phone": "(941) 251-4925",
    "address": "628 Martin Luther King Jr Ave W  bradenton, FL 34205",
    "location": "DeSoto"
  },
  {
    "name": "Land's End",
    "description": "Clothing Stores",
    "phone": "(941) 921-8233",
    "address": "8201 S Tamiami Trl  Sarasota, FL 34238",
    "location": "DeSoto"
  },
  {
    "name": "American Eagle",
    "description": "Clothing Stores",
    "phone": "(941) 722-6327",
    "address": "5281 Factory Shops Blvd Spc 770A  Ellenton, FL 34222",
    "location": "DeSoto"
  },
  {
    "name": "Consign-IT",
    "description": "Clothing Stores",
    "phone": "(941) 580-9961",
    "address": "3717 Us Highway 301 N  Ellenton, FL 34222",
    "location": "DeSoto"
  },
  {
    "name": "Loshande",
    "description": "Clothing Stores",
    "phone": "(941) 212-4041",
    "address": "1020 10th Ave W Unit 115  Palmetto, FL 34221",
    "location": "DeSoto"
  },
  {
    "name": "Christopher & Banks",
    "description": "Clothing Stores",
    "phone": "(941) 729-5379",
    "address": "5461 Factory Shops Blvd Suite 585  Ellenton, FL 34222",
    "location": "DeSoto"
  },
  {
    "name": "Quiksilver",
    "description": "Clothing Stores",
    "phone": "(941) 721-8507",
    "address": "5131 Factory Shops Blvd  Ellenton, FL 34222",
    "location": "DeSoto"
  },
  {
    "name": "Haggar Clothing Co",
    "description": "Clothing Stores",
    "phone": "(941) 729-7985",
    "address": "5183 Factory Shops Blvd  Ellenton, FL 34222",
    "location": "DeSoto"
  },
  {
    "name": "Levi's Outlet Store",
    "description": "Clothing Stores",
    "phone": "(941) 722-7578",
    "address": "5177 Factory Shops Blvd  Ellenton, FL 34222",
    "location": "DeSoto"
  },
  {
    "name": "AÃ©ropostale",
    "description": "Clothing Stores",
    "phone": "(941) 721-6306",
    "address": "5109 Factory Shops Blvd  Ellenton, FL 34222",
    "location": "DeSoto"
  },
  {
    "name": "Ann Taylor",
    "description": "Clothing Stores",
    "phone": "(941) 723-6123",
    "address": "5201 Factory Shops Blvd  Ellenton, FL 34222",
    "location": "DeSoto"
  },
  {
    "name": "Jockey",
    "description": "Clothing Stores",
    "phone": "(941) 722-3166",
    "address": "5225 Factory Shops Blvd  Ellenton, FL 34222",
    "location": "DeSoto"
  },
  {
    "name": "Jockey Factory Store",
    "description": "Clothing Stores",
    "phone": "(941) 722-3166",
    "address": "5225 Factory Shops Blvd  Ellenton, FL 34222",
    "location": "DeSoto"
  },
  {
    "name": "J. Crew Factory Store",
    "description": "Clothing Stores",
    "phone": "(941) 722-0954",
    "address": "5401 Factory Shops Blvd  Ellenton, FL 34222",
    "location": "DeSoto"
  },
  {
    "name": "VF Outlet",
    "description": "Clothing Stores",
    "phone": "(941) 729-4533",
    "address": "5391 Factory Shops Blvd  Ellenton, FL 34222",
    "location": "DeSoto"
  },
  {
    "name": "Calvin Klein",
    "description": "Clothing Stores",
    "phone": "(941) 729-6218",
    "address": "5387 Factory Shops Blvd # 570  Ellenton, FL 34222",
    "location": "DeSoto"
  },
  {
    "name": "Rue21",
    "description": "Clothing Stores",
    "phone": "(941) 479-0920",
    "address": "5461 Factory Shops Blvd  Ellenton, FL 34222",
    "location": "DeSoto"
  },
  {
    "name": "Hurley",
    "description": "Clothing Stores",
    "phone": "(941) 729-6951",
    "address": "5461 Factory Shops Blvd  Ellenton, FL 34222",
    "location": "DeSoto"
  },
  {
    "name": "Lacoste",
    "description": "Clothing Stores",
    "phone": "(941) 721-7900",
    "address": "5461 Factory Shops Blvd  Ellenton, FL 34222",
    "location": "DeSoto"
  },
  {
    "name": "Nautica",
    "description": "Clothing Stores",
    "phone": "(941) 721-7740",
    "address": "5461 Factory Shops Blvd  Ellenton, FL 34222",
    "location": "DeSoto"
  },
  {
    "name": "Under Armour Factory House",
    "description": "Clothing Stores",
    "phone": "(941) 729-6705",
    "address": "5553 Factory Shops Blvd  Ellenton, FL 34222",
    "location": "DeSoto"
  },
  {
    "name": "Jones Apparel Group USA",
    "description": "Clothing Stores",
    "phone": "(941) 722-3133",
    "address": "5571 Factory Shops Blvd  Ellenton, FL 34222",
    "location": "DeSoto"
  },
  {
    "name": "Jones New York",
    "description": "Clothing Stores",
    "phone": "(941) 729-7276",
    "address": "5591 Factory Shops Blvd  Ellenton, FL 34222",
    "location": "DeSoto"
  },
  {
    "name": "US Polo Association",
    "description": "Clothing Stores",
    "phone": "(941) 722-9230",
    "address": "5585 Factory Shops Blvd  Ellenton, FL 34222",
    "location": "DeSoto"
  },
  {
    "name": "Ralph Lauren",
    "description": "Clothing Stores",
    "phone": "(941) 721-0695",
    "address": "5665 Factory Shops Blvd  Ellenton, FL 34222",
    "location": "DeSoto"
  },
  {
    "name": "LOFT Outlet",
    "description": "Clothing Stores",
    "phone": "(941) 722-8391",
    "address": "5707 Factory Shops Blvd  Ellenton, FL 34222",
    "location": "DeSoto"
  },
  {
    "name": "J S Macdonald Inc",
    "description": "Clothing Stores",
    "phone": "(941) 792-4156",
    "address": "4105 129th St W  Cortez, FL 34215",
    "location": "DeSoto"
  },
  {
    "name": "Monetti Apparel",
    "description": "Clothing Stores",
    "phone": "(941) 713-3947",
    "address": "119 Bridge St Unit 100  Bradenton Beach, FL 34217",
    "location": "DeSoto"
  },
  {
    "name": "Mister Roberts Resortwear",
    "description": "Clothing Stores",
    "phone": "(941) 778-4505",
    "address": "103 Gulf Dr S  Bradenton Beach, FL 34217",
    "location": "DeSoto"
  },
  {
    "name": "Naughty Paula Jo Sexy Custom Clothing",
    "description": "Clothing Stores",
    "phone": "(386) 864-1188",
    "address": "16 Meadowlark Cir  Ellenton, FL 34222",
    "location": "DeSoto"
  },
  {
    "name": "American Eagle Outfitters",
    "description": "Clothing Stores",
    "phone": "(941) 926-7196",
    "address": "8201 S Tamiami Trl  Sarasota, FL 34238",
    "location": "DeSoto"
  },
  {
    "name": "Alvin's Island",
    "description": "Clothing Stores",
    "phone": "(941) 779-0135",
    "address": "3602 E Bay Dr  Holmes Beach, FL 34217",
    "location": "DeSoto"
  },
  {
    "name": "Coastal Clothing Consignments",
    "description": "Clothing Stores",
    "phone": "(941) 218-6153",
    "address": "107 N Tamiami Trl  Osprey, FL 34229",
    "location": "DeSoto"
  },
  {
    "name": "Fifis Fine Resale Apparel",
    "description": "Clothing Stores",
    "phone": "(941) 451-8298",
    "address": "11 S Tamiami Trl  Osprey, FL 34229",
    "location": "DeSoto"
  },
  {
    "name": "Saltair",
    "description": "Clothing Stores",
    "phone": "(941) 281-2934",
    "address": "5508 Marina Dr  Holmes beach, FL 34217",
    "location": "DeSoto"
  },
  {
    "name": "Lularoe Sonya Ivester",
    "description": "Clothing Stores",
    "phone": "(307) 797-0932",
    "address": "536 Bayview Ave  Osprey, FL 34229",
    "location": "DeSoto"
  },
  {
    "name": "N Y Connection",
    "description": "Clothing Stores",
    "phone": "(941) 358-9203",
    "address": "3333 N Tamiami Trl  Sarasota, FL 34234",
    "location": "DeSoto"
  },
  {
    "name": "Contempo Casuals",
    "description": "Clothing Stores",
    "phone": "(941) 923-6749",
    "address": "8201 Tamiami Trl  Sarasota, FL 34238",
    "location": "DeSoto"
  },
  {
    "name": "CaribeHeart",
    "description": "Clothing Stores",
    "phone": "(754) 600-1337",
    "address": "8051 N Tamiami Trl Ste E6  Sarasota, FL 34243",
    "location": "DeSoto"
  },
  {
    "name": "Natural Discoveries Sales Inc",
    "description": "Clothing Stores",
    "phone": "(941) 355-0611",
    "address": "1281 Tallevast Rd  Sarasota, FL 34243",
    "location": "DeSoto"
  },
  {
    "name": "Nifty Thrifty",
    "description": "Clothing Stores",
    "phone": "(941) 343-2372",
    "address": "2101 19th St  Sarasota, FL 34234",
    "location": "DeSoto"
  },
  {
    "name": "Chico's",
    "description": "Clothing Stores",
    "phone": "(941) 388-0507",
    "address": "140 University Town Center Dr. 263  Sarasota, FL 34243",
    "location": "DeSoto"
  },
  {
    "name": "XTC Super Center of Sarasota",
    "description": "Clothing Stores",
    "phone": "(941) 366-6969",
    "address": "2092 17th St  Sarasota, FL 34234",
    "location": "DeSoto"
  },
  {
    "name": "Premier Apparel",
    "description": "Clothing Stores",
    "phone": "(941) 751-0919",
    "address": "1176 Whitfield Ave  Sarasota, FL 34243",
    "location": "DeSoto"
  },
  {
    "name": "Rock Bottom Apparel",
    "description": "Clothing Stores",
    "phone": "(941) 365-8922",
    "address": "2590 17th St  Sarasota, FL 34234",
    "location": "DeSoto"
  },
  {
    "name": "Scout and Molly's of Sarasota",
    "description": "Clothing Stores",
    "phone": "(941) 955-2170",
    "address": "1413 1st St  Sarasota, FL 34236",
    "location": "DeSoto"
  },
  {
    "name": "Swim City",
    "description": "Clothing Stores",
    "phone": "(941) 954-8800",
    "address": "50 N Tamiami Trl  Sarasota, FL 34236",
    "location": "DeSoto"
  },
  {
    "name": "India Artisans",
    "description": "Clothing Stores",
    "phone": "(941) 203-8913",
    "address": "1899 Fruitville Rd Unit A  Sarasota, FL 34236",
    "location": "DeSoto"
  },
  {
    "name": "J.McLaughlin",
    "description": "Clothing Stores",
    "phone": "(941) 706-3587",
    "address": "1503 Main St  Sarasota, FL 34236",
    "location": "DeSoto"
  },
  {
    "name": "Brooks Brothers Country Club",
    "description": "Clothing Stores",
    "phone": "(941) 954-7545",
    "address": "1500 Main St  Sarasota, FL 34236",
    "location": "DeSoto"
  },
  {
    "name": "Martin Freeman",
    "description": "Clothing Stores",
    "phone": "(941) 953-2948",
    "address": "75 S Palm Ave  Sarasota, FL 34236",
    "location": "DeSoto"
  },
  {
    "name": "Clothesline Co",
    "description": "Clothing Stores",
    "phone": "(941) 953-1764",
    "address": "2250 2nd St  Sarasota, FL 34237",
    "location": "DeSoto"
  },
  {
    "name": "White House | Black Market",
    "description": "Clothing Stores",
    "phone": "(941) 388-5033",
    "address": "315 & 317 Ringling Blvd  Sarasota, FL 34236",
    "location": "DeSoto"
  },
  {
    "name": "Pineapple Lain Boutique",
    "description": "Clothing Stores",
    "phone": "(941) 330-8771",
    "address": "407 S Pineapple Ave  Sarasota, FL 34236",
    "location": "DeSoto"
  },
  {
    "name": "Andeansun Corp",
    "description": "Clothing Stores",
    "phone": "(239) 277-1877",
    "address": "242 S Washington Blvd  Sarasota, FL 34236",
    "location": "DeSoto"
  },
  {
    "name": "The Exchange Inc.",
    "description": "Clothing Stores",
    "phone": "(941) 955-7859",
    "address": "539 S Orange Ave  Sarasota, FL 34236",
    "location": "DeSoto"
  },
  {
    "name": "Creative Native",
    "description": "Clothing Stores",
    "phone": "(941) 756-5659",
    "address": "6160 15th St E  Bradenton, FL 34203",
    "location": "DeSoto"
  },
  {
    "name": "Lilly Pulitzer",
    "description": "Clothing Stores",
    "phone": "(941) 388-3091",
    "address": "443A John Ringling Blvd  Sarasota, FL 34236",
    "location": "DeSoto"
  },
  {
    "name": "Crazy Shirts",
    "description": "Clothing Stores",
    "phone": "(941) 388-1105",
    "address": "359 Saint Armands Cir  Sarasota, FL 34236",
    "location": "DeSoto"
  },
  {
    "name": "Avenue",
    "description": "Clothing Stores",
    "phone": "(941) 388-3354",
    "address": "28 N Blvd Of Presidents  Sarasota, FL 34236",
    "location": "DeSoto"
  },
  {
    "name": "SL Printwear",
    "description": "Clothing Stores",
    "phone": "(941) 780-0061",
    "address": "2876 Ringling Blvd  Sarasota, FL 34237",
    "location": "DeSoto"
  },
  {
    "name": "Kmart",
    "description": "Clothing Stores",
    "phone": "(941) 957-1460",
    "address": "501 N Beneva Rd  Sarasota, FL 34232",
    "location": "DeSoto"
  },
  {
    "name": "Pinos II P",
    "description": "Clothing Stores",
    "phone": "(941) 366-2666",
    "address": "1849 Hillview St  Sarasota, FL 34239",
    "location": "DeSoto"
  },
  {
    "name": "Cariloha",
    "description": "Clothing Stores",
    "phone": "(941) 388-0412",
    "address": "478 John Ringling Blvd  Sarasota, FL 34236",
    "location": "DeSoto"
  },
  {
    "name": "Just Cruizin",
    "description": "Clothing Stores",
    "phone": "(941) 706-2150",
    "address": "21 N Blvd Of The Presidents  Sarasota, FL 34236",
    "location": "DeSoto"
  },
  {
    "name": "Marcello Sport St. Armands",
    "description": "Clothing Stores",
    "phone": "(941) 706-1357",
    "address": "18 S Blvd Of The Presidents  Sarasota, FL 34236",
    "location": "DeSoto"
  },
  {
    "name": "Latino's Fashion",
    "description": "Clothing Stores",
    "phone": "(941) 755-2132",
    "address": "1239 60th Ave W  Bradenton, FL 34207",
    "location": "DeSoto"
  },
  {
    "name": "Bealls Outlet Stores",
    "description": "Clothing Stores",
    "phone": "(941) 755-7884",
    "address": "5838 14th St W  Bradenton, FL 34207",
    "location": "DeSoto"
  },
  {
    "name": "Influence",
    "description": "Clothing Stores",
    "phone": "(941) 343-2315",
    "address": "474 John Ringling Blvd  Sarasota, FL 34236",
    "location": "DeSoto"
  },
  {
    "name": "Binjara Traders Inc",
    "description": "Clothing Stores",
    "phone": "(941) 388-3335",
    "address": "327 John Ringling Blvd  Sarasota, FL 34236",
    "location": "DeSoto"
  },
  {
    "name": "Royal-Tee's Screen Printing & Embroidery",
    "description": "Clothing Stores",
    "phone": "(941) 378-8112",
    "address": "5556 Palmer Blvd  Sarasota, FL 34232",
    "location": "DeSoto"
  },
  {
    "name": "Aquarius Silk Screen Inc",
    "description": "Clothing Stores",
    "phone": "(941) 377-3059",
    "address": "5931 Palmer Blvd  Sarasota, FL 34232",
    "location": "DeSoto"
  },
  {
    "name": "Macy's",
    "description": "Clothing Stores",
    "phone": "(941) 329-3300",
    "address": "600 Southgate Plz  Sarasota, FL 34239",
    "location": "DeSoto"
  },
  {
    "name": "Cache",
    "description": "Clothing Stores",
    "phone": "(941) 404-1218",
    "address": "3501 S Tamiami Trl Ste 113  Sarasota, FL 34239",
    "location": "DeSoto"
  },
  {
    "name": "Loft",
    "description": "Clothing Stores",
    "phone": "(941) 951-5200",
    "address": "3501 S Tamiami Trl  Sarasota, FL 34239",
    "location": "DeSoto"
  },
  {
    "name": "S.A. Elite",
    "description": "Clothing Stores",
    "phone": "(941) 358-8684",
    "address": "147 N Cattlemen Rd  Sarasota, FL 34243",
    "location": "DeSoto"
  },
  {
    "name": "Five Below",
    "description": "Clothing Stores",
    "phone": "(941) 279-2773",
    "address": "3800 S Tamiami Trl Unit 24  Sarasota, FL 34239",
    "location": "DeSoto"
  },
  {
    "name": "Calzedonia",
    "description": "Clothing Stores",
    "phone": "(941) 667-2396",
    "address": "140 University Town Center Dr  Sarasota, FL 34243",
    "location": "DeSoto"
  },
  {
    "name": "Brooks Brothers",
    "description": "Clothing Stores",
    "phone": "(941) 702-9110",
    "address": "140 University Town Center Dr Unit 228  Sarasota, FL 34243",
    "location": "DeSoto"
  },
  {
    "name": "Forever 21",
    "description": "Clothing Stores",
    "phone": "(941) 554-5481",
    "address": "140 University Town Center Dr Unit 215  Sarasota, FL 34243",
    "location": "DeSoto"
  },
  {
    "name": "Oakley Store",
    "description": "Clothing Stores",
    "phone": "(941) 702-9932",
    "address": "140 University Town Center Dr Unit 214  Sarasota, FL 34243",
    "location": "DeSoto"
  },
  {
    "name": "Journeys",
    "description": "Clothing Stores",
    "phone": "(941) 702-9665",
    "address": "140 University Town Center Dr  Sarasota, FL 34243",
    "location": "DeSoto"
  },
  {
    "name": "Oshkosh B'Gosh",
    "description": "Clothing Stores",
    "phone": "(941) 259-0101",
    "address": "140 University Town Center Dr Unit 210  Sarasota, FL 34243",
    "location": "DeSoto"
  },
  {
    "name": "Athleta",
    "description": "Clothing Stores",
    "phone": "(941) 667-2052",
    "address": "140 University Town Center Dr Unit 136  Sarasota, FL 34243",
    "location": "DeSoto"
  },
  {
    "name": "Lucky Brand Jeans",
    "description": "Clothing Stores",
    "phone": "(941) 893-1180",
    "address": "140 University Town Center Dr Unit 266  Sarasota, FL 34243",
    "location": "DeSoto"
  },
  {
    "name": "Robert Graham Sarasota",
    "description": "Clothing Stores",
    "phone": "(941) 529-1911",
    "address": "140 University Town Center Dr  Sarasota, FL 34243",
    "location": "DeSoto"
  },
  {
    "name": "BOSS Menswear Store",
    "description": "Clothing Stores",
    "phone": "(941) 536-9000",
    "address": "140 University Town Center Dr  Sarasota, FL 34243",
    "location": "DeSoto"
  },
  {
    "name": "Cotton On Kids",
    "description": "Clothing Stores",
    "phone": "(941) 278-8882",
    "address": "140 University Town Center Dr  Sarasota, FL 34243",
    "location": "DeSoto"
  },
  {
    "name": "FP Movement",
    "description": "Clothing Stores",
    "phone": "(941) 279-3979",
    "address": "140 University Town Center Dr Unit 248  Sarasota, FL 34243",
    "location": "DeSoto"
  },
  {
    "name": "Environeers",
    "description": "Clothing Stores",
    "phone": "(941) 371-6208",
    "address": "5373 Fruitville Rd  Sarasota, FL 34232",
    "location": "DeSoto"
  },
  {
    "name": "Tracht Brothers Inc",
    "description": "Clothing Stores",
    "phone": "(941) 371-6208",
    "address": "5373 Fruitville Rd  Sarasota, FL 34232",
    "location": "DeSoto"
  },
  {
    "name": "Suncoast Embroidery & Tees",
    "description": "Clothing Stores",
    "phone": "(941) 378-3111",
    "address": "5405 Cork Oak St  Sarasota, FL 34232",
    "location": "DeSoto"
  },
  {
    "name": "Aquarius Graphics",
    "description": "Clothing Stores",
    "phone": "(941) 981-2623",
    "address": "5931 Palmer Blvd  Sarasota, FL 34232",
    "location": "DeSoto"
  },
  {
    "name": "Sunshine Thrifts Stores of Bradenton, Inc.",
    "description": "Clothing Stores",
    "phone": "(941) 281-2940",
    "address": "3611 1st St Ste 230  Bradenton, FL 34208",
    "location": "DeSoto"
  },
  {
    "name": "SEPHORA at Kohl's",
    "description": "Clothing Stores",
    "phone": "(941) 355-9074",
    "address": "5205 University Pkwy  University Park, FL 34201",
    "location": "DeSoto"
  },
  {
    "name": "Teez By Design",
    "description": "Clothing Stores",
    "phone": "(941) 745-2257",
    "address": "5266 Office Park Blvd  Bradenton, FL 34203",
    "location": "DeSoto"
  },
  {
    "name": "Lola Monroe",
    "description": "Clothing Stores",
    "phone": "(888) 822-5652",
    "address": "5429 University Pkwy # 1059  University Park, FL 34201",
    "location": "DeSoto"
  },
  {
    "name": "Kickz N Lidz",
    "description": "Clothing Stores",
    "phone": "(941) 748-5455",
    "address": "6710 71st St E  Bradenton, FL 34203",
    "location": "DeSoto"
  },
  {
    "name": "Outlet Centrl Fulfill",
    "description": "Clothing Stores",
    "phone": "(941) 752-8987",
    "address": "1806 38th Ave E  Bradenton, FL 34208",
    "location": "DeSoto"
  },
  {
    "name": "Team Edition Apparel",
    "description": "Clothing Stores",
    "phone": "(941) 747-5300",
    "address": "4208 19th Street Ct E  Bradenton, FL 34208",
    "location": "DeSoto"
  },
  {
    "name": "Marshalls",
    "description": "Clothing Stores",
    "phone": "(941) 359-6828",
    "address": "8467 Cooper Creek Blvd  University Park, FL 34201",
    "location": "DeSoto"
  },
  {
    "name": "The Children's Place",
    "description": "Clothing Stores",
    "phone": "(941) 351-2769",
    "address": "8127 Cooper Creek Blvd  University Park, FL 34201",
    "location": "DeSoto"
  },
  {
    "name": "Ross Dress for Less",
    "description": "Clothing Stores",
    "phone": "(941) 355-4184",
    "address": "8123 Cooper Creek Blvd  University Park, FL 34201",
    "location": "DeSoto"
  },
  {
    "name": "Eye Care Family Vision Center",
    "description": "Clothing Stores",
    "phone": "(941) 753-2020",
    "address": "6156 State Road 70 E  Bradenton, FL 34203",
    "location": "DeSoto"
  },
  {
    "name": "Gentlemen's Choice",
    "description": "Clothing Stores",
    "phone": "(941) 747-4170",
    "address": "303 301 Blvd W  Bradenton, FL 34205",
    "location": "DeSoto"
  },
  {
    "name": "Creations D K D A",
    "description": "Clothing Stores",
    "phone": "(941) 746-1698",
    "address": "303 301 Blvd W Ste E  Bradenton, FL 34205",
    "location": "DeSoto"
  },
  {
    "name": "Looking Good",
    "description": "Clothing Stores",
    "phone": "(941) 747-0103",
    "address": "3611 1st St  Bradenton, FL 34208",
    "location": "DeSoto"
  },
  {
    "name": "Catherines Plus Sizes",
    "description": "Clothing Stores",
    "phone": "(941) 755-8657",
    "address": "7369 52nd Pl E  Bradenton, FL 34203",
    "location": "DeSoto"
  },
  {
    "name": "Bealls",
    "description": "Clothing Stores",
    "phone": "(941) 752-3642",
    "address": "7379 52nd Pl E  Bradenton, FL 34203",
    "location": "DeSoto"
  },
  {
    "name": "Bealls Outlet",
    "description": "Clothing Stores",
    "phone": "(941) 761-2519",
    "address": "4902 Cortez Rd W  Bradenton, FL 34210",
    "location": "DeSoto"
  },
  {
    "name": "Longboat Resort Wear",
    "description": "Clothing Stores",
    "phone": "(941) 383-9320",
    "address": "5380 Gulf Of Mexico Dr  Longboat Key, FL 34228",
    "location": "DeSoto"
  },
  {
    "name": "Main Street Bazaar",
    "description": "Clothing Stores",
    "phone": "(941) 907-3456",
    "address": "8111 Lakewood Main St  Lakewood Ranch, FL 34202",
    "location": "DeSoto"
  },
  {
    "name": "The Scrub Club",
    "description": "Clothing Stores",
    "phone": "(941) 755-9669",
    "address": "8527 State Road 70 E  Bradenton, FL 34202",
    "location": "DeSoto"
  },
  {
    "name": "JCPenney",
    "description": "Clothing Stores",
    "phone": "(941) 747-6411",
    "address": "303 301 Blvd W Ste 701  Bradenton, FL 34205",
    "location": "DeSoto"
  },
  {
    "name": "Sears",
    "description": "Clothing Stores",
    "phone": "(941) 745-3313",
    "address": "303 301 Blvd W  Bradenton, FL 34205",
    "location": "DeSoto"
  },
  {
    "name": "The Chameleon",
    "description": "Clothing Stores",
    "phone": "(941) 747-4477",
    "address": "2801 Manatee Ave W  Bradenton, FL 34205",
    "location": "DeSoto"
  },
  {
    "name": "Custom Designs by Victoria LLC",
    "description": "Clothing Stores",
    "phone": "(941) 225-9678",
    "address": "529 13th St W Ste 106  Bradenton, FL 34205",
    "location": "DeSoto"
  },
  {
    "name": "Foxy Lady",
    "description": "Clothing Stores",
    "phone": "(941) 349-6644",
    "address": "209 Beach Rd  Sarasota, FL 34242",
    "location": "DeSoto"
  },
  {
    "name": "Splash Sun & Fun",
    "description": "Clothing Stores",
    "phone": "(941) 923-1003",
    "address": "6508 S Tamiami Trl  Sarasota, FL 34231",
    "location": "DeSoto"
  },
  {
    "name": "Lotus Boutique",
    "description": "Clothing Stores",
    "phone": "(941) 346-6793",
    "address": "5118 Ocean Blvd  Sarasota, FL 34242",
    "location": "DeSoto"
  },
  {
    "name": "Beach Bazaar",
    "description": "Clothing Stores",
    "phone": "(941) 346-2995",
    "address": "5211 Ocean Blvd  Sarasota, FL 34242",
    "location": "DeSoto"
  },
  {
    "name": "Stark Enterprises Inc",
    "description": "Clothing Stores",
    "phone": "(941) 341-0319",
    "address": "2555 Porter Lake Dr  Sarasota, FL 34240",
    "location": "DeSoto"
  },
  {
    "name": "A&A Baby & Beach Rentals",
    "description": "Clothing Stores",
    "phone": "(941) 921-7688",
    "address": "3247 Rowena St  Sarasota, FL 34231",
    "location": "DeSoto"
  },
  {
    "name": "Rocketman Shop Old School Head shop",
    "description": "Clothing Stores",
    "phone": "(941) 923-2096",
    "address": "2635 Mall Dr  Sarasota, FL 34231",
    "location": "DeSoto"
  },
  {
    "name": "Sarasota Messenger Imprin",
    "description": "Clothing Stores",
    "phone": "(941) 924-4945",
    "address": "4662 Ashton Rd  Sarasota, FL 34233",
    "location": "DeSoto"
  },
  {
    "name": "Rumor Has It",
    "description": "Clothing Stores",
    "phone": "(941) 343-2229",
    "address": "6549 Superior Ave  Sarasota, FL 34231",
    "location": "DeSoto"
  },
  {
    "name": "SKECHERS Warehouse Outlet",
    "description": "Clothing Stores",
    "phone": "(941) 306-2925",
    "address": "6583 S Tamiami Trl  Sarasota, FL 34231",
    "location": "DeSoto"
  },
  {
    "name": "Earsound Customs",
    "description": "Clothing Stores",
    "phone": "(941) 922-0201",
    "address": "2170 Gulf Gate Dr  Sarasota, FL 34231",
    "location": "DeSoto"
  },
  {
    "name": "Superiortees",
    "description": "Clothing Stores",
    "phone": "(941) 921-9286",
    "address": "4557 Clark Rd  Sarasota, FL 34233",
    "location": "DeSoto"
  },
  {
    "name": "Veith & Associates Apparel",
    "description": "Clothing Stores",
    "phone": "(941) 378-5694",
    "address": "201 Field End St  Sarasota, FL 34240",
    "location": "DeSoto"
  },
  {
    "name": "Sarah Louise Inc",
    "description": "Clothing Stores",
    "phone": "(941) 377-9656",
    "address": "128 Sarasota Center Blvd  Sarasota, FL 34240",
    "location": "DeSoto"
  },
  {
    "name": "S & R Uniforms",
    "description": "Clothing Stores",
    "phone": "(941) 748-1245",
    "address": "1833 Tamiami Trl  Bradenton, FL 34205",
    "location": "DeSoto"
  },
  {
    "name": "Sand Dollar Gift Shop Inc",
    "description": "Clothing Stores",
    "phone": "(941) 778-2024",
    "address": "1806 28th St W  Bradenton, FL 34205",
    "location": "DeSoto"
  },
  {
    "name": "Sasshole Clothing",
    "description": "Clothing Stores",
    "phone": "(800) 518-2615",
    "address": "1201 6th Ave W  Bradenton, FL 34205",
    "location": "DeSoto"
  },
  {
    "name": "Madeline's Boutique",
    "description": "Clothing Stores",
    "phone": "(941) 242-5924",
    "address": "1304 6th Ave W  Bradenton, FL 34205",
    "location": "DeSoto"
  },
  {
    "name": "Ocean Breezes Design",
    "description": "Clothing Stores",
    "phone": "(941) 792-9700",
    "address": "7832 Cortez Rd W  Bradenton, FL 34210",
    "location": "DeSoto"
  },
  {
    "name": "Beachy Boho Life By Elizabeth",
    "description": "Clothing Stores",
    "phone": "(941) 400-5188",
    "address": "302 28th St W  Bradenton, FL 34205",
    "location": "DeSoto"
  },
  {
    "name": "Russell's Western Wear",
    "description": "Clothing Stores",
    "phone": "(941) 621-6607",
    "address": "4422 E State Road 64  Bradenton, FL 34208",
    "location": "DeSoto"
  },
  {
    "name": "Lily Bliss Boutique",
    "description": "Clothing Stores",
    "phone": "(941) 567-4093",
    "address": "5917 Manatee Ave W  Bradenton, FL 34209",
    "location": "DeSoto"
  },
  {
    "name": "Better Vision Family Eye Care",
    "description": "Clothing Stores",
    "phone": "(941) 744-0791",
    "address": "8457 Heritage Green Way  Bradenton, FL 34212",
    "location": "DeSoto"
  },
  {
    "name": "We Are One World",
    "description": "Clothing Stores",
    "phone": "(941) 718-3258",
    "address": "1707 1st St E  Bradenton, FL 34208",
    "location": "DeSoto"
  },
  {
    "name": "Wet Seal",
    "description": "Clothing Stores",
    "phone": "(941) 923-6749",
    "address": "8201 S Tamiami Trl  Sarasota, FL 34238",
    "location": "DeSoto"
  },
  {
    "name": "Justice",
    "description": "Clothing Stores",
    "phone": "(941) 926-8655",
    "address": "8201 S Tamiami Trl  Sarasota, FL 34238",
    "location": "DeSoto"
  },
  {
    "name": "Wall Street For Men",
    "description": "Clothing Stores",
    "phone": "(941) 927-1501",
    "address": "8201 S Tamiami Trl  Sarasota, FL 34238",
    "location": "DeSoto"
  },
  {
    "name": "Torrid",
    "description": "Clothing Stores",
    "phone": "(941) 921-3582",
    "address": "8201 S Tamiami Trl  Sarasota, FL 34238",
    "location": "DeSoto"
  },
  {
    "name": "D212",
    "description": "Clothing Stores",
    "phone": "(941) 921-3583",
    "address": "8201 S Tamiami Trl  Sarasota, FL 34238",
    "location": "DeSoto"
  },
  {
    "name": "Kohl's",
    "description": "Clothing Stores",
    "phone": "(941) 966-3231",
    "address": "3950 Central Sarasota Pkwy  Sarasota, FL 34238",
    "location": "DeSoto"
  },
  {
    "name": "Tip Toe Designs",
    "description": "Clothing Stores",
    "phone": "(813) 359-7222",
    "address": "135 12th Street Ct W  Palmetto, FL 34221",
    "location": "DeSoto"
  },
  {
    "name": "One Way Apparel Promotions",
    "description": "Clothing Stores",
    "phone": "(941) 729-3660",
    "address": "1500 15th Avenue Dr E Unit 105  Palmetto, FL 34221",
    "location": "DeSoto"
  },
  {
    "name": "One Source Medical Wear Inc",
    "description": "Clothing Stores",
    "phone": "(941) 721-7003",
    "address": "1407 20th Ave E  Palmetto, FL 34221",
    "location": "DeSoto"
  },
  {
    "name": "Nike Factory Store - Ellenton",
    "description": "Clothing Stores",
    "phone": "(941) 722-0096",
    "address": "5195 Factory Shops Blvd  Ellenton, FL 34222",
    "location": "DeSoto"
  },
  {
    "name": "Aerie",
    "description": "Clothing Stores",
    "phone": "(941) 981-6310",
    "address": "5173 Factory Shops Blvd Spc 850  Ellenton, FL 34222",
    "location": "DeSoto"
  },
  {
    "name": "PacSun Outlet",
    "description": "Clothing Stores",
    "phone": "(941) 721-4418",
    "address": "5189 Factory Shops Blvd  Ellenton, FL 34222",
    "location": "DeSoto"
  },
  {
    "name": "Gap Factory",
    "description": "Clothing Stores",
    "phone": "(941) 722-1992",
    "address": "5141 Factory Shops Blvd  Ellenton, FL 34222",
    "location": "DeSoto"
  },
  {
    "name": "Puma Outlet",
    "description": "Clothing Stores",
    "phone": "(941) 722-7999",
    "address": "5157 Factory Shops Blvd  Ellenton, FL 34222",
    "location": "DeSoto"
  },
  {
    "name": "Aeropostale Factory Store",
    "description": "Clothing Stores",
    "phone": "(941) 721-6306",
    "address": "5109 Factory Shops Blvd  Ellenton, FL 34222",
    "location": "DeSoto"
  },
  {
    "name": "Haggar Outlet Store",
    "description": "Clothing Stores",
    "phone": "(941) 729-7985",
    "address": "5183 Factory Shops Blvd  Ellenton, FL 34222",
    "location": "DeSoto"
  },
  {
    "name": "Skechers Factory Outlet",
    "description": "Clothing Stores",
    "phone": "(941) 722-6700",
    "address": "5125 Factory Shops Blvd  Ellenton, FL 34222",
    "location": "DeSoto"
  },
  {
    "name": "Zumiez",
    "description": "Clothing Stores",
    "phone": "(941) 538-5377",
    "address": "5113 Factory Shops Blvd  Ellenton, FL 34222",
    "location": "DeSoto"
  },
  {
    "name": "Van Heusen",
    "description": "Clothing Stores",
    "phone": "(941) 722-0573",
    "address": "5165 Factory Shops Blvd  Ellenton, FL 34222",
    "location": "DeSoto"
  },
  {
    "name": "Hurley Factory Store",
    "description": "Clothing Stores",
    "phone": "(941) 729-1606",
    "address": "5405 Factory Shops Blvd  Ellenton, FL 34222",
    "location": "DeSoto"
  },
  {
    "name": "Outlet Market Place",
    "description": "Clothing Stores",
    "phone": "(941) 729-4533",
    "address": "5391 Factory Shops Blvd  Ellenton, FL 34222",
    "location": "DeSoto"
  },
  {
    "name": "Izod",
    "description": "Clothing Stores",
    "phone": "(941) 729-6218",
    "address": "5387 Factory Shops Blvd  Ellenton, FL 34222",
    "location": "DeSoto"
  },
  {
    "name": "Lee Wrangler Clearance Center",
    "description": "Clothing Stores",
    "phone": "(941) 729-4533",
    "address": "5391 Factory Shops Blvd  Ellenton, FL 34222",
    "location": "DeSoto"
  },
  {
    "name": "New York & Company",
    "description": "Clothing Stores",
    "phone": "(941) 722-1081",
    "address": "5431 Factory Shops Blvd  Ellenton, FL 34222",
    "location": "DeSoto"
  },
  {
    "name": "Polo Ralph Lauren Factory Store",
    "description": "Clothing Stores",
    "phone": "(941) 721-0695",
    "address": "5461 Factory Shops Blvd Ste 480  Ellenton, FL 34222",
    "location": "DeSoto"
  },
  {
    "name": "Kenneth Cole",
    "description": "Clothing Stores",
    "phone": "(941) 721-9400",
    "address": "5461 Factory Shops Blvd  Ellenton, FL 34222",
    "location": "DeSoto"
  },
  {
    "name": "Dkny",
    "description": "Clothing Stores",
    "phone": "(941) 722-4763",
    "address": "5461 Factory Shops Blvd  Ellenton, FL 34222",
    "location": "DeSoto"
  },
  {
    "name": "Express Factory Outlet",
    "description": "Clothing Stores",
    "phone": "(941) 531-2990",
    "address": "5503 Factory Shops Blvd  Ellenton, FL 34222",
    "location": "DeSoto"
  },
  {
    "name": "Cole Haan Outlet",
    "description": "Clothing Stores",
    "phone": "(941) 721-8329",
    "address": "5569 Factory Shops Blvd Spc 285  Ellenton, FL 34222",
    "location": "DeSoto"
  },
  {
    "name": "Cole Haan",
    "description": "Clothing Stores",
    "phone": "(941) 721-8329",
    "address": "5569 Factory Shops Blvd  Ellenton, FL 34222",
    "location": "DeSoto"
  },
  {
    "name": "COACH Outlet",
    "description": "Clothing Stores",
    "phone": "(941) 729-7702",
    "address": "5601 Factory Shops Blvd Spc 400  Ellenton, FL 34222",
    "location": "DeSoto"
  },
  {
    "name": "Brooks Brothers Factory Store",
    "description": "Clothing Stores",
    "phone": "(941) 729-8944",
    "address": "5593 Factory Shops Blvd  Ellenton, FL 34222",
    "location": "DeSoto"
  },
  {
    "name": "Coach Factory Outlet",
    "description": "Clothing Stores",
    "phone": "(941) 729-7702",
    "address": "5601 Factory Shops Blvd  Ellenton, FL 34222",
    "location": "DeSoto"
  },
  {
    "name": "Columbia Factory Store",
    "description": "Clothing Stores",
    "phone": "(941) 721-6481",
    "address": "5661 Factory Shops Blvd # 470  Ellenton, FL 34222",
    "location": "DeSoto"
  },
  {
    "name": "Lucky Brand",
    "description": "Clothing Stores",
    "phone": "(941) 721-8103",
    "address": "5625 Factory Shops Blvd  Ellenton, FL 34222",
    "location": "DeSoto"
  },
  {
    "name": "GUESS Factory",
    "description": "Clothing Stores",
    "phone": "(941) 721-1955",
    "address": "5645 Factory Shops Blvd  Ellenton, FL 34222",
    "location": "DeSoto"
  },
  {
    "name": "Clarks Bostonian Outlet",
    "description": "Clothing Stores",
    "phone": "(941) 722-2828",
    "address": "5629 Factory Shops Blvd Ste 108  Ellenton, FL 34222",
    "location": "DeSoto"
  },
  {
    "name": "Swim Mart",
    "description": "Clothing Stores",
    "phone": "(941) 721-8924",
    "address": "5923 Factory Shops Blvd  Ellenton, FL 34222",
    "location": "DeSoto"
  },
  {
    "name": "Howluckyami",
    "description": "Clothing Stores",
    "phone": "(941) 896-5598",
    "address": "119 Bridge St  Bradenton Beach, FL 34217",
    "location": "DeSoto"
  },
  {
    "name": "Mister Roberts Resort Wear",
    "description": "Clothing Stores",
    "phone": "(941) 778-4505",
    "address": "5330 Gulf Dr  Holmes Beach, FL 34217",
    "location": "DeSoto"
  },
  {
    "name": "Eilieen Fisher",
    "description": "Women's Clothing",
    "phone": "(941) 952-3605",
    "address": "5033 Eastchester Dr  Sarasota, FL 34234",
    "location": "DeSoto"
  },
  {
    "name": "Azuma",
    "description": "Women's Clothing",
    "phone": "(941) 358-3388",
    "address": "4366 Independence Ct  Sarasota, FL 34234",
    "location": "DeSoto"
  },
  {
    "name": "Sunshine Apparel Of Sarasota",
    "description": "Sportswear-Wholesale & Manufacturers",
    "phone": "(941) 351-3308",
    "address": "1816 57th St  Sarasota, FL 34243",
    "location": "DeSoto"
  },
  {
    "name": "The Island Cabana",
    "description": "Gift Shops",
    "phone": "(941) 896-4946",
    "address": "403 C Pine Avenue  Anna Maria, FL 34216",
    "location": "DeSoto"
  },
  {
    "name": "West Marine",
    "description": "Boat Equipment & Supplies",
    "phone": "(941) 351-3431",
    "address": "3140 N Tamiami Trl  Sarasota, FL 34234",
    "location": "DeSoto"
  },
  {
    "name": "Town & Country Industries",
    "description": "Aluminum Products",
    "phone": "(941) 355-7627",
    "address": "2320 Industrial Blvd  Sarasota, FL 34234",
    "location": "DeSoto"
  },
  {
    "name": "J & J Apparel",
    "description": "Women's Clothing",
    "phone": "(941) 360-6685",
    "address": "2201 Industrial Blvd  Sarasota, FL 34234",
    "location": "DeSoto"
  },
  {
    "name": "Montgomery Ward",
    "description": "Department Stores",
    "phone": "(941) 360-9262",
    "address": "1703 Tallevast Rd  Sarasota, FL 34243",
    "location": "DeSoto"
  },
  {
    "name": "Unique Wholesale Distr Inc",
    "description": "General Merchandise",
    "phone": "(941) 355-1719",
    "address": "7509 Pennsylvania Ave  Sarasota, FL 34243",
    "location": "DeSoto"
  },
  {
    "name": "Men's Wearhouse",
    "description": "Men's Clothing",
    "phone": "(941) 362-0611",
    "address": "1507 Tamiami Trl  Sarasota, FL 34239",
    "location": "DeSoto"
  },
  {
    "name": "Designing Women Boutique",
    "description": "Consignment Service",
    "phone": "(941) 366-5293",
    "address": "1226 N Tamiami Trl Ste 101  Sarasota, FL 34236",
    "location": "DeSoto"
  },
  {
    "name": "Samba",
    "description": "Women's Clothing",
    "phone": "(941) 953-3505",
    "address": "1652 Main St  Sarasota, FL 34236",
    "location": "DeSoto"
  },
  {
    "name": "Oh My Gauze",
    "description": "Women's Clothing",
    "phone": "(941) 342-4992",
    "address": "2446 19th St  Sarasota, FL 34234",
    "location": "DeSoto"
  },
  {
    "name": "Dollar Daze of Sarasota Inc",
    "description": "Variety Stores",
    "phone": "(941) 217-6549",
    "address": "1175 N Washington Blvd  Sarasota, FL 34236",
    "location": "DeSoto"
  },
  {
    "name": "Mary's Discount Inc",
    "description": "Discount Stores",
    "phone": "(941) 366-1762",
    "address": "1155 N Washington Blvd  Sarasota, FL 34236",
    "location": "DeSoto"
  },
  {
    "name": "J Phillip Apparel",
    "description": "Women's Clothing",
    "phone": "(941) 954-8933",
    "address": "2401 15th St  Sarasota, FL 34237",
    "location": "DeSoto"
  },
  {
    "name": "Walmart Supercenter",
    "description": "General Merchandise",
    "phone": "(941) 351-6969",
    "address": "8320 Lockwood Ridge Rd  Sarasota, FL 34243",
    "location": "DeSoto"
  },
  {
    "name": "Sears Outlet",
    "description": "Discount Stores",
    "phone": "(941) 355-8331",
    "address": "8333 Lockwood Ridge Rd  Sarasota, FL 34243",
    "location": "DeSoto"
  },
  {
    "name": "LaBella Intimates & Boutique",
    "description": "Bras",
    "phone": "(941) 366-4477",
    "address": "1415 1st St  Sarasota, FL 34236",
    "location": "DeSoto"
  },
  {
    "name": "Juno & Jove",
    "description": "Department Stores",
    "phone": "(941) 957-0000",
    "address": "1425 1st St  Sarasota, FL 34236",
    "location": "DeSoto"
  },
  {
    "name": "First Lady Botique",
    "description": "Boutique Items",
    "phone": "(941) 312-5565",
    "address": "1709 Chrysler Ave  Sarasota, FL 34234",
    "location": "DeSoto"
  },
  {
    "name": "PJ's Boutique",
    "description": "Women's Clothing",
    "phone": "(941) 366-3900",
    "address": "1443 Main St  Sarasota, FL 34236",
    "location": "DeSoto"
  },
  {
    "name": "Lotus",
    "description": "Boutique Items",
    "phone": "(941) 906-7080",
    "address": "1451 Main St  Sarasota, FL 34236",
    "location": "DeSoto"
  },
  {
    "name": "Jake's Downtown",
    "description": "Department Stores",
    "phone": "(941) 955-5253",
    "address": "1463 Main St  Sarasota, FL 34236",
    "location": "DeSoto"
  },
  {
    "name": "Patchington",
    "description": "Women's Clothing",
    "phone": "(941) 822-0844",
    "address": "1467 Main St  Sarasota, FL 34236",
    "location": "DeSoto"
  },
  {
    "name": "Eileen Fisher",
    "description": "Women's Clothing",
    "phone": "(941) 365-2435",
    "address": "1501 Main St  Sarasota, FL 34236",
    "location": "DeSoto"
  },
  {
    "name": "Eileen Fisher Store",
    "description": "Women's Clothing",
    "phone": "(941) 365-2435",
    "address": "1501 Main St  Sarasota, FL 34236",
    "location": "DeSoto"
  },
  {
    "name": "Butterfly Boutique",
    "description": "Boutique Items",
    "phone": "(941) 706-1333",
    "address": "7652 Lockwood Ridge Rd  Sarasota, FL 34243",
    "location": "DeSoto"
  },
  {
    "name": "Evelyn & Arthur",
    "description": "Women's Clothing",
    "phone": "(941) 365-2210",
    "address": "1480 Main St  Sarasota, FL 34236",
    "location": "DeSoto"
  },
  {
    "name": "Juno & Jove Inc",
    "description": "Department Stores",
    "phone": "(941) 953-9500",
    "address": "1343 Main St  Sarasota, FL 34236",
    "location": "DeSoto"
  },
  {
    "name": "The Girl From Brazil",
    "description": "Women's Clothing",
    "phone": "(941) 350-4633",
    "address": "1650 Main St  Sarasota, FL 34236",
    "location": "DeSoto"
  },
  {
    "name": "Aliki Yamani Creations",
    "description": "Women's Clothing",
    "phone": "(941) 957-6499",
    "address": "1662 Main St  Sarasota, FL 34236",
    "location": "DeSoto"
  },
  {
    "name": "Wearable Art",
    "description": "Women's Clothing",
    "phone": "(941) 957-0105",
    "address": "1424 State St  Sarasota, FL 34236",
    "location": "DeSoto"
  },
  {
    "name": "Victoria's Secret",
    "description": "Lingerie",
    "phone": "(941) 365-1437",
    "address": "114 Golden Gate Pt  Sarasota, FL 34236",
    "location": "DeSoto"
  },
  {
    "name": "Martin Aluminum",
    "description": "Aluminum Products",
    "phone": "(941) 953-9890",
    "address": "1701 Ringling Blvd  Sarasota, FL 34236",
    "location": "DeSoto"
  },
  {
    "name": "Sun & Starsouls Inc",
    "description": "General Merchandise",
    "phone": "(941) 752-8039",
    "address": "6477 Parkland Dr  Sarasota, FL 34243",
    "location": "DeSoto"
  },
  {
    "name": "Rahelia Couture",
    "description": "Boutique Items",
    "phone": "(941) 300-1600",
    "address": "1420 Ringling Blvd,  Sarasota, FL 34236",
    "location": "DeSoto"
  },
  {
    "name": "Lululemon",
    "description": "Sportswear",
    "phone": "(941) 366-6856",
    "address": "330 S Pineapple Ave  Sarasota, FL 34236",
    "location": "DeSoto"
  },
  {
    "name": "Apricot Lane Boutique",
    "description": "Women's Clothing",
    "phone": "(941) 960-1435",
    "address": "464 John Ringling Boulevard St. Armand S Circle  Sarasota, FL 34236",
    "location": "DeSoto"
  },
  {
    "name": "Latelier F",
    "description": "Women's Clothing",
    "phone": "(941) 366-1000",
    "address": "538 S Pineapple Ave  Sarasota, FL 34236",
    "location": "DeSoto"
  },
  {
    "name": "Clever Rose",
    "description": "Women's Clothing",
    "phone": "(941) 321-4628",
    "address": "533 S Pineapple Ave  Sarasota, FL 34236",
    "location": "DeSoto"
  },
  {
    "name": "Dr. Ann Taylor Roman, Counseling and Clinical Psychology",
    "description": "Women's Clothing",
    "phone": "(941) 951-7516",
    "address": "315 Julia Pl  Sarasota, FL 34236",
    "location": "DeSoto"
  },
  {
    "name": "Fleet Feet Sports",
    "description": "Shoe Stores",
    "phone": "(941) 894-3338",
    "address": "711 S Osprey Ave Ste 1  Sarasota, FL 34236",
    "location": "DeSoto"
  },
  {
    "name": "Ann Taylor Roman",
    "description": "Women's Clothing",
    "phone": "(941) 735-4975",
    "address": "766 S Osprey Ave  Sarasota, FL 34236",
    "location": "DeSoto"
  },
  {
    "name": "Expression of Fashion",
    "description": "Women's Clothing",
    "phone": "(941) 365-9440",
    "address": "3327 Ramblewood Way  Sarasota, FL 34237",
    "location": "DeSoto"
  },
  {
    "name": "Bealls Florida",
    "description": "Home Furnishings",
    "phone": "(941) 953-4505",
    "address": "501 N Beneva Rd  Sarasota, FL 34232",
    "location": "DeSoto"
  },
  {
    "name": "Velella Reasearch Inc",
    "description": "Women's Clothing",
    "phone": "(941) 953-1948",
    "address": "2750 Bahia Vista St Ste 134  Sarasota, FL 34239",
    "location": "DeSoto"
  },
  {
    "name": "Willow506",
    "description": "Women's Clothing",
    "phone": "(941) 955-5506",
    "address": "1821 Hillview St  Sarasota, FL 34239",
    "location": "DeSoto"
  },
  {
    "name": "Oh My Gauze of Wisconsin Inc",
    "description": "Women's Clothing",
    "phone": "(941) 953-9046",
    "address": "502 N Spoonbill Dr  Sarasota, FL 34236",
    "location": "DeSoto"
  },
  {
    "name": "Tina's On Osprey",
    "description": "Boutique Items",
    "phone": "(941) 366-1555",
    "address": "1907 S Osprey Ave  Sarasota, FL 34239",
    "location": "DeSoto"
  },
  {
    "name": "European Alteration By Toni",
    "description": "Clothing Alterations",
    "phone": "(941) 388-1917",
    "address": "20 S Adams Dr  Sarasota, FL 34236",
    "location": "DeSoto"
  },
  {
    "name": "Soma Intimates",
    "description": "Lingerie",
    "phone": "(941) 388-1704",
    "address": "443d John Ringling Blvd  Sarasota, FL 34236",
    "location": "DeSoto"
  },
  {
    "name": "Foxy Lady-West",
    "description": "Women's Clothing",
    "phone": "(941) 388-5239",
    "address": "481 John Ringling Blvd  Sarasota, FL 34236",
    "location": "DeSoto"
  },
  {
    "name": "Fresh Produce Sportswear",
    "description": "Sportswear",
    "phone": "(941) 388-1883",
    "address": "1 N Blvd Of The Presidents  Sarasota, FL 34236",
    "location": "DeSoto"
  },
  {
    "name": "Gia Ventola",
    "description": "Women's Clothing",
    "phone": "(941) 706-0423",
    "address": "14 S Blvd Of The Presidents  Sarasota, FL 34236",
    "location": "DeSoto"
  },
  {
    "name": "Fantasea Coastal Home Inc",
    "description": "Home Furnishings",
    "phone": "(941) 388-3031",
    "address": "378 Saint Armands Cir  Sarasota, FL 34236",
    "location": "DeSoto"
  },
  {
    "name": "Dream Weaver",
    "description": "Women's Clothing",
    "phone": "(941) 388-3706",
    "address": "364 Saint Armands Cir  Sarasota, FL 34236",
    "location": "DeSoto"
  },
  {
    "name": "Destination Florida",
    "description": "Sportswear",
    "phone": "(941) 388-2119",
    "address": "370 Saint Armands Cir  Sarasota, FL 34236",
    "location": "DeSoto"
  },
  {
    "name": "Terra Nova",
    "description": "Women's Clothing",
    "phone": "(941) 388-0410",
    "address": "353 Saint Armands Cir  Sarasota, FL 34236",
    "location": "DeSoto"
  },
  {
    "name": "Natural Discoveries",
    "description": "Women's Clothing",
    "phone": "(941) 388-1600",
    "address": "320 John Ringling Blvd  Sarasota, FL 34236",
    "location": "DeSoto"
  },
  {
    "name": "Target",
    "description": "General Merchandise",
    "phone": "(941) 756-2700",
    "address": "6150 14th St W  Bradenton, FL 34207",
    "location": "DeSoto"
  },
  {
    "name": "Bon Worth",
    "description": "Women's Clothing",
    "phone": "(941) 755-5626",
    "address": "6110 14th St W  Bradenton, FL 34207",
    "location": "DeSoto"
  },
  {
    "name": "Bradenton Fashion And Cap City",
    "description": "Women's Clothing",
    "phone": "(941) 753-1555",
    "address": "1427 57th Ave E  Bradenton, FL 34203",
    "location": "DeSoto"
  },
  {
    "name": "The Colony Beach Shop",
    "description": "Sportswear",
    "phone": "(941) 383-6431",
    "address": "1620 Gulf Of Mexico Dr  Longboat Key, FL 34228",
    "location": "DeSoto"
  },
  {
    "name": "Walmart Auto Care Centers",
    "description": "General Merchandise",
    "phone": "(941) 752-0025",
    "address": "2911 53rd Ave E  Braden River, FL 34203",
    "location": "DeSoto"
  },
  {
    "name": "Walmart Auto Care Center",
    "description": "General Merchandise",
    "phone": "(941) 752-0025",
    "address": "2911 53rd Ave E  Bradenton, FL 34203",
    "location": "DeSoto"
  },
  {
    "name": "Laura Jean's",
    "description": "Consignment Service",
    "phone": "(941) 922-5535",
    "address": "3830 S Tuttle Ave  Sarasota, FL 34239",
    "location": "DeSoto"
  },
  {
    "name": "Designer Consigner of Sarasota",
    "description": "Consignment Service",
    "phone": "(941) 953-5995",
    "address": "3639 Bahia Vista St  Sarasota, FL 34232",
    "location": "DeSoto"
  },
  {
    "name": "Pine Craft Discount Market",
    "description": "Department Stores",
    "phone": "(941) 260-9046",
    "address": "3667 Bahia Vista St  Sarasota, FL 34232",
    "location": "DeSoto"
  },
  {
    "name": "Good As New Consignment & Brdl",
    "description": "Consignment Service",
    "phone": "(941) 366-1234",
    "address": "1273 Beneva Rd Fl 34232  Sarasota, FL 34232",
    "location": "DeSoto"
  },
  {
    "name": "GOOD AS NEW CONSIGNMENT AND BRIDAL SHOPPE",
    "description": "Bridal Shops",
    "phone": "(941) 366-1234",
    "address": "1273 Beneva Rd  Sarasota, FL 34232",
    "location": "DeSoto"
  },
  {
    "name": "Saks Fifth Avenue",
    "description": "Department Stores",
    "phone": "(941) 364-5300",
    "address": "3501 S Tamiami Trl  Sarasota, FL 34239",
    "location": "DeSoto"
  },
  {
    "name": "Champs Sports",
    "description": "Sportswear",
    "phone": "(941) 954-4218",
    "address": "3501 S Tamiami Trl  Sarasota, FL 34239",
    "location": "DeSoto"
  },
  {
    "name": "Finish Line",
    "description": "Shoe Stores",
    "phone": "(941) 329-3300",
    "address": "3501 S Tamiami Trl  Sarasota, FL 34239",
    "location": "DeSoto"
  },
  {
    "name": "J. Jill",
    "description": "Women's Clothing",
    "phone": "(941) 955-2873",
    "address": "3501 S Tamiami Trl  Sarasota, FL 34239",
    "location": "DeSoto"
  },
  {
    "name": "Talbots",
    "description": "Women's Clothing",
    "phone": "(941) 952-9100",
    "address": "3501 S Tamiami Trl  Sarasota, FL 34239",
    "location": "DeSoto"
  },
  {
    "name": "Francesca's",
    "description": "Women's Clothing",
    "phone": "(941) 365-1700",
    "address": "3501 S Tamiami Trl  Sarasota, FL 34239",
    "location": "DeSoto"
  },
  {
    "name": "Alexander's",
    "description": "Women's Clothing",
    "phone": "(941) 366-5400",
    "address": "3501 S Tamiami Trl  Sarasota, FL 34239",
    "location": "DeSoto"
  },
  {
    "name": "Golf Galaxy",
    "description": "Golf Equipment & Supplies",
    "phone": "(941) 351-7945",
    "address": "143 N Cattlemen Rd  Sarasota, FL 34243",
    "location": "DeSoto"
  },
  {
    "name": "DressBarn",
    "description": "Women's Clothing",
    "phone": "(941) 355-7238",
    "address": "119 N Cattlemen Rd  Sarasota, FL 34243",
    "location": "DeSoto"
  },
  {
    "name": "Rei",
    "description": "Sporting Goods",
    "phone": "(941) 899-0138",
    "address": "161 N Cattlemen Rd  Sarasota, FL 34243",
    "location": "DeSoto"
  },
  {
    "name": "JoS. A. Bank",
    "description": "Men's Clothing",
    "phone": "(941) 358-9540",
    "address": "215 N Cattlemen Rd Ste 56  Sarasota, FL 34243",
    "location": "DeSoto"
  },
  {
    "name": "Daisy Cotton Inc",
    "description": "Women's Clothing",
    "phone": "(941) 925-5833",
    "address": "3847 S School Ave  Sarasota, FL 34239",
    "location": "DeSoto"
  },
  {
    "name": "Edwin Watts Golf",
    "description": "Golf Equipment & Supplies",
    "phone": "(941) 922-1006",
    "address": "4014 S Tamiami Trl  Sarasota, FL 34231",
    "location": "DeSoto"
  },
  {
    "name": "Motherhood Maternity",
    "description": "Maternity Clothes",
    "phone": "(215) 555-1212",
    "address": "110 University Town Center Dr  Sarasota, FL 34243",
    "location": "DeSoto"
  },
  {
    "name": "Juraci's Place",
    "description": "Women's Clothing",
    "phone": "(941) 217-5327",
    "address": "3631 Webber St  Sarasota, FL 34232",
    "location": "DeSoto"
  },
  {
    "name": "ZAGG University Town Center",
    "description": "Shoe Stores",
    "phone": "(941) 667-0934",
    "address": "140 University Town Center Dr  Sarasota, FL 34243",
    "location": "DeSoto"
  },
  {
    "name": "Madewell",
    "description": "Women's Clothing",
    "phone": "(941) 299-0190",
    "address": "140 University Town Center Dr Unit 266  Sarasota, FL 34243",
    "location": "DeSoto"
  },
  {
    "name": "Anthropologie",
    "description": "Women's Clothing",
    "phone": "(941) 306-4513",
    "address": "140 University Town Center Dr  Sarasota, FL 34243",
    "location": "DeSoto"
  },
  {
    "name": "Victoria's Secret & PINK by Victoria's Secret",
    "description": "Lingerie",
    "phone": "(941) 893-3935",
    "address": "140 University Town Center Dr  Sarasota, FL 34243",
    "location": "DeSoto"
  },
  {
    "name": "Foot Locker",
    "description": "Shoe Stores",
    "phone": "(941) 893-3919",
    "address": "140 University Town Center Dr Unit 208  Sarasota, FL 34243",
    "location": "DeSoto"
  },
  {
    "name": "Michael Kors",
    "description": "Women's Clothing",
    "phone": "(941) 527-4200",
    "address": "140 University Town Center Dr Unit 225  Sarasota, FL 34243",
    "location": "DeSoto"
  },
  {
    "name": "Vans",
    "description": "Shoe Stores",
    "phone": "(941) 225-6670",
    "address": "140 University Town Center Dr Unit 168  Sarasota, FL 34243",
    "location": "DeSoto"
  },
  {
    "name": "bebe",
    "description": "Women's Clothing",
    "phone": "(941) 702-9926",
    "address": "140 University Town Center Dr Unit 168  Sarasota, FL 34243",
    "location": "DeSoto"
  },
  {
    "name": "BCBGMAXAZRIA",
    "description": "Women's Clothing",
    "phone": "(941) 281-7008",
    "address": "140 University Town Center Dr Unit 273  Sarasota, FL 34243",
    "location": "DeSoto"
  },
  {
    "name": "Clarks",
    "description": "Women's Clothing",
    "phone": "(941) 893-1080",
    "address": "140 University Town Center Dr Unit 290  Sarasota, FL 34243",
    "location": "DeSoto"
  },
  {
    "name": "Kate Spade",
    "description": "Women's Clothing",
    "phone": "(941) 866-6591",
    "address": "140 University Town Center Dr Unit 237  Sarasota, FL 34243",
    "location": "DeSoto"
  },
  {
    "name": "Fabletics",
    "description": "Women's Clothing",
    "phone": "(941) 263-1320",
    "address": "140 University Town Center Dr  Sarasota, FL 34243",
    "location": "DeSoto"
  },
  {
    "name": "Soft Surroundings",
    "description": "Women's Clothing",
    "phone": "(941) 444-3550",
    "address": "140 University Town Center Dr  Sarasota, FL 34243",
    "location": "DeSoto"
  },
  {
    "name": "Lids",
    "description": "Hat Shops",
    "phone": "(941) 248-6261",
    "address": "140 University Town Center Dr  Sarasota, FL 34243",
    "location": "DeSoto"
  },
  {
    "name": "Johnston & Murphy",
    "description": "Shoe Stores",
    "phone": "(941) 702-9666",
    "address": "140 University Town Center Dr  Sarasota, FL 34243",
    "location": "DeSoto"
  },
  {
    "name": "Flow N Roll Jiu Jitsu Custom Apparel",
    "description": "Sportswear",
    "phone": "(941) 544-8799",
    "address": "5317 Fruitville Rd Ste 110  Sarasota, FL 34232",
    "location": "DeSoto"
  },
  {
    "name": "Dillard's",
    "description": "Department Stores",
    "phone": "(941) 527-4878",
    "address": "200 University Town Center Dr  Sarasota, FL 34243",
    "location": "DeSoto"
  },
  {
    "name": "Casual Male XL",
    "description": "Men's Clothing",
    "phone": "(941) 924-3239",
    "address": "4130 S Tamiami Trl  Sarasota, FL 34231",
    "location": "DeSoto"
  },
  {
    "name": "Stylish Benefactor",
    "description": "Women's Clothing",
    "phone": "(877) 310-3817",
    "address": "4785 Maid Marian Ln  Sarasota, FL 34232",
    "location": "DeSoto"
  },
  {
    "name": "Play It Again Sports",
    "description": "Sporting Goods",
    "phone": "(941) 378-1477",
    "address": "5407 Fruitville Rd  Sarasota, FL 34232",
    "location": "DeSoto"
  },
  {
    "name": "Mindful Medicinal CBD Dispensary and Spa",
    "description": "Department Stores",
    "phone": "(941) 388-7289",
    "address": "5483 Fruitville Rd  Sarasota, FL 34232",
    "location": "DeSoto"
  },
  {
    "name": "King James Inc",
    "description": "Women's Clothing",
    "phone": "(941) 922-1873",
    "address": "4333 S Tamiami Trl  Sarasota, FL 34231",
    "location": "DeSoto"
  },
  {
    "name": "Adam & Eve",
    "description": "Department Stores",
    "phone": "(941) 203-8651",
    "address": "4400 S Tamiami Trl  Sarasota, FL 34231",
    "location": "DeSoto"
  },
  {
    "name": "Giggles",
    "description": "Lingerie",
    "phone": "(941) 927-7474",
    "address": "4407 S Tamiami Trl  Sarasota, FL 34231",
    "location": "DeSoto"
  },
  {
    "name": "Draper's & Damon's",
    "description": "Women's Clothing",
    "phone": "(941) 921-3717",
    "address": "4820 S Tamiami Trl  Sarasota, FL 34231",
    "location": "DeSoto"
  },
  {
    "name": "Hot Flash",
    "description": "Women's Clothing",
    "phone": "(941) 921-7027",
    "address": "4858 S Tamiami Trl  Sarasota, FL 34231",
    "location": "DeSoto"
  },
  {
    "name": "The Perfect Dress of Sarasota",
    "description": "Bridal Shops",
    "phone": "(941) 925-5888",
    "address": "5109 S Tamiami Trl  Sarasota, FL 34231",
    "location": "DeSoto"
  },
  {
    "name": "Libra Usa",
    "description": "Department Stores",
    "phone": "(941) 371-2992",
    "address": "4081 Taggart Cay N  Sarasota, FL 34233",
    "location": "DeSoto"
  },
  {
    "name": "American Shore Trading Company",
    "description": "Men's Clothing",
    "phone": "(941) 907-1122",
    "address": "8131 Lakewood Main St Ste 106  Lakewood Ranch, FL 34202",
    "location": "DeSoto"
  },
  {
    "name": "Beall's Corporate Offices",
    "description": "Department Stores",
    "phone": "(941) 747-2355",
    "address": "1806 38th Ave E  Bradenton, FL 34208",
    "location": "DeSoto"
  },
  {
    "name": "Walmart Garden Center",
    "description": "General Merchandise",
    "phone": "(941) 798-9341",
    "address": "5315 Cortez Rd W  Bradenton, FL 34210",
    "location": "DeSoto"
  },
  {
    "name": "DICK'S Sporting Goods",
    "description": "Exercise & Fitness Equipment",
    "phone": "(941) 751-6900",
    "address": "4108 14th St W  Bradenton, FL 34205",
    "location": "DeSoto"
  },
  {
    "name": "All Dressed Up",
    "description": "Women's Clothing",
    "phone": "(941) 748-8807",
    "address": "303 301 Blvd W  Bradenton, FL 34205",
    "location": "DeSoto"
  },
  {
    "name": "T R L Enterprises Inc",
    "description": "Women's Clothing",
    "phone": "(941) 387-3733",
    "address": "525 Bay Isles Pkwy  Longboat Key, FL 34228",
    "location": "DeSoto"
  },
  {
    "name": "Supermatt",
    "description": "Department Stores",
    "phone": "(941) 226-2321",
    "address": "5026 15th St E  Bradenton, FL 34203",
    "location": "DeSoto"
  },
  {
    "name": "Scout & Molly's",
    "description": "Women's Clothing",
    "phone": "(941) 210-4686",
    "address": "5275 University Pkwy  University Park, FL 34201",
    "location": "DeSoto"
  },
  {
    "name": "Walmart Grocery Pickup",
    "description": "Department Stores",
    "phone": "(941) 374-0539",
    "address": "4536 53rd Ave E  Bradenton, FL 34203",
    "location": "DeSoto"
  },
  {
    "name": "Optical Outlet",
    "description": "Optical Goods",
    "phone": "(941) 727-0345",
    "address": "1105 Cortez Rd W  Bradenton, FL 34207",
    "location": "DeSoto"
  },
  {
    "name": "Bealls Westgate Corp",
    "description": "Department Stores",
    "phone": "(941) 747-2355",
    "address": "1806 38th Ave E  Bradenton, FL 34208",
    "location": "DeSoto"
  },
  {
    "name": "Rack Room Shoes",
    "description": "Shoe Stores",
    "phone": "(941) 359-2847",
    "address": "8473 Cooper Creek Blvd  University Park, FL 34201",
    "location": "DeSoto"
  },
  {
    "name": "Dollar General Market",
    "description": "Discount Stores",
    "phone": "(941) 357-4622",
    "address": "3611 1st St Ste 1100  Bradenton, FL 34208",
    "location": "DeSoto"
  },
  {
    "name": "Lane Bryant - Closed",
    "description": "Women's Clothing",
    "phone": "(941) 351-3013",
    "address": "8129 Cooper Creek Blvd  University Park, FL 34201",
    "location": "DeSoto"
  },
  {
    "name": "Plus Sizes & More",
    "description": "Women's Clothing",
    "phone": "(941) 753-3695",
    "address": "303 301 Blvd W  Bradenton, FL 34205",
    "location": "DeSoto"
  },
  {
    "name": "Footaction USA",
    "description": "Shoe Stores",
    "phone": "(941) 746-1444",
    "address": "303 301 Blvd W Ste 635  Bradenton, FL 34205",
    "location": "DeSoto"
  },
  {
    "name": "Body Central",
    "description": "Women's Clothing",
    "phone": "(941) 747-8883",
    "address": "303 301 Blvd W  Bradenton, FL 34205",
    "location": "DeSoto"
  },
  {
    "name": "Jenny's One Dollar Plus",
    "description": "Discount Stores",
    "phone": "(941) 748-7301",
    "address": "303 301 Blvd W  Bradenton, FL 34205",
    "location": "DeSoto"
  },
  {
    "name": "Play It Again Sports - Bradenton",
    "description": "Sporting Goods",
    "phone": "(941) 896-9684",
    "address": "3611 1st St E Ste 710  Bradenton, FL 34208",
    "location": "DeSoto"
  },
  {
    "name": "Loyaltyfitsportwear",
    "description": "Exercise & Fitness Equipment",
    "phone": "(941) 666-4273",
    "address": "4880 51st St W  Bradenton, FL 34210",
    "location": "DeSoto"
  },
  {
    "name": "RAW Wheels & Tires",
    "description": "Tire Dealers",
    "phone": "(941) 412-2900",
    "address": "2919 14th St W  Bradenton, FL 34205",
    "location": "DeSoto"
  },
  {
    "name": "Walmart Wireless Services",
    "description": "General Merchandise",
    "phone": "(941) 799-5546",
    "address": "5810 Ranch Lake Blvd  Bradenton, FL 34202",
    "location": "DeSoto"
  },
  {
    "name": "Attitudes On Maine Street",
    "description": "Women's Clothing",
    "phone": "(941) 929-2928",
    "address": "8141 Lakewood Ranch Blvd  Lakewood Ranch, FL 34202",
    "location": "DeSoto"
  },
  {
    "name": "Okyo Fashions",
    "description": "Women's Clothing",
    "phone": "(941) 748-7230",
    "address": "1707 1st St  Bradenton, FL 34208",
    "location": "DeSoto"
  },
  {
    "name": "Victoria's Fashions",
    "description": "Women's Clothing Wholesalers & Manufacturers",
    "phone": "(941) 750-9609",
    "address": "1707 1st St E  Bradenton, FL 34208",
    "location": "DeSoto"
  },
  {
    "name": "Island Styles",
    "description": "Women's Clothing",
    "phone": "(941) 960-2338",
    "address": "5206 Ocean Blvd  Sarasota, FL 34242",
    "location": "DeSoto"
  },
  {
    "name": "Island Cotton Co",
    "description": "Women's Clothing",
    "phone": "(941) 349-1170",
    "address": "5221 Ocean Blvd  Sarasota, FL 34242",
    "location": "DeSoto"
  },
  {
    "name": "Imagination & Company",
    "description": "Department Stores",
    "phone": "(941) 371-5238",
    "address": "1575 Cattlemen Rd  Sarasota, FL 34232",
    "location": "DeSoto"
  },
  {
    "name": "Best Buy Awards",
    "description": "Department Stores",
    "phone": "(941) 377-6307",
    "address": "1655 Cattlemen Rd  Sarasota, FL 34232",
    "location": "DeSoto"
  },
  {
    "name": "CK DANCE SHOES & ACCESSORIES",
    "description": "Dancing Supplies",
    "phone": "(239) 826-6089",
    "address": "1985 Cattlemen Rd Unit 3  Sarasota, FL 34232",
    "location": "DeSoto"
  },
  {
    "name": "Tom James Company",
    "description": "Custom Made Men's Suits",
    "phone": "(941) 487-0095",
    "address": "2100 Constitution Blvd Suite 166  Sarasota, FL 34231",
    "location": "DeSoto"
  },
  {
    "name": "Oh My Gauze Inc",
    "description": "Women's Clothing",
    "phone": "(941) 377-6560",
    "address": "2123 Porter Lake Dr  Sarasota, FL 34240",
    "location": "DeSoto"
  },
  {
    "name": "Wurkin Stiffs",
    "description": "Men's Clothing",
    "phone": "(941) 379-8163",
    "address": "2177 Porter Lake Dr  Sarasota, FL 34240",
    "location": "DeSoto"
  },
  {
    "name": "Aluminum Specialties Wholesale",
    "description": "Aluminum Products",
    "phone": "(941) 371-3380",
    "address": "2245 Porter Lake Dr  Sarasota, FL 34240",
    "location": "DeSoto"
  },
  {
    "name": "Southside Sports Inc",
    "description": "Sporting Goods",
    "phone": "(941) 379-5688",
    "address": "2427 Porter Lake Dr Ste 106  Sarasota, FL 34240",
    "location": "DeSoto"
  },
  {
    "name": "Giannini Custom Tailoring",
    "description": "Men's Clothing",
    "phone": "(941) 923-1752",
    "address": "2144 Gulf Gate Dr  Sarasota, FL 34231",
    "location": "DeSoto"
  },
  {
    "name": "The British Corner Shop",
    "description": "Department Stores",
    "phone": "(941) 346-6004",
    "address": "2236 Gulf Gate Dr  Sarasota, FL 34231",
    "location": "DeSoto"
  },
  {
    "name": "Kinky Kitty",
    "description": "Lingerie",
    "phone": "(941) 358-8707",
    "address": "2246 Gulf Gate Dr  Sarasota, FL 34231",
    "location": "DeSoto"
  },
  {
    "name": "First Lady Boutique Inc",
    "description": "Boutique Items",
    "phone": "(941) 922-9666",
    "address": "2053 Reynolds St  Sarasota, FL 34231",
    "location": "DeSoto"
  },
  {
    "name": "Nice Day Sports",
    "description": "Sportswear",
    "phone": "(941) 538-6941",
    "address": "4283 Express Ln  Sarasota, FL 34249",
    "location": "DeSoto"
  },
  {
    "name": "Things You Like",
    "description": "Fashion Designers",
    "phone": "(941) 349-1994",
    "address": "6529 Midnight Pass Rd  Sarasota, FL 34242",
    "location": "DeSoto"
  },
  {
    "name": "European Traditions",
    "description": "Furniture Stores",
    "phone": "(941) 921-5616",
    "address": "6030 Clark Center Ave  Sarasota, FL 34238",
    "location": "DeSoto"
  },
  {
    "name": "Key Casuals",
    "description": "Women's Clothing",
    "phone": "(941) 349-6625",
    "address": "6625 Midnight Pass Rd  Sarasota, FL 34242",
    "location": "DeSoto"
  },
  {
    "name": "RMS All Star Sports",
    "description": "Sportswear",
    "phone": "(941) 746-3292",
    "address": "1707 1st St E  Bradenton, FL 34208",
    "location": "DeSoto"
  },
  {
    "name": "Total Aluminum Inc",
    "description": "Aluminum Products",
    "phone": "(941) 896-3119",
    "address": "3103 81st Ct E Ste 110  Bradenton, FL 34211",
    "location": "DeSoto"
  },
  {
    "name": "Your CBD Store",
    "description": "Department Stores",
    "phone": "(941) 782-8191",
    "address": "8724 State Road 70 E  Bradenton, FL 34202",
    "location": "DeSoto"
  },
  {
    "name": "Burke's Outlet Stores",
    "description": "Variety Stores",
    "phone": "(941) 747-2355",
    "address": "700 13th Ave E  Bradenton, FL 34208",
    "location": "DeSoto"
  },
  {
    "name": "HR Sportswear",
    "description": "Sportswear",
    "phone": "(941) 209-1790",
    "address": "5002 Lena Rd Unit 112  Bradenton, FL 34211",
    "location": "DeSoto"
  },
  {
    "name": "Hearts Desire",
    "description": "Women's Clothing",
    "phone": "(941) 302-1069",
    "address": "1221 12th St W  Bradenton, FL 34205",
    "location": "DeSoto"
  },
  {
    "name": "EJ Wedding & Beyond LLC",
    "description": "Wedding Planning & Consultants",
    "phone": "(941) 580-0907",
    "address": "230 Martin Luther King Jr Ave W  Bradenton, FL 34205",
    "location": "DeSoto"
  },
  {
    "name": "Fore Some Sports",
    "description": "Golf Equipment & Supplies",
    "phone": "(941) 794-2345",
    "address": "8104 Cortez Rd W  Bradenton, FL 34210",
    "location": "DeSoto"
  },
  {
    "name": "Family Dollar Stores",
    "description": "Variety Stores",
    "phone": "(941) 761-1598",
    "address": "9516 Cortez Rd W  Bradenton, FL 34210",
    "location": "DeSoto"
  },
  {
    "name": "Charley's Boutique",
    "description": "Women's Clothing",
    "phone": "(941) 345-4603",
    "address": "5761 Manatee Ave W  Bradenton, FL 34209",
    "location": "DeSoto"
  },
  {
    "name": "Short Par 4",
    "description": "Men's Clothing",
    "phone": "(941) 251-4083",
    "address": "3125 Lakewood Ranch Blvd Ste 101  Bradenton, FL 34211",
    "location": "DeSoto"
  },
  {
    "name": "Miami Girl Fashion",
    "description": "Women's Clothing",
    "phone": "(941) 554-8573",
    "address": "7650 S Tamiami Trl Ste 1  Sarasota, FL 34231",
    "location": "DeSoto"
  },
  {
    "name": "Westfield Mall - Sarasota Square",
    "description": "Department Stores",
    "phone": "(941) 922-9609",
    "address": "8201 S Tamiami Trl  Sarasota, FL 34238",
    "location": "DeSoto"
  },
  {
    "name": "Sports Fan-Attic",
    "description": "Sporting Goods",
    "phone": "(941) 926-2434",
    "address": "8201 S Tamiami Trl  Sarasota, FL 34238",
    "location": "DeSoto"
  },
  {
    "name": "Lady Foot Locker",
    "description": "Shoe Stores",
    "phone": "(941) 922-3216",
    "address": "8201 S Tamiami Trl Unit 44  Sarasota, FL 34238",
    "location": "DeSoto"
  },
  {
    "name": "Windsor",
    "description": "Women's Clothing",
    "phone": "(941) 222-0717",
    "address": "8201 S Tamiami Trl  Sarasota, FL 34238",
    "location": "DeSoto"
  },
  {
    "name": "Pelican Knits",
    "description": "Women's Clothing",
    "phone": "(941) 923-6421",
    "address": "8221 Shadow Pine Way  Sarasota, FL 34238",
    "location": "DeSoto"
  },
  {
    "name": "SKECHERS Factory Outlet",
    "description": "Shoe Stores",
    "phone": "(941) 722-6700",
    "address": "5173 Factory Shops Blvd # 850  Ellenton, FL 34222",
    "location": "DeSoto"
  },
  {
    "name": "Columbia Sportswear",
    "description": "Sportswear",
    "phone": "(941) 721-6481",
    "address": "5661 Factory Shops Blvd Ste 470  Ellenton, FL 34222",
    "location": "DeSoto"
  },
  {
    "name": "The Lace Buckle Boutique",
    "description": "Boutique Items",
    "phone": "(941) 417-7007",
    "address": "1003 10th Ave W  Palmetto, FL 34221",
    "location": "DeSoto"
  },
  {
    "name": "Global Protection Products",
    "description": "General Merchandise",
    "phone": "(941) 723-3100",
    "address": "1610 12th St E  Palmetto, FL 34221",
    "location": "DeSoto"
  },
  {
    "name": "Bulk Food Superstore Ellenton",
    "description": "Department Stores",
    "phone": "(941) 721-4349",
    "address": "6234 Us Highway 301 N  Ellenton, FL 34222",
    "location": "DeSoto"
  },
  {
    "name": "Adidas Outlet Store",
    "description": "Outlet Stores",
    "phone": "(941) 723-3901",
    "address": "5151 Factory Shops Blvd  Ellenton, FL 34222",
    "location": "DeSoto"
  },
  {
    "name": "Reebok",
    "description": "Shoe Stores",
    "phone": "(941) 721-3404",
    "address": "5135 Factory Shops Blvd # 970  Ellenton, FL 34222",
    "location": "DeSoto"
  },
  {
    "name": "The PUMA Store",
    "description": "Shoe Stores",
    "phone": "(941) 722-7999",
    "address": "5157 Factory Shops Blvd  Ellenton, FL 34222",
    "location": "DeSoto"
  },
  {
    "name": "Lane Bryant Outlet",
    "description": "Shoe Stores",
    "phone": "(941) 722-3553",
    "address": "5245 Factory Shops Blvd  Ellenton, FL 34222",
    "location": "DeSoto"
  },
  {
    "name": "Motherhood Maternity Outlet",
    "description": "Maternity Clothes",
    "phone": "(941) 723-6429",
    "address": "5295 Factory Shops Blvd  Ellenton, FL 34222",
    "location": "DeSoto"
  },
  {
    "name": "Easy Spirit",
    "description": "Shoe Stores",
    "phone": "(941) 729-6292",
    "address": "5319 Factory Shops Blvd  Ellenton, FL 34222",
    "location": "DeSoto"
  },
  {
    "name": "Famous Footwear",
    "description": "Shoe Stores",
    "phone": "(941) 729-0848",
    "address": "5339 Factory Shops Blvd #  Ellenton, FL 34222",
    "location": "DeSoto"
  },
  {
    "name": "ASICS Outlet",
    "description": "Shoe Stores",
    "phone": "(941) 729-2519",
    "address": "5529 Factory Shops Blvd  Ellenton, FL 34222",
    "location": "DeSoto"
  },
  {
    "name": "Nine West",
    "description": "Shoe Stores",
    "phone": "(941) 722-3133",
    "address": "5571 Factory Shops Blvd  Ellenton, FL 34222",
    "location": "DeSoto"
  },
  {
    "name": "Michael Kors Outlet",
    "description": "Women's Clothing",
    "phone": "(941) 722-6699",
    "address": "5597 Factory Shops Blvd Ste 335  Ellenton, FL 34222",
    "location": "DeSoto"
  },
  {
    "name": "Juicy Couture",
    "description": "Women's Clothing",
    "phone": "(941) 721-7052",
    "address": "5597 Factory Shops Blvd  Ellenton, FL 34222",
    "location": "DeSoto"
  },
  {
    "name": "Nike",
    "description": "Sportswear",
    "phone": "(941) 722-0096",
    "address": "5665 Factory Shops Blvd  Ellenton, FL 34222",
    "location": "DeSoto"
  },
  {
    "name": "Kate Spade Outlet",
    "description": "Women's Clothing",
    "phone": "(941) 722-2093",
    "address": "5703 Factory Shops Blvd  Ellenton, FL 34222",
    "location": "DeSoto"
  },
  {
    "name": "Art Attack 2",
    "description": "Gift Shops",
    "phone": "(941) 778-7369",
    "address": "105 Bridge St  Bradenton Beach, FL 34217",
    "location": "DeSoto"
  },
  {
    "name": "Discount Beverage",
    "description": "Discount Stores",
    "phone": "(941) 729-9366",
    "address": "5207 Us Highway 19  Palmetto, FL 34221",
    "location": "DeSoto"
  },
  {
    "name": "West Coast Surf Shop",
    "description": "Surfboards",
    "phone": "(941) 778-1001",
    "address": "3902 Gulf Dr  Holmes Beach, FL 34217",
    "location": "DeSoto"
  },
  {
    "name": "Irene's Resort Wear",
    "description": "Women's Clothing",
    "phone": "(941) 778-1161",
    "address": "5308 Marina Dr  Holmes Beach, FL 34217",
    "location": "DeSoto"
  },
  {
    "name": "Sun & Surf Lifestyle Apparel",
    "description": "Sportswear",
    "phone": "(941) 778-2169",
    "address": "5418 Marina Dr  Holmes Beach, FL 34217",
    "location": "DeSoto"
  },
  {
    "name": "Sun and Surf Beach Shop",
    "description": "Sportswear",
    "phone": "(941) 778-2169",
    "address": "5418 Marina Dr  Holmes Beach, FL 34217",
    "location": "DeSoto"
  },
  {
    "name": "Cato",
    "description": "Women's Clothing",
    "phone": "(941) 981-9447",
    "address": "7809 36th Ave E  Palmetto, FL 34221",
    "location": "DeSoto"
  }
]