[
  {
    "name": "Phuture",
    "description": "Clothing Stores",
    "phone": "(888) 748-8873",
    "address": "255 Primer  Sanford, FL 32771",
    "location": "Dixie"
  },
  {
    "name": "Citi Trends",
    "description": "Clothing Stores",
    "phone": "(904) 750-3664",
    "address": "2921 S Orlando Dr Ste 230  Sanford, FL 32773",
    "location": "Dixie"
  },
  {
    "name": "Stuph Clothing",
    "description": "Clothing Stores",
    "phone": "(407) 581-1240",
    "address": "111 E 1st St  Sanford, FL 32771",
    "location": "Dixie"
  },
  {
    "name": "Floirda Sportswear",
    "description": "Clothing Stores",
    "phone": "(407) 321-5354",
    "address": "1910 S Park Ave  Sanford, FL 32771",
    "location": "Dixie"
  },
  {
    "name": "Rainbow Shops",
    "description": "Clothing Stores",
    "phone": "(407) 323-9285",
    "address": "3613 S Orlando Dr  Sanford, FL 32773",
    "location": "Dixie"
  },
  {
    "name": "Hot Topic",
    "description": "Clothing Stores",
    "phone": "(407) 330-7307",
    "address": "269 Towne Center Cir  Sanford, FL 32771",
    "location": "Dixie"
  },
  {
    "name": "Rue 21",
    "description": "Clothing Stores",
    "phone": "(407) 323-0946",
    "address": "3701 S Orlando Dr Ste 100  Sanford, FL 32773",
    "location": "Dixie"
  },
  {
    "name": "Dixie Heritage",
    "description": "Clothing Stores",
    "phone": "(407) 942-3245",
    "address": "200 Towne Center Cir Ste 177  Sanford, FL 32771",
    "location": "Dixie"
  },
  {
    "name": "Urban Appeal",
    "description": "Clothing Stores",
    "phone": "(407) 878-1236",
    "address": "3699 S Orlando Dr  Sanford, FL 32773",
    "location": "Dixie"
  },
  {
    "name": "Old Navy",
    "description": "Clothing Stores",
    "phone": "(407) 322-1847",
    "address": "1701 Wp Ball Blvd  Sanford, FL 32771",
    "location": "Dixie"
  },
  {
    "name": "Bealls Department Store",
    "description": "Clothing Stores",
    "phone": "(407) 321-1147",
    "address": "221 Towne Center Blvd  Sanford, FL 32771",
    "location": "Dixie"
  },
  {
    "name": "Burlington Coat Factory",
    "description": "Clothing Stores",
    "phone": "(407) 688-8785",
    "address": "1301 Wp Ball Blvd  Sanford, FL 32771",
    "location": "Dixie"
  },
  {
    "name": "Rock Stop",
    "description": "Clothing Stores",
    "phone": "(321) 926-3159",
    "address": "173 Towne Center Cir  Sanford, FL 32771",
    "location": "Dixie"
  },
  {
    "name": "Tilly's",
    "description": "Clothing Stores",
    "phone": "(407) 321-0711",
    "address": "209 Towne Center Cir  Sanford, FL 32771",
    "location": "Dixie"
  },
  {
    "name": "Hollister",
    "description": "Clothing Stores",
    "phone": "(407) 302-5152",
    "address": "235 Towne Center Cir  Sanford, FL 32771",
    "location": "Dixie"
  },
  {
    "name": "PacSun",
    "description": "Clothing Stores",
    "phone": "(407) 324-1339",
    "address": "200 Towne Center Cir  Sanford, FL 32771",
    "location": "Dixie"
  },
  {
    "name": "Cotton On",
    "description": "Clothing Stores",
    "phone": "(407) 322-8158",
    "address": "200 Towne Center Cir  Sanford, FL 32771",
    "location": "Dixie"
  },
  {
    "name": "Jimmy Jazz",
    "description": "Clothing Stores",
    "phone": "(407) 323-8027",
    "address": "200 Towne Center Cir  Sanford, FL 32771",
    "location": "Dixie"
  },
  {
    "name": "Chic Frenzy",
    "description": "Clothing Stores",
    "phone": "(407) 942-3537",
    "address": "200 Towne Center Cir  Sanford, FL 32771",
    "location": "Dixie"
  },
  {
    "name": "Snipes",
    "description": "Clothing Stores",
    "phone": "(407) 323-8027",
    "address": "200 Towne Center Cir Spc F03A  Sanford, FL 32771",
    "location": "Dixie"
  },
  {
    "name": "Buckle",
    "description": "Clothing Stores",
    "phone": "(407) 322-5910",
    "address": "259 Towne Center Cir  Sanford, FL 32771",
    "location": "Dixie"
  },
  {
    "name": "Tommy Hilfiger",
    "description": "Clothing Stores",
    "phone": "(407) 328-3300",
    "address": "330 Towne Center Cir  Sanford, FL 32771",
    "location": "Dixie"
  },
  {
    "name": "Silver Moon Creations Inc",
    "description": "Clothing Stores",
    "phone": "(407) 732-4734",
    "address": "130 Keyes Ave  Sanford, FL 32773",
    "location": "Dixie"
  },
  {
    "name": "Express",
    "description": "Clothing Stores",
    "phone": "(407) 792-0138",
    "address": "130 Towne Center Cir  Sanford, FL 32771",
    "location": "Dixie"
  },
  {
    "name": "H&M",
    "description": "Clothing Stores",
    "phone": "(855) 466-7467",
    "address": "117 Towne Center Cir  Sanford, FL 32771",
    "location": "Dixie"
  },
  {
    "name": "American Eagle Outfitters",
    "description": "Clothing Stores",
    "phone": "(407) 324-3595",
    "address": "165 Towne Center Cir  Sanford, FL 32771",
    "location": "Dixie"
  },
  {
    "name": "Aeropostale",
    "description": "Clothing Stores",
    "phone": "(407) 321-3918",
    "address": "268 Towne Center Cir  Sanford, FL 32771",
    "location": "Dixie"
  },
  {
    "name": "Tinkas Closet",
    "description": "Clothing Stores",
    "phone": "(407) 322-1229",
    "address": "4932 W State Road 46 Ste 1036  Sanford, FL 32771",
    "location": "Dixie"
  },
  {
    "name": "Dudes and Dolls Clothing & Accessories",
    "description": "Clothing Stores",
    "phone": "(844) 676-2455",
    "address": "101 Integra Village Trl Apt 129  Sanford, FL 32771",
    "location": "Dixie"
  },
  {
    "name": "4th and Ocean",
    "description": "Clothing Stores",
    "phone": "(407) 878-6656",
    "address": "142 W Lakeview Ave Ste 1030 PMB 4  Lake Mary, FL 32746",
    "location": "Dixie"
  },
  {
    "name": "Jagger Couture",
    "description": "Clothing Stores",
    "phone": "(407) 878-7202",
    "address": "136 N 4th St  Lake Mary, FL 32746",
    "location": "Dixie"
  },
  {
    "name": "Tees Me Apparel",
    "description": "Clothing Stores",
    "phone": "(407) 574-4564",
    "address": "1636 N Ronald Reagan Blvd  Longwood, FL 32750",
    "location": "Dixie"
  },
  {
    "name": "Dolphin Style",
    "description": "Clothing Stores",
    "phone": "(407) 720-8393",
    "address": "233 Meadow Beauty Ter  Sanford, FL 32771",
    "location": "Dixie"
  },
  {
    "name": "Why So Serious?",
    "description": "Clothing Stores",
    "phone": "(407) 780-5497",
    "address": "2518 Bullion Loop  Sanford, FL 32771",
    "location": "Dixie"
  },
  {
    "name": "T.J. Maxx & HomeGoods",
    "description": "Clothing Stores",
    "phone": "(407) 322-1776",
    "address": "3899 W Lake Mary Blvd  Lake Mary, FL 32746",
    "location": "Dixie"
  },
  {
    "name": "HBCU BABY, LLC.",
    "description": "Clothing Stores",
    "phone": "(877) 288-0953",
    "address": "255 Primera Blvd Ste 160  Lake Mary, FL 32746",
    "location": "Dixie"
  },
  {
    "name": "Jocey's Closet",
    "description": "Clothing Stores",
    "phone": "(407) 302-8713",
    "address": "950 Cherry Branch Ct  Lake Mary, FL 32746",
    "location": "Dixie"
  },
  {
    "name": "Butafrog Inc",
    "description": "Clothing Stores",
    "phone": "(407) 402-2580",
    "address": "407 Timberwalk Ln  Lake Mary, FL 32746",
    "location": "Dixie"
  },
  {
    "name": "2Sistersknitting 2012",
    "description": "Clothing Stores",
    "phone": "(407) 687-3368",
    "address": "272 Debary Dr  Debary, FL 32713",
    "location": "Dixie"
  },
  {
    "name": "Debbie's Dance Boutique Inc",
    "description": "Clothing Stores",
    "phone": "(386) 668-1660",
    "address": "3063 Enterprise Rd  Debary, FL 32713",
    "location": "Dixie"
  },
  {
    "name": "Fix, Your Fashion",
    "description": "Clothing Stores",
    "phone": "(386) 742-7440",
    "address": "11 S Charles Richard Beall Blvd  Debary, FL 32713",
    "location": "Dixie"
  },
  {
    "name": "All Exclusive Fashion Inc",
    "description": "Clothing Stores",
    "phone": "(386) 668-6780",
    "address": "895 Diplomat Dr  Debary, FL 32713",
    "location": "Dixie"
  },
  {
    "name": "Drop D Merchandising",
    "description": "Clothing Stores",
    "phone": "(407) 677-0202",
    "address": "1255 Belle Ave  Winter Springs, FL 32708",
    "location": "Dixie"
  },
  {
    "name": "T P Merchandises",
    "description": "Clothing Stores",
    "phone": "(407) 960-1876",
    "address": "840 Laura St  Casselberry, FL 32707",
    "location": "Dixie"
  },
  {
    "name": "Lularoe Adeline Blackburn",
    "description": "Clothing Stores",
    "phone": "(321) 299-3069",
    "address": "2631 Harry Ave  Orange City, FL 32763",
    "location": "Dixie"
  },
  {
    "name": "Style Rack",
    "description": "Clothing Stores",
    "phone": "(386) 456-0550",
    "address": "937 Harley Strickland Blvd  Orange City, FL 32763",
    "location": "Dixie"
  },
  {
    "name": "Sew Right",
    "description": "Clothing Stores",
    "phone": "(407) 963-5301",
    "address": "214 Slade Dr  Longwood, FL 32750",
    "location": "Dixie"
  },
  {
    "name": "Old Dock Apparel",
    "description": "Clothing Stores",
    "phone": "(407) 282-7705",
    "address": "975 Florida Central Pkwy  Longwood, FL 32750",
    "location": "Dixie"
  },
  {
    "name": "1 Stop Print Shop",
    "description": "Clothing Stores",
    "phone": "(407) 331-3211",
    "address": "530 S Ronald Reagan Blvd  Longwood, FL 32750",
    "location": "Dixie"
  },
  {
    "name": "Ground & Pound Athletic Wear",
    "description": "Clothing Stores",
    "phone": "(407) 772-4829",
    "address": "1881 S US Highway 17 92  Longwood, FL 32750",
    "location": "Dixie"
  },
  {
    "name": "Sweetheartz Fashions",
    "description": "Clothing Stores",
    "phone": "(407) 831-1010",
    "address": "372 State Road 436  Casselberry, FL 32707",
    "location": "Dixie"
  },
  {
    "name": "Belle Brands Consignment",
    "description": "Clothing Stores",
    "phone": "(407) 437-9675",
    "address": "1161 E Altamonte Dr  Altamonte Springs, FL 32701",
    "location": "Dixie"
  },
  {
    "name": "Buzzie Bee Scrubs LLC",
    "description": "Clothing Stores",
    "phone": "(407) 967-5253",
    "address": "2290 S Volusia Ave Ste E1  Orange City, FL 32763",
    "location": "Dixie"
  },
  {
    "name": "None None",
    "description": "Clothing Stores",
    "phone": "(321) 203-2627",
    "address": "1372 Bennett Dr  Longwood, FL 32750",
    "location": "Dixie"
  },
  {
    "name": "Hoop Culture, Inc.",
    "description": "Clothing Stores",
    "phone": "(321) 203-2627",
    "address": "1372 Bennett Dr Unit 164  Longwood, FL 32750",
    "location": "Dixie"
  },
  {
    "name": "T.J. Maxx",
    "description": "Clothing Stores",
    "phone": "(407) 671-0851",
    "address": "1455 Semoran Boulevard  Casselberry, FL 32707",
    "location": "Dixie"
  },
  {
    "name": "Harriett's Closet",
    "description": "Clothing Stores",
    "phone": "(413) 387-8668",
    "address": "210 River Bend Ct  Longwood, FL 32779",
    "location": "Dixie"
  },
  {
    "name": "Kristens Shopping Boutique",
    "description": "Clothing Stores",
    "phone": "(407) 951-7845",
    "address": "1110 Douglas Ave  Altamonte Springs, FL 32714",
    "location": "Dixie"
  },
  {
    "name": "Hunnii Bee the Swarm",
    "description": "Clothing Stores",
    "phone": "(386) 218-0483",
    "address": "1371 Bladon Ave  Deltona, FL 32738",
    "location": "Dixie"
  },
  {
    "name": "Charlotte Russe",
    "description": "Clothing Stores",
    "phone": "(407) 977-1083",
    "address": "1640 Oviedo Mall Blvd  Oviedo, FL 32765",
    "location": "Dixie"
  },
  {
    "name": "World of Alterations & More",
    "description": "Clothing Stores",
    "phone": "(407) 260-9799",
    "address": "628 Wilshire Dr  Casselberry, FL 32707",
    "location": "Dixie"
  },
  {
    "name": "Clothes Mentor",
    "description": "Clothing Stores",
    "phone": "(407) 960-3780",
    "address": "1052 Montgomery Rd  Altamonte Springs, FL 32714",
    "location": "Dixie"
  },
  {
    "name": "Your CBD Store - Longwood, FL",
    "description": "Clothing Stores",
    "phone": "(321) 444-6320",
    "address": "2628 W State Road 434  Longwood, FL 32779",
    "location": "Dixie"
  },
  {
    "name": "Synergy Screen Printing",
    "description": "Clothing Stores",
    "phone": "(407) 719-0914",
    "address": "490 North St  Longwood, FL 32750",
    "location": "Dixie"
  },
  {
    "name": "Banana Republic",
    "description": "Clothing Stores",
    "phone": "(407) 834-0900",
    "address": "451 E Altamonte Dr  Altamonte Springs, FL 32701",
    "location": "Dixie"
  },
  {
    "name": "Guess",
    "description": "Clothing Stores",
    "phone": "(407) 260-1185",
    "address": "451 E Altamonte Dr Ste 2433  Altamonte Springs, FL 32701",
    "location": "Dixie"
  },
  {
    "name": "Stein Mart",
    "description": "Clothing Stores",
    "phone": "(407) 869-0700",
    "address": "995 N State Road 434  Altamonte Springs, FL 32714",
    "location": "Dixie"
  },
  {
    "name": "Galaxy Screen Printing Inc",
    "description": "Clothing Stores",
    "phone": "(407) 401-7348",
    "address": "925 Sunshine Ln Suite 1040  Altamonte Springs, FL 32714",
    "location": "Dixie"
  },
  {
    "name": "Bellys Babies & Beyond",
    "description": "Clothing Stores",
    "phone": "(407) 786-5437",
    "address": "924 W State Road 436  Altamonte Springs, FL 32714",
    "location": "Dixie"
  },
  {
    "name": "Charlotte Tilbury",
    "description": "Clothing Stores",
    "phone": "(407) 265-6101",
    "address": "451 E Altamonte Dr Ste 2223  Altamonte Springs, FL 32701",
    "location": "Dixie"
  },
  {
    "name": "Rainbow",
    "description": "Clothing Stores",
    "phone": "(407) 262-0044",
    "address": "451 E Altamonte Dr  Altamonte Springs, FL 32701",
    "location": "Dixie"
  },
  {
    "name": "Abercrombie & Fitch",
    "description": "Clothing Stores",
    "phone": "(407) 834-2009",
    "address": "451 E Altamonte Dr Ste 1329  Altamonte Springs, FL 32701",
    "location": "Dixie"
  },
  {
    "name": "C & C Tee Shirts",
    "description": "Clothing Stores",
    "phone": "(321) 233-3252",
    "address": "2109 N Volusia Ave  Orange City, FL 32763",
    "location": "Dixie"
  },
  {
    "name": "T.J.Maxx",
    "description": "Clothing Stores",
    "phone": "(407) 671-0851",
    "address": "1455 State Road 436  Casselberry, FL 32707",
    "location": "Dixie"
  },
  {
    "name": "Amy's Walk-In Closet Consignment Shop",
    "description": "Clothing Stores",
    "phone": "(407) 282-4291",
    "address": "677 North Orlando Ave  Maitland, FL 32751",
    "location": "Dixie"
  },
  {
    "name": "Longs Master Taylor",
    "description": "Clothing Stores",
    "phone": "(407) 790-4762",
    "address": "679 N Orlando Ave  Maitland, FL 32751",
    "location": "Dixie"
  },
  {
    "name": "Camy Couture",
    "description": "Clothing Stores",
    "phone": "(407) 834-3144",
    "address": "955 W State Road 436  Altamonte Springs, FL 32714",
    "location": "Dixie"
  },
  {
    "name": "Express One",
    "description": "Clothing Stores",
    "phone": "(407) 657-7511",
    "address": "1890 State Road 436 Ste 273  Winter Park, FL 32792",
    "location": "Dixie"
  },
  {
    "name": "sweet repeats of oviedo",
    "description": "Clothing Stores",
    "phone": "(407) 359-0099",
    "address": "1949 County Rd 419, suite #1241  Oviedo, FL 32766",
    "location": "Dixie"
  },
  {
    "name": "Ipanema Fashion",
    "description": "Clothing Stores",
    "phone": "(407) 331-1167",
    "address": "430 E Packwood Ave  Maitland, FL 32751",
    "location": "Dixie"
  },
  {
    "name": "Clutterbusters",
    "description": "Clothing Stores",
    "phone": "(407) 702-1385",
    "address": "1132 Charming St  Maitland, FL 32751",
    "location": "Dixie"
  },
  {
    "name": "Lularoe",
    "description": "Clothing Stores",
    "phone": "(407) 542-3723",
    "address": "4050 New Broad Cir  Oviedo, FL 32765",
    "location": "Dixie"
  },
  {
    "name": "Mash Up Gear",
    "description": "Clothing Stores",
    "phone": "(407) 720-8828",
    "address": "1040 Kelly Creek Cir  Oviedo, FL 32765",
    "location": "Dixie"
  },
  {
    "name": "Living In Sin Clothing",
    "description": "Clothing Stores",
    "phone": "(407) 283-5507",
    "address": "715 Carrigan Ave  Oviedo, FL 32765",
    "location": "Dixie"
  },
  {
    "name": "T-Will Store",
    "description": "Clothing Stores",
    "phone": "(833) 894-5505",
    "address": "1800 Pembrook Dr Ste 300  Orlando, FL 32810",
    "location": "Dixie"
  },
  {
    "name": "Hijab Galore",
    "description": "Clothing Stores",
    "phone": "(786) 232-8204",
    "address": "3460 Kayla Cir  Oviedo, FL 32765",
    "location": "Dixie"
  },
  {
    "name": "Kids",
    "description": "Clothing Stores",
    "phone": "(321) 352-7754",
    "address": "11648 Mcculloch Rd  Orlando, FL 32817",
    "location": "Dixie"
  },
  {
    "name": "Yeye's Fashion & Style 2",
    "description": "Clothing Stores",
    "phone": "(407) 703-9585",
    "address": "1754 Midsummer Ave  Apopka, FL 32712",
    "location": "Dixie"
  },
  {
    "name": "John Browns Sugar Shack",
    "description": "Clothing Stores",
    "phone": "(407) 293-1775",
    "address": "7210 Mott Ave  Orlando, FL 32810",
    "location": "Dixie"
  },
  {
    "name": "Uth Stuph",
    "description": "Clothing Stores",
    "phone": "(407) 884-9166",
    "address": "6790 Edgewater Commerce Pkwy  Orlando, FL 32810",
    "location": "Dixie"
  },
  {
    "name": "DD's Discounts",
    "description": "Clothing Stores",
    "phone": "(407) 532-3248",
    "address": "5788 N Orange Blossom Trl  Orlando, FL 32810",
    "location": "Dixie"
  },
  {
    "name": "Mil Tech Support",
    "description": "Clothing Stores",
    "phone": "(407) 889-8681",
    "address": "3171 Rolling Hills Ln  Apopka, FL 32712",
    "location": "Dixie"
  },
  {
    "name": "Dance Unique",
    "description": "Clothing Stores",
    "phone": "(407) 366-4585",
    "address": "112 W Mitchell Hammock Rd  Oviedo, FL 32765",
    "location": "Dixie"
  },
  {
    "name": "Gap",
    "description": "Clothing Stores",
    "phone": "(407) 831-6880",
    "address": "451 E Altamonte Dr  Altamonte Springs, FL 32701",
    "location": "Dixie"
  },
  {
    "name": "Motive Boardwear",
    "description": "Clothing Stores",
    "phone": "(888) 822-0721",
    "address": "2579 Howell Branch Rd Unit B  Casselberry, FL 32707",
    "location": "Dixie"
  },
  {
    "name": "Felisha Davis Blaq Beauty Ent",
    "description": "Clothing Stores",
    "phone": "(407) 376-9151",
    "address": "PO Box 618431  Orlando, FL 32861",
    "location": "Dixie"
  },
  {
    "name": "American Eagle",
    "description": "Clothing Stores",
    "phone": "(407) 767-9711",
    "address": "451 E Altamonte Dr Ste 1335  Altamonte Springs, FL 32701",
    "location": "Dixie"
  },
  {
    "name": "Siomara's Fashion",
    "description": "Clothing Stores",
    "phone": "(407) 937-9911",
    "address": "7354 Grand Ave  Winter Park, FL 32792",
    "location": "Dixie"
  },
  {
    "name": "Jack White Apparel",
    "description": "Clothing Stores",
    "phone": "(407) 302-4252",
    "address": "2325 W Airport Blvd  Sanford, FL 32771",
    "location": "Dixie"
  },
  {
    "name": "Five Below",
    "description": "Clothing Stores",
    "phone": "(407) 323-1096",
    "address": "1771 Wp Ball Park Blvd  Sanford, FL 32771",
    "location": "Dixie"
  },
  {
    "name": "Tru-Valu Drugs",
    "description": "Clothing Stores",
    "phone": "(407) 323-8403",
    "address": "503 E 1st St  Sanford, FL 32771",
    "location": "Dixie"
  },
  {
    "name": "Woman of Purpose Boutique",
    "description": "Clothing Stores",
    "phone": "(407) 247-5731",
    "address": "655 W Fulton St Ste 5  Sanford, FL 32771",
    "location": "Dixie"
  },
  {
    "name": "Acme Cap Clot Hing",
    "description": "Clothing Stores",
    "phone": "(407) 321-4005",
    "address": "221 Bellagio Cir  Sanford, FL 32771",
    "location": "Dixie"
  },
  {
    "name": "Acme Cap and Clothing",
    "description": "Clothing Stores",
    "phone": "(407) 321-5100",
    "address": "295 Towne Center Cir  Sanford, FL 32771",
    "location": "Dixie"
  },
  {
    "name": "Ross Dress for Less",
    "description": "Clothing Stores",
    "phone": "(407) 302-1436",
    "address": "3609 S Orlando Dr  Sanford, FL 32773",
    "location": "Dixie"
  },
  {
    "name": "JD Sports",
    "description": "Clothing Stores",
    "phone": "(407) 328-7519",
    "address": "1951 Wp Ball Blvd  Sanford, FL 32771",
    "location": "Dixie"
  },
  {
    "name": "Justice",
    "description": "Clothing Stores",
    "phone": "(407) 330-4001",
    "address": "1373 Wp Ball Blvd  Sanford, FL 32771",
    "location": "Dixie"
  },
  {
    "name": "Gandi",
    "description": "Clothing Stores",
    "phone": "(407) 878-7407",
    "address": "1357 Wp Ball Blvd  Sanford, FL 32771",
    "location": "Dixie"
  },
  {
    "name": "Oshkosh B'Gosh",
    "description": "Clothing Stores",
    "phone": "(407) 330-6472",
    "address": "1333 Wp Ball Blvd  Sanford, FL 32771",
    "location": "Dixie"
  },
  {
    "name": "Shoe Show",
    "description": "Clothing Stores",
    "phone": "(407) 330-7325",
    "address": "203 Towne Center Blvd  Sanford, FL 32771",
    "location": "Dixie"
  },
  {
    "name": "Avenue",
    "description": "Clothing Stores",
    "phone": "(407) 328-3007",
    "address": "201 Towne Center Blvd  Sanford, FL 32771",
    "location": "Dixie"
  },
  {
    "name": "S.A. Elite",
    "description": "Clothing Stores",
    "phone": "(407) 321-1611",
    "address": "1301 Wp Ball Blvd  Sanford, FL 32771",
    "location": "Dixie"
  },
  {
    "name": "Adam's Menswear",
    "description": "Clothing Stores",
    "phone": "(407) 688-1331",
    "address": "166 Towne Center Blvd  Sanford, FL 32771",
    "location": "Dixie"
  },
  {
    "name": "Big R",
    "description": "Clothing Stores",
    "phone": "(407) 328-1233",
    "address": "750 W Lake Mary Blvd  Sanford, FL 32773",
    "location": "Dixie"
  },
  {
    "name": "Journeys",
    "description": "Clothing Stores",
    "phone": "(407) 324-7977",
    "address": "180 Towne Center Cir  Sanford, FL 32771",
    "location": "Dixie"
  },
  {
    "name": "Zumiez",
    "description": "Clothing Stores",
    "phone": "(407) 321-7583",
    "address": "165 Towne Center Cir  Sanford, FL 32771",
    "location": "Dixie"
  },
  {
    "name": "Sirens",
    "description": "Clothing Stores",
    "phone": "(407) 688-4762",
    "address": "200 Towne Center Cir Unit B-05  Sanford, FL 32771",
    "location": "Dixie"
  },
  {
    "name": "Aeropostale Factory Store",
    "description": "Clothing Stores",
    "phone": "(407) 321-3918",
    "address": "268 Towne Center Cir  Sanford, FL 32771",
    "location": "Dixie"
  },
  {
    "name": "Papaya Clothing",
    "description": "Clothing Stores",
    "phone": "(407) 322-1264",
    "address": "257 Towne Center Cir  Sanford, FL 32771",
    "location": "Dixie"
  },
  {
    "name": "The Children's Place",
    "description": "Clothing Stores",
    "phone": "(407) 324-0442",
    "address": "263 Towne Center Cir  Sanford, FL 32771",
    "location": "Dixie"
  },
  {
    "name": "Wet Seal",
    "description": "Clothing Stores",
    "phone": "(407) 324-4298",
    "address": "270 Towne Center Cir  Sanford, FL 32771",
    "location": "Dixie"
  },
  {
    "name": "Liz Claiborne",
    "description": "Clothing Stores",
    "phone": "(407) 328-3587",
    "address": "330 Towne Center Cir  Sanford, FL 32771",
    "location": "Dixie"
  },
  {
    "name": "Butafrog Incorporation",
    "description": "Clothing Stores",
    "phone": "(407) 402-2580",
    "address": "115 Channel Cir  Lake Mary, FL 32746",
    "location": "Dixie"
  },
  {
    "name": "Marshalls",
    "description": "Clothing Stores",
    "phone": "(407) 302-0839",
    "address": "1551 Wp Ball Blvd  Sanford, FL 32771",
    "location": "Dixie"
  },
  {
    "name": "Macy's",
    "description": "Clothing Stores",
    "phone": "(407) 328-3300",
    "address": "330 Towne Center Cir  Sanford, FL 32771",
    "location": "Dixie"
  },
  {
    "name": "SEPHORA at Kohl's",
    "description": "Clothing Stores",
    "phone": "(407) 322-9848",
    "address": "1371 Rinehart Rd  Sanford, FL 32771",
    "location": "Dixie"
  },
  {
    "name": "JCPenney",
    "description": "Clothing Stores",
    "phone": "(407) 323-1310",
    "address": "310 Towne Center Cir  Sanford, FL 32771",
    "location": "Dixie"
  },
  {
    "name": "Walk On Water",
    "description": "Clothing Stores",
    "phone": "(407) 805-0477",
    "address": "1140 Townpark Ave  Lake Mary, FL 32746",
    "location": "Dixie"
  },
  {
    "name": "Eliz Andre LLC",
    "description": "Clothing Stores",
    "phone": "(618) 201-4537",
    "address": "1625 Oak Springs Pl  Lake Mary, FL 32746",
    "location": "Dixie"
  },
  {
    "name": "Free 2 Flex",
    "description": "Clothing Stores",
    "phone": "(407) 783-4959",
    "address": "255 Primera Blvd  Lake Mary, FL 32746",
    "location": "Dixie"
  },
  {
    "name": "Sears",
    "description": "Clothing Stores",
    "phone": "(727) 605-0014",
    "address": "3200 Lake Emma Rd  Lake Mary, FL 32746",
    "location": "Dixie"
  },
  {
    "name": "GARAGE",
    "description": "Clothing Stores",
    "phone": "(321) 316-3430",
    "address": "1025 W State Road 434  Winter Springs, FL 32708",
    "location": "Dixie"
  },
  {
    "name": "Bealls",
    "description": "Clothing Stores",
    "phone": "(386) 774-0835",
    "address": "2612 Enterprise Rd  Orange City, FL 32763",
    "location": "Dixie"
  },
  {
    "name": "Bealls Outlet Stores",
    "description": "Clothing Stores",
    "phone": "(386) 775-2000",
    "address": "2550 Enterprise Rd  Orange City, FL 32763",
    "location": "Dixie"
  },
  {
    "name": "Creative Expressions for T-Shirts & More",
    "description": "Clothing Stores",
    "phone": "(407) 830-6056",
    "address": "725 S Ronald Reagan Blvd  Longwood, FL 32750",
    "location": "Dixie"
  },
  {
    "name": "Uniformity",
    "description": "Clothing Stores",
    "phone": "(407) 331-8287",
    "address": "1140 W State Road 434 Ste 100  Longwood, FL 32750",
    "location": "Dixie"
  },
  {
    "name": "No More Knots",
    "description": "Clothing Stores",
    "phone": "(386) 785-5411",
    "address": "1296 Homeway Ln  Deltona, FL 32738",
    "location": "Dixie"
  },
  {
    "name": "Skips Western Outfitters",
    "description": "Clothing Stores",
    "phone": "(407) 321-1000",
    "address": "300 N State Road 415  Osteen, FL 32764",
    "location": "Dixie"
  },
  {
    "name": "Atticus Printing",
    "description": "Clothing Stores",
    "phone": "(407) 365-9911",
    "address": "159 N Central Ave  Oviedo, FL 32765",
    "location": "Dixie"
  },
  {
    "name": "Pathfinder Shirts",
    "description": "Clothing Stores",
    "phone": "(407) 695-4540",
    "address": "1510 Lake Dr  Casselberry, FL 32707",
    "location": "Dixie"
  },
  {
    "name": "So Sweet Boutique - Best Prom Dress Shop & Quince Dress Store Orlando",
    "description": "Clothing Stores",
    "phone": "(407) 260-0708",
    "address": "1665 Oviedo Mall Blvd  Oviedo, FL 32765",
    "location": "Dixie"
  },
  {
    "name": "Safari Sun",
    "description": "Clothing Stores",
    "phone": "(407) 339-7291",
    "address": "928 Josiane Ct  Altamonte Springs, FL 32701",
    "location": "Dixie"
  },
  {
    "name": "LOFT Outlet",
    "description": "Clothing Stores",
    "phone": "(321) 348-3314",
    "address": "1257 Oviedo Mall Blvd  Oviedo, FL 32765",
    "location": "Dixie"
  },
  {
    "name": "Loft",
    "description": "Clothing Stores",
    "phone": "(407) 977-5643",
    "address": "1257 Oviedo Mall Blvd  Oviedo, FL 32765",
    "location": "Dixie"
  },
  {
    "name": "Grounded X Inc",
    "description": "Clothing Stores",
    "phone": "(407) 542-3017",
    "address": "1235 Oviedo Mall Blvd  Oviedo, FL 32765",
    "location": "Dixie"
  },
  {
    "name": "Mosh Inc",
    "description": "Clothing Stores",
    "phone": "(407) 830-1686",
    "address": "1200 E Altamonte Dr  Altamonte Springs, FL 32701",
    "location": "Dixie"
  },
  {
    "name": "Klassy Kidz",
    "description": "Clothing Stores",
    "phone": "(407) 260-5439",
    "address": "232 State Road 436  Casselberry, FL 32707",
    "location": "Dixie"
  },
  {
    "name": "The Stilo Co.",
    "description": "Clothing Stores",
    "phone": "(321) 417-0040",
    "address": "304 E Hillcrest St  Altamonte Springs, FL 32701",
    "location": "Dixie"
  },
  {
    "name": "Rich Hippie",
    "description": "Clothing Stores",
    "phone": "(407) 682-7969",
    "address": "1094 Montgomery Rd  Altamonte Springs, FL 32714",
    "location": "Dixie"
  },
  {
    "name": "Oceanology",
    "description": "Clothing Stores",
    "phone": "(407) 831-4611",
    "address": "451 E Altamonte Dr  Altamonte Springs, FL 32701",
    "location": "Dixie"
  },
  {
    "name": "Torrid",
    "description": "Clothing Stores",
    "phone": "(407) 260-1178",
    "address": "452 E Altamonte Dr  Altamonte Springs, FL 32701",
    "location": "Dixie"
  },
  {
    "name": "AÃ©ropostale",
    "description": "Clothing Stores",
    "phone": "(407) 830-4105",
    "address": "451 E Altamonte Dr  Altamonte Springs, FL 32701",
    "location": "Dixie"
  },
  {
    "name": "White House | Black Market",
    "description": "Clothing Stores",
    "phone": "(407) 332-6414",
    "address": "451 E Altamonte Dr  Altamonte Springs, FL 32701",
    "location": "Dixie"
  },
  {
    "name": "Forever 21",
    "description": "Clothing Stores",
    "phone": "(407) 551-1210",
    "address": "451 E Altamonte Dr Ste 2113  Altamonte Springs, FL 32701",
    "location": "Dixie"
  },
  {
    "name": "Charming Charlie",
    "description": "Clothing Stores",
    "phone": "(321) 207-0000",
    "address": "451 E Altamonte Dr  Altamonte Springs, FL 32701",
    "location": "Dixie"
  },
  {
    "name": "Windsor",
    "description": "Clothing Stores",
    "phone": "(888) 495-4957",
    "address": "451 E Altamonte Dr Ste 1433  Altamonte Springs, FL 32701",
    "location": "Dixie"
  },
  {
    "name": "New York & Company",
    "description": "Clothing Stores",
    "phone": "(407) 331-4089",
    "address": "451 E Altamonte Dr Ste 1245  Altamonte Springs, FL 32701",
    "location": "Dixie"
  },
  {
    "name": "Luxe Designer Resale Boutique & Consignment",
    "description": "Clothing Stores",
    "phone": "(407) 636-9859",
    "address": "931 N State Road 434  Altamonte Springs, FL 32714",
    "location": "Dixie"
  },
  {
    "name": "Risse Brothers Uniforms",
    "description": "Clothing Stores",
    "phone": "(407) 339-1486",
    "address": "100 Candace Dr  Maitland, FL 32751",
    "location": "Dixie"
  },
  {
    "name": "Specialties Etc",
    "description": "Clothing Stores",
    "phone": "(407) 682-2004",
    "address": "402 Evesham Pl  Longwood, FL 32779",
    "location": "Dixie"
  },
  {
    "name": "Work 'N Gear",
    "description": "Clothing Stores",
    "phone": "(407) 767-6255",
    "address": "451 Altamonte Commerce Blvd Suite 401  Altamonte Springs, FL 32714",
    "location": "Dixie"
  },
  {
    "name": "Allen Sportswear Inc",
    "description": "Clothing Stores",
    "phone": "(407) 641-4900",
    "address": "1809 E Broadway St  Oviedo, FL 32765",
    "location": "Dixie"
  },
  {
    "name": "Catherines Plus Sizes",
    "description": "Clothing Stores",
    "phone": "(407) 618-1718",
    "address": "955 W State Road 436 Ste 1040  Altamonte Springs, FL 32714",
    "location": "Dixie"
  },
  {
    "name": "Skechers Factory Outlet",
    "description": "Clothing Stores",
    "phone": "(386) 279-4961",
    "address": "2701 S Woodland Blvd  Deland, FL 32720",
    "location": "Dixie"
  },
  {
    "name": "Anchor Promotional Merchandise",
    "description": "Clothing Stores",
    "phone": "(407) 831-4233",
    "address": "925 Sunshine Ln Ste 1040  Altamonte Springs, FL 32714",
    "location": "Dixie"
  },
  {
    "name": "Prestige Clothiers",
    "description": "Clothing Stores",
    "phone": "(407) 677-4000",
    "address": "7601 Citrus Ave  Winter Park, FL 32792",
    "location": "Dixie"
  },
  {
    "name": "Button Power",
    "description": "Clothing Stores",
    "phone": "(407) 889-3008",
    "address": "2714 Glennedwin Ct  Apopka, FL 32712",
    "location": "Dixie"
  },
  {
    "name": "Tom James Company",
    "description": "Clothing Stores",
    "phone": "(407) 740-7848",
    "address": "151 Southhall Ln Ste 130  Maitland, FL 32751",
    "location": "Dixie"
  },
  {
    "name": "Perry Ellis",
    "description": "Clothing Stores",
    "phone": "(407) 622-4998",
    "address": "876 Park Lake Cir  Maitland, FL 32751",
    "location": "Dixie"
  },
  {
    "name": "Magic ThemeShirt",
    "description": "Clothing Stores",
    "phone": "(888) 321-2470",
    "address": "PO Box 2831  Orlando, FL 32802",
    "location": "Dixie"
  },
  {
    "name": "Art Reflections",
    "description": "Clothing Stores",
    "phone": "(386) 424-0150",
    "address": "4395 Lake Ashby Rd  New Smyrna Beach, FL 32168",
    "location": "Dixie"
  },
  {
    "name": "Curious Catt Boutique",
    "description": "Clothing Stores",
    "phone": "(321) 236-2288",
    "address": "5438 Long Rd  Orlando, FL 32808",
    "location": "Dixie"
  },
  {
    "name": "E & E Bush-Hogging",
    "description": "Department Stores",
    "phone": "(407) 324-7112",
    "address": "2183 W 8th St  Sanford, FL 32771",
    "location": "Dixie"
  },
  {
    "name": "Benada Aluminum Products",
    "description": "Aluminum Products",
    "phone": "(407) 330-6164",
    "address": "2601 W 5th St  Sanford, FL 32771",
    "location": "Dixie"
  },
  {
    "name": "Sports Inc Florida",
    "description": "Sporting Goods",
    "phone": "(407) 321-3838",
    "address": "2215 W 1st St  Sanford, FL 32771",
    "location": "Dixie"
  },
  {
    "name": "DTLR",
    "description": "Shoe Stores",
    "phone": "(407) 321-0955",
    "address": "1522 S French Ave Ste 1522  Sanford, FL 32771",
    "location": "Dixie"
  },
  {
    "name": "Dat Kloset",
    "description": "Women's Clothing",
    "phone": "(407) 280-3060",
    "address": "PO Box 1684  Sanford, FL 32772",
    "location": "Dixie"
  },
  {
    "name": "Bucked Up Apparel, LLC",
    "description": "Men's Clothing",
    "phone": "(407) 321-8835",
    "address": "1051 Central Park Dr  Sanford, FL 32771",
    "location": "Dixie"
  },
  {
    "name": "Walmart Supercenter",
    "description": "General Merchandise",
    "phone": "(407) 321-1371",
    "address": "3653 S Orlando Dr  Sanford, FL 32773",
    "location": "Dixie"
  },
  {
    "name": "Divah Palace",
    "description": "Women's Clothing",
    "phone": "(321) 696-2518",
    "address": "1821 S Summerlin Ave  Sanford, FL 32771",
    "location": "Dixie"
  },
  {
    "name": "DressBarn",
    "description": "Women's Clothing",
    "phone": "(407) 268-9667",
    "address": "1901 Wp Ball Blvd  Sanford, FL 32771",
    "location": "Dixie"
  },
  {
    "name": "Z-5 Sport Rack Co",
    "description": "Sportswear",
    "phone": "(407) 330-7204",
    "address": "4265 Church St Ste 1001  Sanford, FL 32771",
    "location": "Dixie"
  },
  {
    "name": "Motherhood Maternity",
    "description": "Maternity Clothes",
    "phone": "(407) 321-0696",
    "address": "1389 Wp Ball Blvd  Sanford, FL 32771",
    "location": "Dixie"
  },
  {
    "name": "Velocity Sportswear Inc",
    "description": "Sportswear",
    "phone": "(407) 328-3020",
    "address": "650 Hickman Cir  Sanford, FL 32771",
    "location": "Dixie"
  },
  {
    "name": "Diva",
    "description": "Women's Clothing",
    "phone": "(407) 302-1456",
    "address": "175 Towne Center Cir  Sanford, FL 32771",
    "location": "Dixie"
  },
  {
    "name": "Styles for Less",
    "description": "Women's Clothing",
    "phone": "(407) 330-7284",
    "address": "167 Towne Center Cir  Sanford, FL 32771",
    "location": "Dixie"
  },
  {
    "name": "Rack Room Shoes",
    "description": "Shoe Stores",
    "phone": "(407) 323-7411",
    "address": "104 Towne Center Cir  Sanford, FL 32771",
    "location": "Dixie"
  },
  {
    "name": "Francesca's",
    "description": "Women's Clothing",
    "phone": "(407) 330-7745",
    "address": "132 Towne Center Cir  Sanford, FL 32771",
    "location": "Dixie"
  },
  {
    "name": "Ann Taylor",
    "description": "Women's Clothing",
    "phone": "(407) 321-3886",
    "address": "117 Towne Center Cir  Sanford, FL 32771",
    "location": "Dixie"
  },
  {
    "name": "Talbots",
    "description": "Women's Clothing",
    "phone": "(407) 328-4434",
    "address": "152 Towne Center Cir  Sanford, FL 32771",
    "location": "Dixie"
  },
  {
    "name": "Victoria's Secret",
    "description": "Lingerie",
    "phone": "(407) 324-0666",
    "address": "159 Towne Center Cir  Sanford, FL 32771",
    "location": "Dixie"
  },
  {
    "name": "Champs Sports",
    "description": "Sportswear",
    "phone": "(407) 323-8130",
    "address": "206 Towne Center Cir  Sanford, FL 32771",
    "location": "Dixie"
  },
  {
    "name": "Frederick's of Hollywood",
    "description": "Lingerie",
    "phone": "(407) 322-4986",
    "address": "200 Towne Center Cir  Sanford, FL 32771",
    "location": "Dixie"
  },
  {
    "name": "Lids",
    "description": "Hat Shops",
    "phone": "(407) 322-8125",
    "address": "219 Towne Center Cir  Sanford, FL 32771",
    "location": "Dixie"
  },
  {
    "name": "Beya",
    "description": "Women's Clothing",
    "phone": "(407) 320-0988",
    "address": "200 Towne Center Cir  Sanford, FL 32771",
    "location": "Dixie"
  },
  {
    "name": "Dillard's",
    "description": "Department Stores",
    "phone": "(407) 330-1775",
    "address": "300 Towne Center Cir  Sanford, FL 32771",
    "location": "Dixie"
  },
  {
    "name": "MAC Cosmetics",
    "description": "Department Stores",
    "phone": "(407) 330-9663",
    "address": "300 Towne Center Cir  Sanford, FL 32771",
    "location": "Dixie"
  },
  {
    "name": "BCBGMAXAZRIA",
    "description": "Women's Clothing",
    "phone": "(407) 322-2717",
    "address": "300 Towne Center Cir  Sanford, FL 32771",
    "location": "Dixie"
  },
  {
    "name": "Finish Line",
    "description": "Shoe Stores",
    "phone": "(407) 328-3300",
    "address": "330 Towne Center Cir  Sanford, FL 32771",
    "location": "Dixie"
  },
  {
    "name": "Bath Shop",
    "description": "Department Stores",
    "phone": "(407) 328-3367",
    "address": "330 Towne Center Cir  Sanford, FL 32771",
    "location": "Dixie"
  },
  {
    "name": "Dick's Sporting Goods",
    "description": "Sporting Goods",
    "phone": "(407) 324-5800",
    "address": "350 Towne Center Cir  Sanford, FL 32771",
    "location": "Dixie"
  },
  {
    "name": "Cache Womens Clothing",
    "description": "Women's Clothing",
    "phone": "(407) 330-2121",
    "address": "130 Towne Center Cir  Sanford, FL 32771",
    "location": "Dixie"
  },
  {
    "name": "Torrid Networks Private Ltd",
    "description": "Women's Clothing",
    "phone": "(407) 834-8324",
    "address": "4907 International Pkwy  Sanford, FL 32771",
    "location": "Dixie"
  },
  {
    "name": "Sport Hound Dog",
    "description": "Sportswear",
    "phone": "(321) 363-1403",
    "address": "4995 Orange Blvd  Sanford, FL 32771",
    "location": "Dixie"
  },
  {
    "name": "Family Dollar Store",
    "description": "Department Stores",
    "phone": "(407) 322-8139",
    "address": "4243 N US Highway 17/92  Sanford, FL 32773",
    "location": "Dixie"
  },
  {
    "name": "Sophie and Trey",
    "description": "Women's Clothing",
    "phone": "(407) 324-5747",
    "address": "136 N 4th St Ste 1290  Lake Mary, FL 32746",
    "location": "Dixie"
  },
  {
    "name": "Kyrscorp Inc",
    "description": "Women's Clothing",
    "phone": "(407) 878-5886",
    "address": "136 N 4th St  Lake Mary, FL 32746",
    "location": "Dixie"
  },
  {
    "name": "JoS. A. Bank",
    "description": "Men's Clothing",
    "phone": "(407) 829-6661",
    "address": "1120 Townpark Ave Ste 1042  Lake Mary, FL 32746",
    "location": "Dixie"
  },
  {
    "name": "Closet Factory",
    "description": "Closets & Accessories",
    "phone": "(407) 767-7111",
    "address": "1620 Timocuan Way Ste 124  Longwood, FL 32750",
    "location": "Dixie"
  },
  {
    "name": "Clotheshorse Too",
    "description": "Consignment Service",
    "phone": "(407) 333-0808",
    "address": "3895 Lake Emma Rd Ste 125  Lake Mary, FL 32746",
    "location": "Dixie"
  },
  {
    "name": "Target",
    "description": "General Merchandise",
    "phone": "(407) 330-9330",
    "address": "4155 W Lake Mary Blvd  Lake Mary, FL 32746",
    "location": "Dixie"
  },
  {
    "name": "Jerry Phillips Collection",
    "description": "Men's Clothing",
    "phone": "(407) 401-9364",
    "address": "280 Humphrey Rd  Lake Mary, FL 32746",
    "location": "Dixie"
  },
  {
    "name": "Cato",
    "description": "Women's Clothing",
    "phone": "(407) 688-2959",
    "address": "4219 W Lake Mary Blvd  Lake Mary, FL 32746",
    "location": "Dixie"
  },
  {
    "name": "Play It Again Sports",
    "description": "Sporting Goods",
    "phone": "(407) 333-0340",
    "address": "3879 Lake Emma Rd  Lake Mary, FL 32746",
    "location": "Dixie"
  },
  {
    "name": "Academy Sports + Outdoors",
    "description": "Sporting Goods",
    "phone": "(407) 833-4000",
    "address": "3641 Lake Emma Rd  Lake Mary, FL 32746",
    "location": "Dixie"
  },
  {
    "name": "House of Tinks",
    "description": "Women's Clothing",
    "phone": "(407) 432-3499",
    "address": "160 International Pkwy Ste 276  Lake Mary, FL 32746",
    "location": "Dixie"
  },
  {
    "name": "Contiuum Inc",
    "description": "Women's Clothing",
    "phone": "(407) 333-8888",
    "address": "1210 S International Pkwy  Lake Mary, FL 32746",
    "location": "Dixie"
  },
  {
    "name": "Dresses By Heather",
    "description": "Women's Clothing",
    "phone": "(407) 733-7831",
    "address": "1958 Longwood Lake Mary Rd  Longwood, FL 32750",
    "location": "Dixie"
  },
  {
    "name": "Racing Planet USA Inc",
    "description": "Department Stores",
    "phone": "(786) 866-8774",
    "address": "1780 Doyle Rd  Deltona, FL 32725",
    "location": "Dixie"
  },
  {
    "name": "Karalou's Bridal",
    "description": "Bridal Shops",
    "phone": "(386) 775-2900",
    "address": "840 Saxon Blvd Ste 27  Orange City, FL 32763",
    "location": "Dixie"
  },
  {
    "name": "I Dollar Store",
    "description": "Variety Stores",
    "phone": "(407) 388-1239",
    "address": "1750 Sunshadow Dr  Casselberry, FL 32707",
    "location": "Dixie"
  },
  {
    "name": "Hibbett Sports",
    "description": "Sporting Goods",
    "phone": "(386) 228-2077",
    "address": "937 Harley Strickland Blvd  Orange City, FL 32763",
    "location": "Dixie"
  },
  {
    "name": "Dollar Days",
    "description": "Department Stores",
    "phone": "(407) 767-7700",
    "address": "188 S Us Highway 17 92  Longwood, FL 32750",
    "location": "Dixie"
  },
  {
    "name": "pOpshelf",
    "description": "Variety Stores",
    "phone": "(386) 342-7441",
    "address": "810 Saxon Blvd  Orange City, FL 32763",
    "location": "Dixie"
  },
  {
    "name": "Walmart Grocery Pickup",
    "description": "Department Stores",
    "phone": "(386) 414-3403",
    "address": "1569 Saxon Blvd  Deltona, FL 32725",
    "location": "Dixie"
  },
  {
    "name": "Hot Looks of Florida",
    "description": "Women's Clothing",
    "phone": "(386) 532-2250",
    "address": "2031 Saxon Blvd  Deltona, FL 32725",
    "location": "Dixie"
  },
  {
    "name": "Famous Footwear",
    "description": "Shoe Stores",
    "phone": "(386) 774-5019",
    "address": "1021 Harley Strickland Blvd  Orange City, FL 32763",
    "location": "Dixie"
  },
  {
    "name": "Super Hot Bats",
    "description": "Baseball Clubs & Parks",
    "phone": "(747) 900-2287",
    "address": "450 Harbour Isle Way  Longwood, FL 32750",
    "location": "Dixie"
  },
  {
    "name": "Rip the Rack PRO Shop",
    "description": "Golf Equipment & Supplies",
    "phone": "(407) 834-4004",
    "address": "607 Savage Ct  Longwood, FL 32750",
    "location": "Dixie"
  },
  {
    "name": "Peru Unlimited",
    "description": "Men's Clothing Wholesalers & Manufacturers",
    "phone": "(407) 831-2788",
    "address": "1335 Bennett Dr Unit 113  Longwood, FL 32750",
    "location": "Dixie"
  },
  {
    "name": "Elegant Etchings",
    "description": "Women's Clothing",
    "phone": "(407) 767-6559",
    "address": "290 Bay St  Casselberry, FL 32707",
    "location": "Dixie"
  },
  {
    "name": "Sales Team USA Incorporated.Com",
    "description": "Department Stores",
    "phone": "(407) 365-7299",
    "address": "902 Lingo Ct  Oviedo, FL 32765",
    "location": "Dixie"
  },
  {
    "name": "I Woman Corp",
    "description": "Women's Clothing",
    "phone": "(407) 834-7112",
    "address": "1903 W State Road 434  Longwood, FL 32750",
    "location": "Dixie"
  },
  {
    "name": "Paul Harris",
    "description": "Women's Clothing",
    "phone": "(407) 977-2991",
    "address": "1240 Oviedo Mall Blvd  Oviedo, FL 32765",
    "location": "Dixie"
  },
  {
    "name": "Sassys Bridal",
    "description": "Bridal Shops",
    "phone": "(407) 542-4942",
    "address": "1665 Oviedo Mall Blvd  Oviedo, FL 32765",
    "location": "Dixie"
  },
  {
    "name": "Men's Wearhouse",
    "description": "Men's Clothing",
    "phone": "(407) 977-3791",
    "address": "1405 Oviedo Mall Blvd  Oviedo, FL 32765",
    "location": "Dixie"
  },
  {
    "name": "Paris Fashion",
    "description": "Women's Clothing",
    "phone": "(407) 542-0340",
    "address": "1452 Oviedo Mall Blvd  Oviedo, FL 32765",
    "location": "Dixie"
  },
  {
    "name": "Sassy's Bridal",
    "description": "Bridal Shops",
    "phone": "(407) 542-4942",
    "address": "1245 Oviedo Mall Blvd  Oviedo, FL 32765",
    "location": "Dixie"
  },
  {
    "name": "Bon Worth Inc",
    "description": "Women's Clothing",
    "phone": "(407) 359-8769",
    "address": "1215 Oviedo Mall Blvd  Oviedo, FL 32765",
    "location": "Dixie"
  },
  {
    "name": "Prairie Lake Plaza",
    "description": "Department Stores",
    "phone": "(407) 332-8947",
    "address": "1140 E Altamonte Dr Ste 1016  Altamonte Springs, FL 32701",
    "location": "Dixie"
  },
  {
    "name": "Americanstrongheart US",
    "description": "Department Stores",
    "phone": "(407) 259-9886",
    "address": "1669 Amboy Dr  Deltona, FL 32738",
    "location": "Dixie"
  },
  {
    "name": "Kkrows",
    "description": "Sportswear",
    "phone": "(407) 468-8854",
    "address": "269 Aulin Ave  Oviedo, FL 32765",
    "location": "Dixie"
  },
  {
    "name": "Cotton Ways",
    "description": "Boutique Items",
    "phone": "(407) 977-2888",
    "address": "200 S Central Ave  Oviedo, FL 32765",
    "location": "Dixie"
  },
  {
    "name": "Casual Male XL",
    "description": "Men's Clothing",
    "phone": "(407) 767-5336",
    "address": "620 E Altamonte Dr  Altamonte Springs, FL 32701",
    "location": "Dixie"
  },
  {
    "name": "BeautiFull Bridal",
    "description": "Bridal Shops",
    "phone": "(407) 637-5506",
    "address": "909 State Road 436  Casselberry, FL 32707",
    "location": "Dixie"
  },
  {
    "name": "Geneva General Store",
    "description": "General Merchandise",
    "phone": "(407) 349-5827",
    "address": "155 W State Road 46  Geneva, FL 32732",
    "location": "Dixie"
  },
  {
    "name": "Walmart",
    "description": "General Merchandise",
    "phone": "(407) 774-9966",
    "address": "200 S State Road 434  Altamonte Springs, FL 32714",
    "location": "Dixie"
  },
  {
    "name": "A & G Sports Corner",
    "description": "Sports Cards & Memorabilia",
    "phone": "(407) 731-9871",
    "address": "5445 Lake Howell Rd Unit D5  Winter Park, FL 32792",
    "location": "Dixie"
  },
  {
    "name": "Foot Locker",
    "description": "Shoe Stores",
    "phone": "(407) 331-3882",
    "address": "451 E Altamonte Dr Ste 1413  Altamonte Springs, FL 32701",
    "location": "Dixie"
  },
  {
    "name": "Golf Galaxy",
    "description": "Sportswear",
    "phone": "(407) 389-1295",
    "address": "297 W State Road 436  Altamonte Springs, FL 32714",
    "location": "Dixie"
  },
  {
    "name": "Sears Outlet",
    "description": "Discount Stores",
    "phone": "(386) 734-6628",
    "address": "2661A S Woodland Blvd  Deland, FL 32720",
    "location": "Dixie"
  },
  {
    "name": "Macy's Backstage",
    "description": "Men's Clothing",
    "phone": "(407) 830-2300",
    "address": "451 E Altamonte Dr  Altamonte Springs, FL 32701",
    "location": "Dixie"
  },
  {
    "name": "Vans",
    "description": "Shoe Stores",
    "phone": "(321) 207-3254",
    "address": "451 E Altamonte Dr Ste 1369  Altamonte Springs, FL 32701",
    "location": "Dixie"
  },
  {
    "name": "SKECHERS Retail",
    "description": "Shoe Stores",
    "phone": "(407) 332-7362",
    "address": "451 E Altamonte Dr Ste 1341  Altamonte Springs, FL 32701",
    "location": "Dixie"
  },
  {
    "name": "Cache Inc",
    "description": "Women's Clothing",
    "phone": "(407) 830-0881",
    "address": "451 E Altamonte Dr  Altamonte Springs, FL 32701",
    "location": "Dixie"
  },
  {
    "name": "Elite",
    "description": "Men's Clothing",
    "phone": "(407) 834-0584",
    "address": "451 E Altamonte Dr  Altamonte Springs, FL 32701",
    "location": "Dixie"
  },
  {
    "name": "The Limited",
    "description": "Women's Clothing",
    "phone": "(407) 834-7700",
    "address": "451 E Altamonte Dr  Altamonte Springs, FL 32701",
    "location": "Dixie"
  },
  {
    "name": "Body Central",
    "description": "Women's Clothing",
    "phone": "(904) 737-0811",
    "address": "451 E Altamonte Dr  Altamonte Springs, FL 32701",
    "location": "Dixie"
  },
  {
    "name": "Garcia Leon Enterprises",
    "description": "Women's Clothing",
    "phone": "(407) 834-0296",
    "address": "451 E Altamonte Dr  Altamonte Springs, FL 32701",
    "location": "Dixie"
  },
  {
    "name": "Soma Intimates",
    "description": "Lingerie",
    "phone": "(407) 670-1400",
    "address": "451 E Altamonte Dr Ste 2165  Altamonte Springs, FL 32701",
    "location": "Dixie"
  },
  {
    "name": "Michael Kors",
    "description": "Women's Clothing",
    "phone": "(407) 551-4000",
    "address": "451 E Altamonte Dr Ste 2157  Altamonte Springs, FL 32701",
    "location": "Dixie"
  },
  {
    "name": "Pro Image",
    "description": "Sportswear",
    "phone": "(407) 755-2004",
    "address": "451 E Altamonte Dr  Altamonte Springs, FL 32701",
    "location": "Dixie"
  },
  {
    "name": "Volcom",
    "description": "Sportswear",
    "phone": "(689) 227-7845",
    "address": "451 E Altamonte Dr  Altamonte Springs, FL 32701",
    "location": "Dixie"
  },
  {
    "name": "Edwin Watts Golf",
    "description": "Golf Equipment & Supplies",
    "phone": "(407) 260-2811",
    "address": "398 E Altamonte Dr  Altamonte Springs, FL 32701",
    "location": "Dixie"
  },
  {
    "name": "Florida Specialty Products",
    "description": "General Merchandise",
    "phone": "(321) 765-4975",
    "address": "1636 Smithfield Way  Oviedo, FL 32765",
    "location": "Dixie"
  },
  {
    "name": "Nice Shot Tennis & Golf",
    "description": "Tennis Equipment & Supplies",
    "phone": "(407) 678-4015",
    "address": "1015 State Road 436  Casselberry, FL 32707",
    "location": "Dixie"
  },
  {
    "name": "Victoria's Secret & PINK by Victoria's Secret",
    "description": "Lingerie",
    "phone": "(407) 767-8547",
    "address": "415 E Altamonte Dr # 2437  Altamonte Springs, FL 32701",
    "location": "Dixie"
  },
  {
    "name": "Lane Bryant",
    "description": "Women's Clothing",
    "phone": "(407) 618-1688",
    "address": "397 E Altamonte Dr  Altamonte Springs, FL 32701",
    "location": "Dixie"
  },
  {
    "name": "Fleet Feet Sports",
    "description": "Shoe Stores",
    "phone": "(407) 772-2233",
    "address": "303 E Altamonte Dr Ste 1250  Altamonte Springs, FL 32701",
    "location": "Dixie"
  },
  {
    "name": "Ballball",
    "description": "Sportswear",
    "phone": "(407) 960-6654",
    "address": "303 E Altamonte Dr  Altamonte Springs, FL 32701",
    "location": "Dixie"
  },
  {
    "name": "Computech City",
    "description": "Department Stores",
    "phone": "(407) 366-4207",
    "address": "106 W Mitchell Hammock Rd  Oviedo, FL 32765",
    "location": "Dixie"
  },
  {
    "name": "Play It Again Sports - Altamonte Springs",
    "description": "Sporting Goods",
    "phone": "(407) 788-8280",
    "address": "950 N State Road 434  Altamonte Springs, FL 32714",
    "location": "Dixie"
  },
  {
    "name": "Christine Mooney Retail",
    "description": "Department Stores",
    "phone": "(386) 956-0404",
    "address": "2545 Derby Dr  Deltona, FL 32738",
    "location": "Dixie"
  },
  {
    "name": "The Greenleaf Garden",
    "description": "Merchandising Service",
    "phone": "(732) 567-5413",
    "address": "PO Box 150604  Altamonte Springs, FL 32715",
    "location": "Dixie"
  },
  {
    "name": "Your Closet Consignment",
    "description": "Men's Clothing",
    "phone": "(407) 774-4004",
    "address": "195 S Westmonte Dr  Altamonte Springs, FL 32714",
    "location": "Dixie"
  },
  {
    "name": "Bb2resale",
    "description": "Sportswear",
    "phone": "(321) 972-6688",
    "address": "134 W York Ct  Longwood, FL 32779",
    "location": "Dixie"
  },
  {
    "name": "Vera Wear",
    "description": "Fashion Designers",
    "phone": "(407) 777-9557",
    "address": "467 Lake Howell Rd  Maitland, FL 32751",
    "location": "Dixie"
  },
  {
    "name": "P.S. I love you! Clothing",
    "description": "Fashion Designers",
    "phone": "(407) 702-5284",
    "address": "540 N State Road 434 Ste 134  Altamonte Springs, FL 32714",
    "location": "Dixie"
  },
  {
    "name": "Tori's Closet",
    "description": "Women's Clothing",
    "phone": "(315) 447-1974",
    "address": "5415 Lake Howell Rd  Winter Park, FL 32792",
    "location": "Dixie"
  },
  {
    "name": "BonWorth",
    "description": "Women's Clothing",
    "phone": "(407) 682-2164",
    "address": "955 W State Road 436 Ste 1020  Altamonte Springs, FL 32714",
    "location": "Dixie"
  },
  {
    "name": "Charming Beauty Express",
    "description": "Women's Fashion Accessories",
    "phone": "(407) 865-7565",
    "address": "895 Wymore Rd  Altamonte Springs, FL 32714",
    "location": "Dixie"
  },
  {
    "name": "Belk",
    "description": "Department Stores",
    "phone": "(386) 785-0043",
    "address": "2617 S Woodland Blvd  Deland, FL 32720",
    "location": "Dixie"
  },
  {
    "name": "Fleet Feet",
    "description": "Shoe Stores",
    "phone": "(407) 960-4519",
    "address": "120 Independence Ln  Maitland, FL 32751",
    "location": "Dixie"
  },
  {
    "name": "Zema Boutique",
    "description": "Boutique Items",
    "phone": "(407) 790-4036",
    "address": "208 Lyndhurst Ct  Longwood, FL 32779",
    "location": "Dixie"
  },
  {
    "name": "Kate Paris",
    "description": "Women's Clothing",
    "phone": "(407) 230-7807",
    "address": "1900 Summit Tower Blvd  Orlando, FL 32810",
    "location": "Dixie"
  },
  {
    "name": "Mary's Alteration in Orlando",
    "description": "Bridal Shops",
    "phone": "(407) 535-2855",
    "address": "1915 Bobtail Dr  Maitland, FL 32751",
    "location": "Dixie"
  },
  {
    "name": "Patricia Sullivan",
    "description": "Women's Fashion Accessories",
    "phone": "(407) 219-1189",
    "address": "200 S West St  Maitland, FL 32751",
    "location": "Dixie"
  },
  {
    "name": "Bealls Florida",
    "description": "Home Furnishings",
    "phone": "(407) 886-2719",
    "address": "2302 E Semoran Blvd  Apopka, FL 32703",
    "location": "Dixie"
  },
  {
    "name": "Stylesfourless",
    "description": "Women's Clothing",
    "phone": "(407) 464-0527",
    "address": "2195 E Semoran Blvd  Apopka, FL 32703",
    "location": "Dixie"
  },
  {
    "name": "Tgb Fashion",
    "description": "Women's Clothing",
    "phone": "(407) 814-3919",
    "address": "2169 E Semoran Blvd  Apopka, FL 32703",
    "location": "Dixie"
  },
  {
    "name": "Judith Zavatchin",
    "description": "Department Stores",
    "phone": "(407) 884-4738",
    "address": "1279 Erdman Ct  Apopka, FL 32703",
    "location": "Dixie"
  },
  {
    "name": "Teri Lyn Design",
    "description": "Women's Clothing",
    "phone": "(407) 295-3541",
    "address": "4553 Malik Cres  Orlando, FL 32810",
    "location": "Dixie"
  },
  {
    "name": "Burgundy boutique",
    "description": "Hat Shops",
    "phone": "(862) 324-2005",
    "address": "Online  Orlando, FL 32810",
    "location": "Dixie"
  },
  {
    "name": "Edge Apparel",
    "description": "Caps",
    "phone": "(407) 286-1174",
    "address": "Po Box 616150  Orlando, FL 32861",
    "location": "Dixie"
  },
  {
    "name": "Destiny C Fashions",
    "description": "Men's Clothing",
    "phone": "(866) 721-4815",
    "address": "Po Box 2685  Orlando, FL 32802",
    "location": "Dixie"
  },
  {
    "name": "All American Al Uminum",
    "description": "Aluminum Products",
    "phone": "(407) 516-5454",
    "address": "3740 All American Blvd  Orlando, FL 32810",
    "location": "Dixie"
  },
  {
    "name": "National Sportswear Inc",
    "description": "Sportswear",
    "phone": "(407) 880-3686",
    "address": "2172 Platinum Rd  Apopka, FL 32703",
    "location": "Dixie"
  },
  {
    "name": "Bhnis Bhn DP",
    "description": "Sportswear",
    "phone": "(407) 286-7959",
    "address": "3767 All American Blvd  Orlando, FL 32810",
    "location": "Dixie"
  },
  {
    "name": "Bhn DP Arthur T Lattimore",
    "description": "Sportswear",
    "phone": "(407) 704-3807",
    "address": "3767 All American Blvd  Orlando, FL 32810",
    "location": "Dixie"
  },
  {
    "name": "Doll House Boutique",
    "description": "Women's Clothing",
    "phone": "(407) 421-1797",
    "address": "5744 N Orange Blossom Trail  Orlando, FL 32810",
    "location": "Dixie"
  },
  {
    "name": "Feral Kids Creation",
    "description": "Men's Clothing",
    "phone": "(386) 500-8142",
    "address": "31738 hillside dr  deland, FL 32720",
    "location": "Dixie"
  },
  {
    "name": "bebe",
    "description": "Women's Clothing",
    "phone": "(321) 263-0149",
    "address": "451 E Altamonte Dr Ste 2437  Altamonte Springs, FL 32701",
    "location": "Dixie"
  },
  {
    "name": "Scholar-BallerÂ® / AthletesThinkÂ®",
    "description": "Women's Clothing",
    "phone": "(321) 443-0652",
    "address": "PO Box 780322  Orlando, FL 32878",
    "location": "Dixie"
  }
]