[
  {
    "name": "Citi Trends",
    "description": "Clothing Stores",
    "phone": "(904) 750-4368",
    "address": "1355 E Vine St # 1357  Kissimmee, FL 34744",
    "location": "Gilchrist"
  },
  {
    "name": "In Style Fashion",
    "description": "Clothing Stores",
    "phone": "(407) 350-4956",
    "address": "24 W Fletcher St  Kissimmee, FL 34741",
    "location": "Gilchrist"
  },
  {
    "name": "Old Wear Apparel",
    "description": "Clothing Stores",
    "phone": "(407) 343-1390",
    "address": "1388 E Vine St  Kissimmee, FL 34744",
    "location": "Gilchrist"
  },
  {
    "name": "Casual Wear Wholesale",
    "description": "Clothing Stores",
    "phone": "(407) 931-3872",
    "address": "1570 Kelley Ave  Kissimmee, FL 34744",
    "location": "Gilchrist"
  },
  {
    "name": "D'chikos",
    "description": "Clothing Stores",
    "phone": "(321) 460-3681",
    "address": "604 E Vine St  Kissimmee, FL 34744",
    "location": "Gilchrist"
  },
  {
    "name": "Modas Y Accesorios Inc",
    "description": "Clothing Stores",
    "phone": "(407) 483-0368",
    "address": "2646 N Orange Blossom Trl  Kissimmee, FL 34744",
    "location": "Gilchrist"
  },
  {
    "name": "Pamelas Dress Shop",
    "description": "Clothing Stores",
    "phone": "(407) 348-0799",
    "address": "1388 E Vine St  Kissimmee, FL 34744",
    "location": "Gilchrist"
  },
  {
    "name": "DD's Discounts",
    "description": "Clothing Stores",
    "phone": "(407) 343-4881",
    "address": "1526 W Vine St  Kissimmee, FL 34741",
    "location": "Gilchrist"
  },
  {
    "name": "Perfect Stitch",
    "description": "Clothing Stores",
    "phone": "(407) 931-0667",
    "address": "1021 W Oak St Ste C  Kissimmee, FL 34741",
    "location": "Gilchrist"
  },
  {
    "name": "Main Moda",
    "description": "Clothing Stores",
    "phone": "(407) 344-4543",
    "address": "405 N Main St  Kissimmee, FL 34744",
    "location": "Gilchrist"
  },
  {
    "name": "Esquire Mens Wear",
    "description": "Clothing Stores",
    "phone": "(407) 932-3404",
    "address": "418 Broadway  Kissimmee, FL 34741",
    "location": "Gilchrist"
  },
  {
    "name": "Burlington Coat Factory",
    "description": "Clothing Stores",
    "phone": "(321) 697-5021",
    "address": "740 W Osceola Pkwy # 300  Kissimmee, FL 34741",
    "location": "Gilchrist"
  },
  {
    "name": "Las Tres Banderas",
    "description": "Clothing Stores",
    "phone": "(407) 935-1970",
    "address": "2252 W Columbia Ave  Kissimmee, FL 34741",
    "location": "Gilchrist"
  },
  {
    "name": "Cotton On",
    "description": "Clothing Stores",
    "phone": "(407) 855-0802",
    "address": "Suite 874 8001 South Orange Blossom Trail  Orlando, FL 32809",
    "location": "Gilchrist"
  },
  {
    "name": "La Chiquita",
    "description": "Clothing Stores",
    "phone": "(407) 880-6776",
    "address": "2933 N Orange Blossom Trl  Kissimmee, FL 34744",
    "location": "Gilchrist"
  },
  {
    "name": "Marias Fashion",
    "description": "Clothing Stores",
    "phone": "(407) 343-4600",
    "address": "1512 W Vine St  Kissimmee, FL 34741",
    "location": "Gilchrist"
  },
  {
    "name": "Tilly's",
    "description": "Clothing Stores",
    "phone": "(407) 847-0900",
    "address": "2613 W Osceola Pkwy  Kissimmee, FL 34741",
    "location": "Gilchrist"
  },
  {
    "name": "T.J. Maxx",
    "description": "Clothing Stores",
    "phone": "(407) 846-8044",
    "address": "2551 W Osceola Pkwy  Kissimmee, FL 34741",
    "location": "Gilchrist"
  },
  {
    "name": "Plaza Del Sol",
    "description": "Clothing Stores",
    "phone": "(407) 847-6941",
    "address": "3831 W Vine St  Kissimmee, FL 34741",
    "location": "Gilchrist"
  },
  {
    "name": "Brad Ware",
    "description": "Clothing Stores",
    "phone": "(407) 283-1863",
    "address": "1604 Sunny St  Kissimmee, FL 34741",
    "location": "Gilchrist"
  },
  {
    "name": "AÃ©ropostale",
    "description": "Clothing Stores",
    "phone": "(407) 846-0694",
    "address": "3220 N John Young Pkwy  Kissimmee, FL 34741",
    "location": "Gilchrist"
  },
  {
    "name": "SKECHERS Warehouse Outlet",
    "description": "Clothing Stores",
    "phone": "(407) 870-0062",
    "address": "2649 W Osceola Pkwy  Kissimmee, FL 34741",
    "location": "Gilchrist"
  },
  {
    "name": "Hurley Clearance Store",
    "description": "Clothing Stores",
    "phone": "(407) 787-0237",
    "address": "2661 W Osceola Pkwy  Kissimmee, FL 34741",
    "location": "Gilchrist"
  },
  {
    "name": "Fallas",
    "description": "Clothing Stores",
    "phone": "(407) 518-4996",
    "address": "3831 W Vine St  Kissimmee, FL 34741",
    "location": "Gilchrist"
  },
  {
    "name": "J & G New York Fashion",
    "description": "Clothing Stores",
    "phone": "(407) 350-3695",
    "address": "3831 W Vine St  Kissimmee, FL 34741",
    "location": "Gilchrist"
  },
  {
    "name": "Rainbow Shops",
    "description": "Clothing Stores",
    "phone": "(407) 344-5521",
    "address": "1036 Buenaventura Blvd  Kissimmee, FL 34743",
    "location": "Gilchrist"
  },
  {
    "name": "Elsa Fashion",
    "description": "Clothing Stores",
    "phone": "(321) 746-1587",
    "address": "808 Country Crossing Ct  Kissimmee, FL 34744",
    "location": "Gilchrist"
  },
  {
    "name": "Avar Fashions",
    "description": "Clothing Stores",
    "phone": "(407) 270-6661",
    "address": "2070 Osceola  Kissimmee, FL 34743",
    "location": "Gilchrist"
  },
  {
    "name": "Extreme Style",
    "description": "Clothing Stores",
    "phone": "(407) 932-1314",
    "address": "3831 W Vine St Ste 34  Kissimmee, FL 34741",
    "location": "Gilchrist"
  },
  {
    "name": "Rue21",
    "description": "Clothing Stores",
    "phone": "(407) 518-5170",
    "address": "2635 W Osceola Pkwy  Kissimmee, FL 34741",
    "location": "Gilchrist"
  },
  {
    "name": "Eagles Wings",
    "description": "Clothing Stores",
    "phone": "(407) 932-0845",
    "address": "2319 Clay St  Kissimmee, FL 34741",
    "location": "Gilchrist"
  },
  {
    "name": "American Eagle Outfitters",
    "description": "Clothing Stores",
    "phone": "(407) 343-0754",
    "address": "3262 N John Young Pkwy  Kissimmee, FL 34741",
    "location": "Gilchrist"
  },
  {
    "name": "Old Navy",
    "description": "Clothing Stores",
    "phone": "(321) 250-3032",
    "address": "3256 N John Young Pkwy  Kissimmee, FL 34741",
    "location": "Gilchrist"
  },
  {
    "name": "Guess",
    "description": "Clothing Stores",
    "phone": "(407) 847-0448",
    "address": "2621 W Osceola Pkwy Spc B35  Kissimmee, FL 34741",
    "location": "Gilchrist"
  },
  {
    "name": "Hurley",
    "description": "Clothing Stores",
    "phone": "(407) 465-0249",
    "address": "2573 Old Vineland Rd  Kissimmee, FL 34746",
    "location": "Gilchrist"
  },
  {
    "name": "Persan",
    "description": "Clothing Stores",
    "phone": "(888) 799-3692",
    "address": "851 Marllo Rd  Kissimmee, FL 34744",
    "location": "Gilchrist"
  },
  {
    "name": "Apex Primal",
    "description": "Clothing Stores",
    "phone": "(407) 729-6485",
    "address": "3275 S John Young Pkwy  Kissimmee, FL 34746",
    "location": "Gilchrist"
  },
  {
    "name": "Moa Fashion",
    "description": "Clothing Stores",
    "phone": "(407) 397-3351",
    "address": "4301 W Vine St  Kissimmee, FL 34746",
    "location": "Gilchrist"
  },
  {
    "name": "Wear of Africa",
    "description": "Clothing Stores",
    "phone": "(407) 316-2273",
    "address": "4748 Palma Dr  Kissimmee, FL 34746",
    "location": "Gilchrist"
  },
  {
    "name": "Rue 21",
    "description": "Clothing Stores",
    "phone": "(407) 396-0466",
    "address": "4702 Target Blvd  Kissimmee, FL 34746",
    "location": "Gilchrist"
  },
  {
    "name": "Western Spirit Clothing",
    "description": "Clothing Stores",
    "phone": "(321) 697-3770",
    "address": "2805 E Irlo Bronson Memorial Hwy  Kissimmee, FL 34744",
    "location": "Gilchrist"
  },
  {
    "name": "Ateeqa\"s Couture",
    "description": "Clothing Stores",
    "phone": "(407) 432-9925",
    "address": "14627 cableshire way  orlando, FL 32824",
    "location": "Gilchrist"
  },
  {
    "name": "Tsr",
    "description": "Clothing Stores",
    "phone": "(407) 854-8564",
    "address": "12393 S Orange Blossom Trl  Orlando, FL 32837",
    "location": "Gilchrist"
  },
  {
    "name": "RPA BUSINESS OF ORLANDO, INC",
    "description": "Clothing Stores",
    "phone": "(407) 287-2151",
    "address": "12638 Winfield Scott Blvd  Orlando, FL 32837",
    "location": "Gilchrist"
  },
  {
    "name": "Shehasarrived",
    "description": "Clothing Stores",
    "phone": "(407) 864-8495",
    "address": "1319 Sun Meadow Dr  Orlando, FL 32824",
    "location": "Gilchrist"
  },
  {
    "name": "BG Fashion",
    "description": "Clothing Stores",
    "phone": "(407) 383-4535",
    "address": "2701 Saffron Dr  Orlando, FL 32837",
    "location": "Gilchrist"
  },
  {
    "name": "Hon Tiers",
    "description": "Clothing Stores",
    "phone": "(407) 272-5065",
    "address": "1701 W Wetherbee Rd  Orlando, FL 32837",
    "location": "Gilchrist"
  },
  {
    "name": "Ethnica In Style/Bombay Grill",
    "description": "Clothing Stores",
    "phone": "(407) 203-6988",
    "address": "11741 S Orange Blossom Trl  Orlando, FL 32837",
    "location": "Gilchrist"
  },
  {
    "name": "Fichu Fashion Inc.",
    "description": "Clothing Stores",
    "phone": "(407) 250-5956",
    "address": "2128 Whisper Lakes Blvd  Orlando, FL 32837",
    "location": "Gilchrist"
  },
  {
    "name": "Express Factory Outlet",
    "description": "Clothing Stores",
    "phone": "(321) 329-3137",
    "address": "15831 State Road 535  Orlando, FL 32821",
    "location": "Gilchrist"
  },
  {
    "name": "Jones New York",
    "description": "Clothing Stores",
    "phone": "(407) 238-0206",
    "address": "15765 State Road 535  Orlando, FL 32821",
    "location": "Gilchrist"
  },
  {
    "name": "American Eagle & Aerie",
    "description": "Clothing Stores",
    "phone": "(407) 723-4799",
    "address": "15753 State Road 535 Ste J  Orlando, FL 32821",
    "location": "Gilchrist"
  },
  {
    "name": "Pbh Usa",
    "description": "Clothing Stores",
    "phone": "(407) 465-0900",
    "address": "15733 State Road 535  Orlando, FL 32821",
    "location": "Gilchrist"
  },
  {
    "name": "Calvin Klein",
    "description": "Clothing Stores",
    "phone": "(407) 465-0900",
    "address": "15733 State Road 535  Orlando, FL 32821",
    "location": "Gilchrist"
  },
  {
    "name": "Ecko",
    "description": "Clothing Stores",
    "phone": "(407) 477-1261",
    "address": "15685 State Road 535  Orlando, FL 32821",
    "location": "Gilchrist"
  },
  {
    "name": "VF Outlet",
    "description": "Clothing Stores",
    "phone": "(407) 239-6500",
    "address": "15657 State Road 535  Orlando, FL 32821",
    "location": "Gilchrist"
  },
  {
    "name": "Aeropostale",
    "description": "Clothing Stores",
    "phone": "(407) 465-8636",
    "address": "15555 State Road 535  Orlando, FL 32821",
    "location": "Gilchrist"
  },
  {
    "name": "Tommy Hilfiger",
    "description": "Clothing Stores",
    "phone": "(407) 238-0142",
    "address": "15591 State Road 535  Orlando, FL 32821",
    "location": "Gilchrist"
  },
  {
    "name": "Fresh2Muerte Clothing",
    "description": "Clothing Stores",
    "phone": "(407) 739-6777",
    "address": "Metro  Orlando, FL 32837",
    "location": "Gilchrist"
  },
  {
    "name": "Lemarchantsmith Denis",
    "description": "Clothing Stores",
    "phone": "(407) 201-3192",
    "address": "2305 Leeward Cv  Kissimmee, FL 34746",
    "location": "Gilchrist"
  },
  {
    "name": "Eddie Bauer Outlet",
    "description": "Clothing Stores",
    "phone": "(407) 465-8621",
    "address": "15813 State Road 535  Orlando, FL 32821",
    "location": "Gilchrist"
  },
  {
    "name": "Gap",
    "description": "Clothing Stores",
    "phone": "(407) 239-4343",
    "address": "15807 State Road 535  Orlando, FL 32821",
    "location": "Gilchrist"
  },
  {
    "name": "Jockey",
    "description": "Clothing Stores",
    "phone": "(407) 605-0477",
    "address": "15765 State Road 535  Orlando, FL 32821",
    "location": "Gilchrist"
  },
  {
    "name": "Under Armour Factory House",
    "description": "Clothing Stores",
    "phone": "(407) 238-2025",
    "address": "15729 State Road 535  Orlando, FL 32821",
    "location": "Gilchrist"
  },
  {
    "name": "Timberland Factory Store",
    "description": "Clothing Stores",
    "phone": "(407) 238-2042",
    "address": "15777 State Road 535  Orlando, FL 32821",
    "location": "Gilchrist"
  },
  {
    "name": "Green Friday Emporium",
    "description": "Clothing Stores",
    "phone": "(407) 556-3919",
    "address": "1302 10th St  Saint Cloud, FL 34769",
    "location": "Gilchrist"
  },
  {
    "name": "Diesel",
    "description": "Clothing Stores",
    "phone": "(407) 239-4308",
    "address": "8200 Vineland Ave C/o Orlando Vineland Premium Outlets Store 1159  Orlando, FL 32821",
    "location": "Gilchrist"
  },
  {
    "name": "Banana Republic",
    "description": "Clothing Stores",
    "phone": "(407) 239-7741",
    "address": "8200 Vineland Ave Ste 400  Orlando, FL 32821",
    "location": "Gilchrist"
  },
  {
    "name": "Mo's Unique Fashion",
    "description": "Clothing Stores",
    "phone": "(407) 910-6534",
    "address": "2835 Scenic Ln  Kissimmee, FL 34744",
    "location": "Gilchrist"
  },
  {
    "name": "rumor boutique",
    "description": "Clothing Stores",
    "phone": "(407) 680-7170",
    "address": "5770 W Irlo Bronson Memorial Hwy Ste H  Kissimmee, FL 34746",
    "location": "Gilchrist"
  },
  {
    "name": "Dress Me Baby",
    "description": "Clothing Stores",
    "phone": "(201) 970-0389",
    "address": "5811 W Irlo Bronson Memorial Hwy  Kissimmee, FL 34746",
    "location": "Gilchrist"
  },
  {
    "name": "Smart is so Sexy Clothing",
    "description": "Clothing Stores",
    "phone": "(321) 443-0223",
    "address": "4620 Yellow Bay Dr  Kissimmee, FL 34758",
    "location": "Gilchrist"
  },
  {
    "name": "Brie's Jewelry",
    "description": "Clothing Stores",
    "phone": "(863) 212-6584",
    "address": "5676 Sycamore Canyon Dr  Kissimmee, FL 34758",
    "location": "Gilchrist"
  },
  {
    "name": "J.Crew Factory",
    "description": "Clothing Stores",
    "phone": "(407) 238-0653",
    "address": "8174 Vineland Ave Ste 1599  Orlando, FL 32821",
    "location": "Gilchrist"
  },
  {
    "name": "Charlotte Russe",
    "description": "Clothing Stores",
    "phone": "(407) 477-7726",
    "address": "8174 Vineland Ave  Orlando, FL 32821",
    "location": "Gilchrist"
  },
  {
    "name": "Just For Kicks Dancewear",
    "description": "Clothing Stores",
    "phone": "(407) 601-3786",
    "address": "2101 Orinoco Dr, Ste 4  Orlando, FL 32837",
    "location": "Gilchrist"
  },
  {
    "name": "Briza Beach Wear",
    "description": "Clothing Stores",
    "phone": "(248) 672-0090",
    "address": "14525 Gateway Pointe Cir  Orlando, FL 32821",
    "location": "Gilchrist"
  },
  {
    "name": "Rock Em Socks",
    "description": "Clothing Stores",
    "phone": "(407) 730-7931",
    "address": "9561 Satellite Blvd  Orlando, FL 32837",
    "location": "Gilchrist"
  },
  {
    "name": "Eddie Bauer",
    "description": "Clothing Stores",
    "phone": "(407) 238-0011",
    "address": "8166 Vineland Ave  Orlando, FL 32821",
    "location": "Gilchrist"
  },
  {
    "name": "Columbia Factory Store",
    "description": "Clothing Stores",
    "phone": "(407) 238-0631",
    "address": "8166 Vineland Ave Ste 1765  Orlando, FL 32821",
    "location": "Gilchrist"
  },
  {
    "name": "J. Crew Factory Store",
    "description": "Clothing Stores",
    "phone": "(407) 238-0653",
    "address": "8174 Vineland Ave  Orlando, FL 32821",
    "location": "Gilchrist"
  },
  {
    "name": "Jockey International",
    "description": "Clothing Stores",
    "phone": "(407) 238-5379",
    "address": "8174 Vineland Ave Ste 1537  Orlando, FL 32821",
    "location": "Gilchrist"
  },
  {
    "name": "Missional Wear",
    "description": "Clothing Stores",
    "phone": "(407) 593-0027",
    "address": "3682 Old Canoe Creek Rd  Saint Cloud, FL 34769",
    "location": "Gilchrist"
  },
  {
    "name": "Hanesbrands",
    "description": "Clothing Stores",
    "phone": "(407) 238-0919",
    "address": "8231 Vineland Ave Suite 2141  Orlando, FL 32821",
    "location": "Gilchrist"
  },
  {
    "name": "Tommy Bahama",
    "description": "Clothing Stores",
    "phone": "(407) 787-0286",
    "address": "8231 Vineland Ave  Orlando, FL 32821",
    "location": "Gilchrist"
  },
  {
    "name": "Nautica",
    "description": "Clothing Stores",
    "phone": "(407) 238-1550",
    "address": "8200 Vineland Ave Ste 1223  Orlando, FL 32821",
    "location": "Gilchrist"
  },
  {
    "name": "American Eagle",
    "description": "Clothing Stores",
    "phone": "(321) 677-0159",
    "address": "8200 Vineland Ave Ste 745  Orlando, FL 32821",
    "location": "Gilchrist"
  },
  {
    "name": "BOSS Outlet",
    "description": "Clothing Stores",
    "phone": "(407) 465-0660",
    "address": "8200 Vineland Ave Ste 940  Orlando, FL 32821",
    "location": "Gilchrist"
  },
  {
    "name": "PacSun Outlet",
    "description": "Clothing Stores",
    "phone": "(407) 238-9944",
    "address": "8200 Vineland Ave  Orlando, FL 32821",
    "location": "Gilchrist"
  },
  {
    "name": "Tory Burch Outlet",
    "description": "Clothing Stores",
    "phone": "(407) 239-3635",
    "address": "8200 Vineland Ave Ste 1045A  Orlando, FL 32821",
    "location": "Gilchrist"
  },
  {
    "name": "Polo Ralph Lauren Children's Factory Store",
    "description": "Clothing Stores",
    "phone": "(407) 465-8642",
    "address": "8200 Vineland Ave Ste 1155  Orlando, FL 32821",
    "location": "Gilchrist"
  },
  {
    "name": "PacSun",
    "description": "Clothing Stores",
    "phone": "(407) 238-9944",
    "address": "8200 Vineland Ave  Orlando, FL 32821",
    "location": "Gilchrist"
  },
  {
    "name": "Armani Exchange",
    "description": "Clothing Stores",
    "phone": "(407) 550-4490",
    "address": "8200 Vineland Ave  Orlando, FL 32821",
    "location": "Gilchrist"
  },
  {
    "name": "Vineyard Vines",
    "description": "Clothing Stores",
    "phone": "(407) 396-0013",
    "address": "8200 Vineland Ave  Orlando, FL 32821",
    "location": "Gilchrist"
  },
  {
    "name": "Lacoste",
    "description": "Clothing Stores",
    "phone": "(407) 465-0500",
    "address": "8200 Vineland Ave Ste 1128  Orlando, FL 32821",
    "location": "Gilchrist"
  },
  {
    "name": "LVMH Fashion Group",
    "description": "Clothing Stores",
    "phone": "(407) 662-0155",
    "address": "8200 Vineland Ave  Orlando, FL 32821",
    "location": "Gilchrist"
  },
  {
    "name": "Briago USA Inc",
    "description": "Clothing Stores",
    "phone": "(407) 238-5789",
    "address": "8200 Vineland Ave  Orlando, FL 32821",
    "location": "Gilchrist"
  },
  {
    "name": "Kay Jewelers",
    "description": "Clothing Stores",
    "phone": "(407) 465-1686",
    "address": "8200 Vineland Ave  Orlando, FL 32821",
    "location": "Gilchrist"
  },
  {
    "name": "Elie Tahari",
    "description": "Clothing Stores",
    "phone": "(407) 477-4656",
    "address": "8200 Vineland Ave Ste 170  Orlando, FL 32821",
    "location": "Gilchrist"
  },
  {
    "name": "DVF (Diane von Furstenberg)",
    "description": "Clothing Stores",
    "phone": "(407) 842-5304",
    "address": "8200 Vineland Ave Ste 1010  Orlando, FL 32821",
    "location": "Gilchrist"
  },
  {
    "name": "Hugo Boss",
    "description": "Clothing Stores",
    "phone": "(407) 465-0660",
    "address": "8200 Vineland Ave Ste 940  Orlando, FL 32821",
    "location": "Gilchrist"
  },
  {
    "name": "Allsaints",
    "description": "Clothing Stores",
    "phone": "(407) 390-0293",
    "address": "8200 Vineland Ave  Orlando, FL 32821",
    "location": "Gilchrist"
  },
  {
    "name": "DKNY Sport",
    "description": "Clothing Stores",
    "phone": "(407) 239-2334",
    "address": "8200 Vineland Ave  Orlando, FL 32821",
    "location": "Gilchrist"
  },
  {
    "name": "J. Crew",
    "description": "Clothing Stores",
    "phone": "(407) 477-7910",
    "address": "8200 Vineland Ave  Orlando, FL 32821",
    "location": "Gilchrist"
  },
  {
    "name": "Theory",
    "description": "Clothing Stores",
    "phone": "(407) 239-7076",
    "address": "8200 Vineland Ave Ste 0323  Orlando, FL 32821",
    "location": "Gilchrist"
  },
  {
    "name": "Original Penguin",
    "description": "Clothing Stores",
    "phone": "(407) 390-0461",
    "address": "8200 Vineland Ave Ste 0755a  Orlando, FL 32821",
    "location": "Gilchrist"
  },
  {
    "name": "Conflict Culture",
    "description": "Clothing Stores",
    "phone": "(305) 904-1037",
    "address": "215 Celebration Pl  Celebration, FL 34747",
    "location": "Gilchrist"
  },
  {
    "name": "Under Armour Brand House",
    "description": "Clothing Stores",
    "phone": "(407) 828-6405",
    "address": "1668 E Buena Vista Dr  Orlando, FL 32830",
    "location": "Gilchrist"
  },
  {
    "name": "Curl",
    "description": "Clothing Stores",
    "phone": "(407) 842-1302",
    "address": "1600 E Buena Vista Dr  Orlando, FL 32830",
    "location": "Gilchrist"
  },
  {
    "name": "UNIQLO",
    "description": "Clothing Stores",
    "phone": "(877) 486-4756",
    "address": "1674 E Buena Vista Dr  Orlando, FL 32830",
    "location": "Gilchrist"
  },
  {
    "name": "American Threads Orlando",
    "description": "Clothing Stores",
    "phone": "(407) 560-0873",
    "address": "1520 E Buena Vista Dr  Lake Buena Vista, FL 32830",
    "location": "Gilchrist"
  },
  {
    "name": "Free People",
    "description": "Clothing Stores",
    "phone": "(407) 828-8282",
    "address": "1520 E Buena Vista Dr # K  Lake Buena Vista, FL 32830",
    "location": "Gilchrist"
  },
  {
    "name": "Sunnie's Closet Boutique for Men and Women",
    "description": "Clothing Stores",
    "phone": "(321) 947-6447",
    "address": "8421 S Orange Blossom Trl Ste 120  Orlando, FL 32809",
    "location": "Gilchrist"
  },
  {
    "name": "MUAHBYANNETTECOLLECTION,LLC",
    "description": "Clothing Stores",
    "phone": "(407) 587-9021",
    "address": "8421 s orange blosson trail su  orlando, FL 32809",
    "location": "Gilchrist"
  },
  {
    "name": "7 Express",
    "description": "Clothing Stores",
    "phone": "(407) 465-0680",
    "address": "11901 International Dr  Orlando, FL 32821",
    "location": "Gilchrist"
  },
  {
    "name": "Barneys New York",
    "description": "Clothing Stores",
    "phone": "(407) 239-9400",
    "address": "8200 Vineland Ave Ste 1045  Orlando, FL 32821",
    "location": "Gilchrist"
  },
  {
    "name": "Serendipity",
    "description": "Clothing Stores",
    "phone": "(407) 301-3949",
    "address": "2440 13th St  Saint Cloud, FL 34769",
    "location": "Gilchrist"
  },
  {
    "name": "Florida T Shirts Plus",
    "description": "Clothing Stores",
    "phone": "(407) 808-3114",
    "address": "Lake Buena Vista FL 32830  Lake Buena Vista, FL 32830",
    "location": "Gilchrist"
  },
  {
    "name": "Southern Safety & Supplies",
    "description": "Clothing Stores",
    "phone": "(407) 281-9000",
    "address": "365 W Taft Vineland Rd Ste 100  Orlando, FL 32824",
    "location": "Gilchrist"
  },
  {
    "name": "Tillys",
    "description": "Clothing Stores",
    "phone": "(407) 852-5810",
    "address": "8001 S Orange Blossom Trl  Orlando, FL 32809",
    "location": "Gilchrist"
  },
  {
    "name": "Hollister",
    "description": "Clothing Stores",
    "phone": "(407) 859-0964",
    "address": "8001 S Orange Blossom Trl  Orlando, FL 32809",
    "location": "Gilchrist"
  },
  {
    "name": "Abercrombie & Fitch",
    "description": "Clothing Stores",
    "phone": "(407) 850-0753",
    "address": "8001 S Orange Blossom Trl Ste 1210  Orlando, FL 32809",
    "location": "Gilchrist"
  },
  {
    "name": "Beta Levels",
    "description": "Clothing Stores",
    "phone": "(407) 910-4276",
    "address": "4106 Foxtail Ct  Kissimmee, FL 34746",
    "location": "Gilchrist"
  },
  {
    "name": "Downeast-Orvis",
    "description": "Clothing Stores",
    "phone": "(407) 566-0000",
    "address": "715 Bloom St  Kissimmee, FL 34747",
    "location": "Gilchrist"
  },
  {
    "name": "Lula Roe Emily Moore",
    "description": "Clothing Stores",
    "phone": "(407) 340-3503",
    "address": "1105 Golden Aster Ct  Kissimmee, FL 34747",
    "location": "Gilchrist"
  },
  {
    "name": "Tha Design Goddess",
    "description": "Clothing Stores",
    "phone": "(407) 301-9008",
    "address": "761 Siena Palm Dr  Kissimmee, FL 34747",
    "location": "Gilchrist"
  },
  {
    "name": "Vashti Fashions Inc",
    "description": "Clothing Stores",
    "phone": "(407) 343-0940",
    "address": "3919 Golden Finch Way  Kissimmee, FL 34746",
    "location": "Gilchrist"
  },
  {
    "name": "H&M",
    "description": "Clothing Stores",
    "phone": "(855) 466-7467",
    "address": "8001 S Orange Blossom Trl  Orlando, FL 32809",
    "location": "Gilchrist"
  },
  {
    "name": "Hot Topic",
    "description": "Clothing Stores",
    "phone": "(407) 240-9609",
    "address": "8001 S Orange Blossom Trl  Orlando, FL 32809",
    "location": "Gilchrist"
  },
  {
    "name": "Underground Station",
    "description": "Clothing Stores",
    "phone": "(407) 850-9222",
    "address": "8001 S Orange Blossom Trl  Orlando, FL 32809",
    "location": "Gilchrist"
  },
  {
    "name": "Calzedonia",
    "description": "Clothing Stores",
    "phone": "(321) 352-7302",
    "address": "8001 S Orange Blossom Trl  Orlando, FL 32809",
    "location": "Gilchrist"
  },
  {
    "name": "Camille La Vie at the Florida Mall",
    "description": "Clothing Stores",
    "phone": "(321) 888-4000",
    "address": "8001 South Orange Blossom Trail Space #1186A  Orlando, FL 32809",
    "location": "Gilchrist"
  },
  {
    "name": "Billabong",
    "description": "Clothing Stores",
    "phone": "(407) 851-9062",
    "address": "8001 S Orange Blossom Trl  Orlando, FL 32809",
    "location": "Gilchrist"
  },
  {
    "name": "A'gaci",
    "description": "Clothing Stores",
    "phone": "(407) 856-8778",
    "address": "8001 S Orange Blossom Trl  Orlando, FL 32809",
    "location": "Gilchrist"
  },
  {
    "name": "Coast Avenue",
    "description": "Clothing Stores",
    "phone": "(407) 855-9658",
    "address": "8001 S Orange Blossom Trl  Orlando, FL 32809",
    "location": "Gilchrist"
  },
  {
    "name": "Undergound by Journeys",
    "description": "Clothing Stores",
    "phone": "(407) 850-9222",
    "address": "8001 S Orange Blossom Trl  Orlando, FL 32809",
    "location": "Gilchrist"
  },
  {
    "name": "Rock'em",
    "description": "Clothing Stores",
    "phone": "(321) 236-7575",
    "address": "8001 S Orange Blossom Trl  Orlando, FL 32809",
    "location": "Gilchrist"
  },
  {
    "name": "Salt Life Store",
    "description": "Clothing Stores",
    "phone": "(407) 410-8009",
    "address": "8001 S Orange Blossom Trl  Orlando, FL 32809",
    "location": "Gilchrist"
  },
  {
    "name": "Express",
    "description": "Clothing Stores",
    "phone": "(407) 859-9985",
    "address": "8001 S Orange Blossom Trl  Orlando, FL 32809",
    "location": "Gilchrist"
  },
  {
    "name": "Juiced Up",
    "description": "Clothing Stores",
    "phone": "(888) 366-2602",
    "address": "7726 Winegard Rd 2nd Floor  Orlando, FL 32809",
    "location": "Gilchrist"
  },
  {
    "name": "Kloset Co",
    "description": "Clothing Stores",
    "phone": "(407) 601-4029",
    "address": "7600 Currency Dr  Orlando, FL 32809",
    "location": "Gilchrist"
  },
  {
    "name": "Cariloha",
    "description": "Clothing Stores",
    "phone": "(407) 825-4268",
    "address": "9403 Jeff Fuqua Blvd Ste 8021  Orlando, FL 32827",
    "location": "Gilchrist"
  },
  {
    "name": "Buckle",
    "description": "Clothing Stores",
    "phone": "(407) 812-5450",
    "address": "8001 S Orange Ave  Orlando, FL 32809",
    "location": "Gilchrist"
  },
  {
    "name": "Dynamite Clothing",
    "description": "Clothing Stores",
    "phone": "(407) 888-0657",
    "address": "8001 S Orange Ave  Orlando, FL 32809",
    "location": "Gilchrist"
  },
  {
    "name": "Fox Head",
    "description": "Clothing Stores",
    "phone": "(407) 251-8600",
    "address": "8001 S Orange Ave  Orlando, FL 32809",
    "location": "Gilchrist"
  },
  {
    "name": "Vidiot Wear",
    "description": "Clothing Stores",
    "phone": "(407) 873-5515",
    "address": "915 Cheyenne Dr  Saint Cloud, FL 34771",
    "location": "Gilchrist"
  },
  {
    "name": "Desigual",
    "description": "Clothing Stores",
    "phone": "(321) 352-7301",
    "address": "1 Jeff Fuqua Blvd  Orlando, FL 32827",
    "location": "Gilchrist"
  },
  {
    "name": "jomard.co",
    "description": "Clothing Stores",
    "phone": "(407) 719-0960",
    "address": "6739 Cherry Grove Cir  Orlando, FL 32809",
    "location": "Gilchrist"
  },
  {
    "name": "Ross Stores Inc",
    "description": "Clothing Stores",
    "phone": "(407) 356-8400",
    "address": "5600 W Sand Lake Rd  Orlando, FL 32819",
    "location": "Gilchrist"
  },
  {
    "name": "Stein Mart",
    "description": "Clothing Stores",
    "phone": "(407) 313-4230",
    "address": "6881 Kingspointe Pkwy  Orlando, FL 32819",
    "location": "Gilchrist"
  },
  {
    "name": "Plume et Palette",
    "description": "Clothing Stores",
    "phone": "(407) 939-5277",
    "address": "200 Epcot Center Dr  Lake Buena Vista, FL 32830",
    "location": "Gilchrist"
  },
  {
    "name": "H D American Road",
    "description": "Clothing Stores",
    "phone": "(407) 351-3302",
    "address": "8000 International Dr  Orlando, FL 32819",
    "location": "Gilchrist"
  },
  {
    "name": "Orlando Apparel",
    "description": "Clothing Stores",
    "phone": "(407) 620-1167",
    "address": "6422 Milner Blvd  Orlando, FL 32809",
    "location": "Gilchrist"
  },
  {
    "name": "Radically Classy",
    "description": "Clothing Stores",
    "phone": "(321) 348-0159",
    "address": "6220 S Orange Blossom Trl Ste 151  Orlando, FL 32809",
    "location": "Gilchrist"
  },
  {
    "name": "Cockywear",
    "description": "Clothing Stores",
    "phone": "(321) 301-3259",
    "address": "5145 Pueblo St  Orlando, FL 32819",
    "location": "Gilchrist"
  },
  {
    "name": "Truck Em",
    "description": "Clothing Stores",
    "phone": "(855) 388-1541",
    "address": "5260 Countryside Ct  Saint Cloud, FL 34771",
    "location": "Gilchrist"
  },
  {
    "name": "In Character - Temporarily Unavailable",
    "description": "Clothing Stores",
    "phone": "(407) 939-5277",
    "address": "351 S Studio Dr  Lake Buena Vista, FL 32830",
    "location": "Gilchrist"
  },
  {
    "name": "Keystone Clothiers",
    "description": "Clothing Stores",
    "phone": "(407) 939-5277",
    "address": "351 S Studio Dr  Lake Buena Vista, FL 32830",
    "location": "Gilchrist"
  },
  {
    "name": "Tackapparel",
    "description": "Clothing Stores",
    "phone": "(323) 800-8653",
    "address": "7345 W Sand Lake Rd  Orlando, FL 32819",
    "location": "Gilchrist"
  },
  {
    "name": "T.J.Maxx",
    "description": "Clothing Stores",
    "phone": "(407) 363-7775",
    "address": "5295 International Dr Ste 500  Orlando, FL 32819",
    "location": "Gilchrist"
  },
  {
    "name": "Amy Fashion Corp",
    "description": "Clothing Stores",
    "phone": "(407) 352-7034",
    "address": "5295 International Dr Ste 270  Orlando, FL 32819",
    "location": "Gilchrist"
  },
  {
    "name": "P.U.R.E",
    "description": "Clothing Stores",
    "phone": "(407) 268-0645",
    "address": "6015 Walbridge St  Orlando, FL 32809",
    "location": "Gilchrist"
  },
  {
    "name": "Lacoste-Permanently Closed",
    "description": "Clothing Stores",
    "phone": "(407) 354-5693",
    "address": "5269 International Dr Ste 133B  Orlando, FL 32819",
    "location": "Gilchrist"
  },
  {
    "name": "Quiksilver",
    "description": "Clothing Stores",
    "phone": "(407) 856-2887",
    "address": "8001 S Orange Blossom Trl  Orlando, FL 32809",
    "location": "Gilchrist"
  },
  {
    "name": "World of Denim",
    "description": "Clothing Stores",
    "phone": "(407) 345-0263",
    "address": "8255 International Dr  Orlando, FL 32819",
    "location": "Gilchrist"
  },
  {
    "name": "Fajas Y Heans DBA",
    "description": "Clothing Stores",
    "phone": "(321) 746-5022",
    "address": "4142 W Oak Ridge Rd  Orlando, FL 32809",
    "location": "Gilchrist"
  },
  {
    "name": "Josey's Alterations",
    "description": "Clothing Stores",
    "phone": "(407) 914-5084",
    "address": "8108 S Orange Blossom Trl  Orlando, FL 32809",
    "location": "Gilchrist"
  },
  {
    "name": "CLASSIC CONSIGNMENT",
    "description": "Clothing Stores",
    "phone": "(407) 226-7100",
    "address": "8956 Turkey Lake Rd  Orlando, FL 32819",
    "location": "Gilchrist"
  },
  {
    "name": "Runway Boutique",
    "description": "Clothing Stores",
    "phone": "(407) 856-8500",
    "address": "Florida Mall  Orlando, FL 32809",
    "location": "Gilchrist"
  },
  {
    "name": "K 2 Fashion",
    "description": "Clothing Stores",
    "phone": "(407) 601-0097",
    "address": "2254 S Kirkman Rd  Orlando, FL 32811",
    "location": "Gilchrist"
  },
  {
    "name": "Burberry",
    "description": "Clothing Stores",
    "phone": "(407) 248-2882",
    "address": "4200 Conroy Rd  Orlando, FL 32839",
    "location": "Gilchrist"
  },
  {
    "name": "Vanity Exclusive",
    "description": "Clothing Stores",
    "phone": "(800) 518-6520",
    "address": "913 San Marco Dr  Kissimmee, FL 34758",
    "location": "Gilchrist"
  },
  {
    "name": "Nerdpress custom prints",
    "description": "Clothing Stores",
    "phone": "(904) 878-9477",
    "address": "915 Gloucester Ct  Kissimmee, FL 34758",
    "location": "Gilchrist"
  },
  {
    "name": "American Apparel",
    "description": "Clothing Stores",
    "phone": "(407) 354-0696",
    "address": "4959 International Dr  Orlando, FL 32819",
    "location": "Gilchrist"
  },
  {
    "name": "Urban Outfitters",
    "description": "Clothing Stores",
    "phone": "(407) 363-0050",
    "address": "4200 Conroy Rd  Orlando, FL 32839",
    "location": "Gilchrist"
  },
  {
    "name": "Levi's",
    "description": "Clothing Stores",
    "phone": "(407) 351-7721",
    "address": "5221 International Dr Ste F3  Orlando, FL 32819",
    "location": "Gilchrist"
  },
  {
    "name": "Pp Clothing",
    "description": "Clothing Stores",
    "phone": "(407) 259-8975",
    "address": "5654 Stoneridge Cir  Orlando, FL 32839",
    "location": "Gilchrist"
  },
  {
    "name": "Four Seasons Golf and Sports Club Orlando",
    "description": "Clothing Stores",
    "phone": "(407) 313-7777",
    "address": "3451 Golfview Dr  Lake Buena Vista, FL 32830",
    "location": "Gilchrist"
  },
  {
    "name": "FameBoutiq",
    "description": "Clothing Stores",
    "phone": "(877) 574-6204",
    "address": "4550 Oak Haven Dr  Orlando, FL 32839",
    "location": "Gilchrist"
  },
  {
    "name": "Rebekah's Gallery",
    "description": "Clothing Stores",
    "phone": "(407) 230-1840",
    "address": "7512 Dr Phillips Blvd  Orlando, FL 32819",
    "location": "Gilchrist"
  },
  {
    "name": "MCY INC",
    "description": "Clothing Stores",
    "phone": "(302) 448-8485",
    "address": "7512 Dr Phillips Blvd Ste 728  Orlando, FL 32819",
    "location": "Gilchrist"
  },
  {
    "name": "Converse Factory Store",
    "description": "Clothing Stores",
    "phone": "(407) 370-5072",
    "address": "4977 International Dr  Orlando, FL 32819",
    "location": "Gilchrist"
  },
  {
    "name": "Q Fashion",
    "description": "Clothing Stores",
    "phone": "(321) 247-5874",
    "address": "4973 International Dr  Orlando, FL 32819",
    "location": "Gilchrist"
  },
  {
    "name": "Hurley Factory Store",
    "description": "Clothing Stores",
    "phone": "(407) 352-2996",
    "address": "4971 International Dr  Orlando, FL 32819",
    "location": "Gilchrist"
  },
  {
    "name": "Bali Outlet Store",
    "description": "Clothing Stores",
    "phone": "(407) 363-4498",
    "address": "4965 International Dr Ste 2D09  Orlando, FL 32819",
    "location": "Gilchrist"
  },
  {
    "name": "Ted Baker",
    "description": "Clothing Stores",
    "phone": "(407) 370-8920",
    "address": "4959 International Dr  Orlando, FL 32819",
    "location": "Gilchrist"
  },
  {
    "name": "Florida Fishin Apparel",
    "description": "Clothing Stores",
    "phone": "(321) 800-6427",
    "address": "4959 International Dr  Orlando, FL 32819",
    "location": "Gilchrist"
  },
  {
    "name": "Ralph Lauren",
    "description": "Clothing Stores",
    "phone": "(407) 903-0339",
    "address": "4959 International Dr  Orlando, FL 32819",
    "location": "Gilchrist"
  },
  {
    "name": "Brooks Brothers Factory Store",
    "description": "Clothing Stores",
    "phone": "(407) 363-5918",
    "address": "4957 International Dr  Orlando, FL 32819",
    "location": "Gilchrist"
  },
  {
    "name": "Vince Outlet",
    "description": "Clothing Stores",
    "phone": "(407) 355-9802",
    "address": "4957 International Dr  Orlando, FL 32819",
    "location": "Gilchrist"
  },
  {
    "name": "Robert Graham Retail",
    "description": "Clothing Stores",
    "phone": "(407) 226-6555",
    "address": "4953 International Dr  Orlando, FL 32819",
    "location": "Gilchrist"
  },
  {
    "name": "Champion Outlet",
    "description": "Clothing Stores",
    "phone": "(407) 352-7231",
    "address": "4951 International Dr  Orlando, FL 32819",
    "location": "Gilchrist"
  },
  {
    "name": "Faconnable",
    "description": "Clothing Stores",
    "phone": "(407) 351-7607",
    "address": "4951 International Dr  Orlando, FL 32819",
    "location": "Gilchrist"
  },
  {
    "name": "Greg Norman",
    "description": "Clothing Stores",
    "phone": "(321) 354-1550",
    "address": "4951 International Dr  Orlando, FL 32819",
    "location": "Gilchrist"
  },
  {
    "name": "Kate Spade New York",
    "description": "Clothing Stores",
    "phone": "(407) 939-5277",
    "address": "1520 W Buena Vista Dr  Lake Buena Vista, FL 32830",
    "location": "Gilchrist"
  },
  {
    "name": "Levi Outlet by Design",
    "description": "Clothing Stores",
    "phone": "(407) 352-3118",
    "address": "4949 International Dr  Orlando, FL 32819",
    "location": "Gilchrist"
  },
  {
    "name": "Jamies Clothin G Store",
    "description": "Clothing Stores",
    "phone": "(407) 866-0024",
    "address": "5417 Pointe Vista Cir  Orlando, FL 32839",
    "location": "Gilchrist"
  },
  {
    "name": "Sanchef Gear",
    "description": "Clothing Stores",
    "phone": "(787) 599-2930",
    "address": "9037 Edenshire Cir  Orlando, FL 32836",
    "location": "Gilchrist"
  },
  {
    "name": "ednaclothingfair",
    "description": "Clothing Stores",
    "phone": "(407) 730-7818",
    "address": "5081 Stratemeyer drive  Orlando, FL 32839",
    "location": "Gilchrist"
  },
  {
    "name": "Blessi's Trends",
    "description": "Clothing Stores",
    "phone": "(407) 537-4979",
    "address": "10239 Falcon Parc Blvd #101  Orlando, FL 32832",
    "location": "Gilchrist"
  },
  {
    "name": "Pickleboat Apparel",
    "description": "Clothing Stores",
    "phone": "(407) 982-6411",
    "address": "10524 Moss Park Rd Ste 204-651  Orlando, FL 32832",
    "location": "Gilchrist"
  },
  {
    "name": "Positive",
    "description": "Clothing Stores",
    "phone": "(407) 942-2038",
    "address": "4700 Millenia Blvd  Orlando, FL 32839",
    "location": "Gilchrist"
  },
  {
    "name": "I'm Selfmade LLC",
    "description": "Clothing Stores",
    "phone": "(888) 964-3341",
    "address": "4700 Millenia Blvd. Suite 175  Orlando, FL 32839",
    "location": "Gilchrist"
  },
  {
    "name": "Sposa Fashions",
    "description": "Clothing Stores",
    "phone": "(407) 232-7368",
    "address": "6901 Tpc Dr Ste 250  Orlando, FL 32822",
    "location": "Gilchrist"
  },
  {
    "name": "Saint Laurent",
    "description": "Clothing Stores",
    "phone": "(407) 354-1460",
    "address": "Mall At Millenia 4200 Conroy Roadorlando Florida United States 32839  Orlando, FL 32839",
    "location": "Gilchrist"
  },
  {
    "name": "Kurt Geiger Mall at Millenia",
    "description": "Clothing Stores",
    "phone": "(321) 299-0460",
    "address": "Mall At Millenia 4200 Conroy Road Unit C 186  Orlando, FL 32839",
    "location": "Gilchrist"
  },
  {
    "name": "Ferragamo",
    "description": "Clothing Stores",
    "phone": "(407) 363-3552",
    "address": "4152 Conroy Rd  Orlando, FL 32839",
    "location": "Gilchrist"
  },
  {
    "name": "Celine Neiman Marcus Leather Goods & Shoes Orlando",
    "description": "Clothing Stores",
    "phone": "(407) 264-5900",
    "address": "4170 Conroy Rd  Orlando, FL 32839",
    "location": "Gilchrist"
  },
  {
    "name": "Vince.",
    "description": "Clothing Stores",
    "phone": "(407) 264-2400",
    "address": "4152 Conroy Rd  Orlando, FL 32839",
    "location": "Gilchrist"
  },
  {
    "name": "BOSS Store",
    "description": "Clothing Stores",
    "phone": "(407) 345-8889",
    "address": "4200 Conroy Rd Ste 275  Orlando, FL 32839",
    "location": "Gilchrist"
  },
  {
    "name": "Splendid",
    "description": "Clothing Stores",
    "phone": "(407) 363-0821",
    "address": "4200 Conroy Rd  Orlando, FL 32839",
    "location": "Gilchrist"
  },
  {
    "name": "UNTUCKit",
    "description": "Clothing Stores",
    "phone": "(407) 801-5221",
    "address": "4200 Conroy Rd Spc E117  Orlando, FL 32839",
    "location": "Gilchrist"
  },
  {
    "name": "Dior",
    "description": "Clothing Stores",
    "phone": "(407) 574-8289",
    "address": "4200 Conroy Rd Ste 287  Orlando, FL 32839",
    "location": "Gilchrist"
  },
  {
    "name": "C Wonder",
    "description": "Clothing Stores",
    "phone": "(407) 370-3035",
    "address": "4200 Conroy Rd Ste 188  Orlando, FL 32839",
    "location": "Gilchrist"
  },
  {
    "name": "Billabong USA",
    "description": "Clothing Stores",
    "phone": "(407) 370-6427",
    "address": "4200 Conroy Rd  Orlando, FL 32839",
    "location": "Gilchrist"
  },
  {
    "name": "Gcute Accessories",
    "description": "Clothing Stores",
    "phone": "(407) 409-5412",
    "address": "5123 Northlawn Way  Orlando, FL 32811",
    "location": "Gilchrist"
  },
  {
    "name": "Moda Hana",
    "description": "Clothing Stores",
    "phone": "(888) 983-0466",
    "address": "5401 S Kirkman Rd Ste 310  Orlando, FL 32819",
    "location": "Gilchrist"
  },
  {
    "name": "Its Figgy Clothing",
    "description": "Clothing Stores",
    "phone": "(407) 751-4395",
    "address": "4109 S Orange Blossom Trl  Orlando, FL 32839",
    "location": "Gilchrist"
  },
  {
    "name": "rue21 - Closed",
    "description": "Clothing Stores",
    "phone": "(407) 282-9268",
    "address": "5939 S Goldenrod Rd Ste B  Orlando, FL 32822",
    "location": "Gilchrist"
  },
  {
    "name": "Janes Clothing",
    "description": "Clothing Stores",
    "phone": "(407) 601-0630",
    "address": "6325 Conroy Rd  Orlando, FL 32835",
    "location": "Gilchrist"
  },
  {
    "name": "Loi's Luxury Boutique",
    "description": "Clothing Stores",
    "phone": "(407) 730-3117",
    "address": "3700 34th St Ste 240  Orlando, FL 32805",
    "location": "Gilchrist"
  },
  {
    "name": "B-Wear",
    "description": "Clothing Stores",
    "phone": "(407) 872-1774",
    "address": "4085 L B Mcleod Rd Ste F1  Orlando, FL 32811",
    "location": "Gilchrist"
  },
  {
    "name": "K & G Fashion Superstore",
    "description": "Clothing Stores",
    "phone": "(407) 648-4702",
    "address": "350 E Michigan St  Orlando, FL 32806",
    "location": "Gilchrist"
  },
  {
    "name": "Myabellas",
    "description": "Clothing Stores",
    "phone": "(407) 399-9078",
    "address": "2501 S Mills Ave  Orlando, FL 32806",
    "location": "Gilchrist"
  },
  {
    "name": "Hanesbrands Inc",
    "description": "Clothing Stores",
    "phone": "(407) 238-0919",
    "address": "2141 Bruton Blvd  Orlando, FL 32805",
    "location": "Gilchrist"
  },
  {
    "name": "Tren-D",
    "description": "Clothing Stores",
    "phone": "(407) 939-5277",
    "address": "Disney Springs  Lake Buena Vista, FL 32830",
    "location": "Gilchrist"
  },
  {
    "name": "Disney Design-a-tee",
    "description": "Clothing Stores",
    "phone": "(407) 939-5277",
    "address": "Disney Spgs  Orlando, FL 32830",
    "location": "Gilchrist"
  },
  {
    "name": "Home Decor and More",
    "description": "Clothing Stores",
    "phone": "(407) 951-9603",
    "address": "8143 Powell Dr  Orlando, FL 32822",
    "location": "Gilchrist"
  },
  {
    "name": "Plant Beast Apparel",
    "description": "Clothing Stores",
    "phone": "(407) 480-7467",
    "address": "2333 Monaco Cove Cir  Orlando, FL 32825",
    "location": "Gilchrist"
  },
  {
    "name": "The Garage Orlando",
    "description": "Clothing Stores",
    "phone": "(407) 826-1955",
    "address": "5519 Commerce Dr Ste 3  Orlando, FL 32839",
    "location": "Gilchrist"
  },
  {
    "name": "Sportgymproducts.com",
    "description": "Clothing Stores",
    "phone": "(407) 994-8625",
    "address": "7860 Lake Wilson rd  Davenport, FL 33896",
    "location": "Gilchrist"
  },
  {
    "name": "Home Fashions Inc",
    "description": "Clothing Stores",
    "phone": "(618) 594-2381",
    "address": "2400 Posner Blvd  Davenport, FL 33837",
    "location": "Gilchrist"
  },
  {
    "name": "Burkes Outlet",
    "description": "Clothing Stores",
    "phone": "(863) 420-4362",
    "address": "1271 Posner Blvd  Davenport, FL 33837",
    "location": "Gilchrist"
  },
  {
    "name": "Cypress Courtyard",
    "description": "Clothing Stores",
    "phone": "(407) 944-1374",
    "address": "1042 Cypress Pkwy  Kissimmee, FL 34759",
    "location": "Gilchrist"
  },
  {
    "name": "International Apparel Mart",
    "description": "Clothing Stores",
    "phone": "(407) 422-3089",
    "address": "4210 L B Mcleod Rd  Orlando, FL 32811",
    "location": "Gilchrist"
  },
  {
    "name": "Express - Closed",
    "description": "Clothing Stores",
    "phone": "(407) 370-4402",
    "address": "4200 Conroy Rd  Orlando, FL 32839",
    "location": "Gilchrist"
  },
  {
    "name": "Galaxy Screen Printing Inc",
    "description": "Clothing Stores",
    "phone": "(407) 401-7348",
    "address": "925 Sunshine Ln Suite 1040  Altamonte Springs, FL 32714",
    "location": "Gilchrist"
  },
  {
    "name": "Forever 21",
    "description": "Clothing Stores",
    "phone": "(407) 552-0316",
    "address": "620 Centerview Blvd  Kissimmee, FL 34741",
    "location": "Gilchrist"
  },
  {
    "name": "GARAGE",
    "description": "Clothing Stores",
    "phone": "(321) 333-5186",
    "address": "11 Neptune Rd  Kissimmee, FL 34744",
    "location": "Gilchrist"
  },
  {
    "name": "Gentlemen's Quarters-Kissimmee",
    "description": "Clothing Stores",
    "phone": "(407) 846-7450",
    "address": "1106 N John Young Pkwy  Kissimmee, FL 34741",
    "location": "Gilchrist"
  },
  {
    "name": "Shores Mens Wear",
    "description": "Clothing Stores",
    "phone": "(407) 847-4727",
    "address": "201 Broadway  Kissimmee, FL 34741",
    "location": "Gilchrist"
  },
  {
    "name": "Discovery Clothing Co",
    "description": "Clothing Stores",
    "phone": "(407) 870-6301",
    "address": "660 Centerview Blvd  Kissimmee, FL 34741",
    "location": "Gilchrist"
  },
  {
    "name": "Ross Dress for Less",
    "description": "Clothing Stores",
    "phone": "(407) 343-6188",
    "address": "670 Centerview Blvd  Kissimmee, FL 34741",
    "location": "Gilchrist"
  },
  {
    "name": "Boot Barn",
    "description": "Clothing Stores",
    "phone": "(407) 343-8148",
    "address": "640 Centerview Blvd Ste 120  Kissimmee, FL 34741",
    "location": "Gilchrist"
  },
  {
    "name": "Five Below",
    "description": "Clothing Stores",
    "phone": "(407) 846-1355",
    "address": "630 Centerview Blvd  Kissimmee, FL 34741",
    "location": "Gilchrist"
  },
  {
    "name": "Oshkosh B'Gosh",
    "description": "Clothing Stores",
    "phone": "(407) 846-2018",
    "address": "616 Centerview Blvd  Kissimmee, FL 34741",
    "location": "Gilchrist"
  },
  {
    "name": "Shoe Show",
    "description": "Clothing Stores",
    "phone": "(407) 944-1200",
    "address": "1383 E Osceola Pkwy  Kissimmee, FL 34744",
    "location": "Gilchrist"
  },
  {
    "name": "Marshalls & HomeGoods",
    "description": "Clothing Stores",
    "phone": "(407) 932-2613",
    "address": "731 Centerview Blvd  Kissimmee, FL 34741",
    "location": "Gilchrist"
  },
  {
    "name": "Kmart",
    "description": "Clothing Stores",
    "phone": "(407) 846-1124",
    "address": "2211 W Vine St  Kissimmee, FL 34741",
    "location": "Gilchrist"
  },
  {
    "name": "Soul Mates Boutique USA",
    "description": "Clothing Stores",
    "phone": "(401) 359-4193",
    "address": "3174 Bill Beck Blvd  Kissimmee, FL 34744",
    "location": "Gilchrist"
  },
  {
    "name": "Wet Seal",
    "description": "Clothing Stores",
    "phone": "(407) 847-2433",
    "address": "2645 W Osceola Pkwy  Kissimmee, FL 34741",
    "location": "Gilchrist"
  },
  {
    "name": "SEPHORA at Kohl's",
    "description": "Clothing Stores",
    "phone": "(407) 847-6685",
    "address": "3200 N John Young Pkwy  Kissimmee, FL 34741",
    "location": "Gilchrist"
  },
  {
    "name": "JCPenney",
    "description": "Clothing Stores",
    "phone": "(407) 847-5922",
    "address": "2001 W Osceola Pkwy  Kissimmee, FL 34741",
    "location": "Gilchrist"
  },
  {
    "name": "S.A. Elite",
    "description": "Clothing Stores",
    "phone": "(407) 846-6844",
    "address": "3214 N John Young Pkwy  Kissimmee, FL 34741",
    "location": "Gilchrist"
  },
  {
    "name": "Journeys",
    "description": "Clothing Stores",
    "phone": "(407) 343-0068",
    "address": "3264 N John Young Pkwy  Kissimmee, FL 34741",
    "location": "Gilchrist"
  },
  {
    "name": "Torrid",
    "description": "Clothing Stores",
    "phone": "(321) 333-4987",
    "address": "3260 N John Young Pkwy  Kissimmee, FL 34741",
    "location": "Gilchrist"
  },
  {
    "name": "Justice",
    "description": "Clothing Stores",
    "phone": "(407) 870-0672",
    "address": "3258 N John Young Pkwy  Kissimmee, FL 34741",
    "location": "Gilchrist"
  },
  {
    "name": "Converse Clearance Store",
    "description": "Clothing Stores",
    "phone": "(321) 677-0034",
    "address": "2671 W Osceola Pkwy Ste A  Kissimmee, FL 34741",
    "location": "Gilchrist"
  },
  {
    "name": "Bealls Department Store",
    "description": "Clothing Stores",
    "phone": "(407) 847-4120",
    "address": "2671 W Osceola Pkwy  Kissimmee, FL 34741",
    "location": "Gilchrist"
  },
  {
    "name": "Amazing T's",
    "description": "Clothing Stores",
    "phone": "(407) 931-1269",
    "address": "2209 Clay St  Kissimmee, FL 34741",
    "location": "Gilchrist"
  },
  {
    "name": "Panama Jack Outlet",
    "description": "Clothing Stores",
    "phone": "(407) 397-1366",
    "address": "4301 W Vine St  Kissimmee, FL 34746",
    "location": "Gilchrist"
  },
  {
    "name": "Naeem Brothers Inc",
    "description": "Clothing Stores",
    "phone": "(407) 397-4396",
    "address": "4301 W Vine St  Kissimmee, FL 34746",
    "location": "Gilchrist"
  },
  {
    "name": "Best Tee Shirts Inc",
    "description": "Clothing Stores",
    "phone": "(407) 397-0206",
    "address": "4301 W Vine St  Kissimmee, FL 34746",
    "location": "Gilchrist"
  },
  {
    "name": "Boying Orn",
    "description": "Clothing Stores",
    "phone": "(407) 787-3721",
    "address": "4307 W Vine St  Kissimmee, FL 34746",
    "location": "Gilchrist"
  },
  {
    "name": "Bealls Outlet Stores",
    "description": "Clothing Stores",
    "phone": "(407) 847-4233",
    "address": "3227 S John Young Pkwy  Kissimmee, FL 34746",
    "location": "Gilchrist"
  },
  {
    "name": "Tuna Enterprise",
    "description": "Clothing Stores",
    "phone": "(407) 397-0607",
    "address": "4301 W Vine St  Kissimmee, FL 34746",
    "location": "Gilchrist"
  },
  {
    "name": "Marshalls",
    "description": "Clothing Stores",
    "phone": "(321) 677-0419",
    "address": "4799 W Irlo Bronson Memorial Hwy  Kissimmee, FL 34746",
    "location": "Gilchrist"
  },
  {
    "name": "MNA Inc",
    "description": "Clothing Stores",
    "phone": "(407) 397-9132",
    "address": "5405 W Irlo Bronson Memorial Hwy  Kissimmee, FL 34746",
    "location": "Gilchrist"
  },
  {
    "name": "Bealls",
    "description": "Clothing Stores",
    "phone": "(407) 251-2799",
    "address": "12413 S Orange Blossom Trl  Orlando, FL 32837",
    "location": "Gilchrist"
  },
  {
    "name": "Gap Outlet",
    "description": "Clothing Stores",
    "phone": "(407) 239-4343",
    "address": "15807 State Road 535  Orlando, FL 32821",
    "location": "Gilchrist"
  },
  {
    "name": "Kasper",
    "description": "Clothing Stores",
    "phone": "(407) 662-0108",
    "address": "15779 State Road 535  Orlando, FL 32821",
    "location": "Gilchrist"
  },
  {
    "name": "Timberland Outlet - Orlando",
    "description": "Clothing Stores",
    "phone": "(407) 238-2042",
    "address": "15777 State Road 535  Orlando, FL 32821",
    "location": "Gilchrist"
  },
  {
    "name": "Big Dogs",
    "description": "Clothing Stores",
    "phone": "(407) 787-0053",
    "address": "15745 State Road 535  Orlando, FL 32821",
    "location": "Gilchrist"
  },
  {
    "name": "Van Heusen",
    "description": "Clothing Stores",
    "phone": "(407) 239-3605",
    "address": "15741 State Road 535  Orlando, FL 32821",
    "location": "Gilchrist"
  },
  {
    "name": "US Polo Assn",
    "description": "Clothing Stores",
    "phone": "(407) 787-3667",
    "address": "15719 State Road 535  Orlando, FL 32821",
    "location": "Gilchrist"
  },
  {
    "name": "Old Navy Outlet",
    "description": "Clothing Stores",
    "phone": "(407) 641-5040",
    "address": "15661 State Road 535  Orlando, FL 32821",
    "location": "Gilchrist"
  },
  {
    "name": "S & K Menswear",
    "description": "Clothing Stores",
    "phone": "(407) 238-9716",
    "address": "15657 State Road 535  Orlando, FL 32821",
    "location": "Gilchrist"
  },
  {
    "name": "Izod",
    "description": "Clothing Stores",
    "phone": "(407) 238-1400",
    "address": "15563 State Road 535  Orlando, FL 32821",
    "location": "Gilchrist"
  },
  {
    "name": "Elaine's Embroidery & Creative Apparel",
    "description": "Clothing Stores",
    "phone": "(407) 888-4799",
    "address": "10918 S Trail Cir  Orlando, FL 32837",
    "location": "Gilchrist"
  },
  {
    "name": "RegalSquareMall.com",
    "description": "Clothing Stores",
    "phone": "(862) 227-3425",
    "address": "3115 Innovation Dr  Saint Cloud, FL 34769",
    "location": "Gilchrist"
  },
  {
    "name": "Pretty Rebellious Boutique",
    "description": "Clothing Stores",
    "phone": "(407) 891-0755",
    "address": "1012 New York Ave  Saint Cloud, FL 34769",
    "location": "Gilchrist"
  },
  {
    "name": "International Gold Hut",
    "description": "Clothing Stores",
    "phone": "(407) 397-9995",
    "address": "5770 W Irlo Bronson Memorial Hwy Ste 415  Kissimmee, FL 34746",
    "location": "Gilchrist"
  },
  {
    "name": "Nike - Kissimmee",
    "description": "Clothing Stores",
    "phone": "(407) 397-1979",
    "address": "6149 W Irlo Bronson Memorial Hwy  Kissimmee, FL 34747",
    "location": "Gilchrist"
  },
  {
    "name": "Nike Factory Store - Celebration",
    "description": "Clothing Stores",
    "phone": "(407) 397-1979",
    "address": "6149 W Irlo Bronson Memorial Hwy  Kissimmee, FL 34747",
    "location": "Gilchrist"
  },
  {
    "name": "Indra's Draperies & Clothing Alterations",
    "description": "Clothing Stores",
    "phone": "(407) 238-1761",
    "address": "5017 Gateway Ave  Orlando, FL 32821",
    "location": "Gilchrist"
  },
  {
    "name": "LOFT Outlet",
    "description": "Clothing Stores",
    "phone": "(407) 238-4504",
    "address": "15825 Ocoee Apopka Rd  Orlando, FL 32821",
    "location": "Gilchrist"
  },
  {
    "name": "Superdry Outlet",
    "description": "Clothing Stores",
    "phone": "(407) 842-5305",
    "address": "Vineland Premium Outlet  Orlando, FL 32821",
    "location": "Gilchrist"
  },
  {
    "name": "Gro Styles",
    "description": "Clothing Stores",
    "phone": "(407) 438-3736",
    "address": "9456 S Orange Blossom Trl  Orlando, FL 32837",
    "location": "Gilchrist"
  },
  {
    "name": "Zumiez",
    "description": "Clothing Stores",
    "phone": "(407) 238-4655",
    "address": "8166 Vineland Ave Ste 1721  Orlando, FL 32821",
    "location": "Gilchrist"
  },
  {
    "name": "Converse Store (We moved to Suite 1225)",
    "description": "Clothing Stores",
    "phone": "(407) 239-0037",
    "address": "8166 Vineland Ave Ste 1725  Orlando, FL 32821",
    "location": "Gilchrist"
  },
  {
    "name": "The Children's Place Outlet",
    "description": "Clothing Stores",
    "phone": "(407) 634-6644",
    "address": "8174 Vineland Ave  Orlando, FL 32821",
    "location": "Gilchrist"
  },
  {
    "name": "Cavender's Boot City",
    "description": "Clothing Stores",
    "phone": "(407) 465-0195",
    "address": "11607 Regency Village Dr  Orlando, FL 32821",
    "location": "Gilchrist"
  },
  {
    "name": "Edna's Dress Up Boutique Consignment Shop",
    "description": "Clothing Stores",
    "phone": "(407) 286-5500",
    "address": "9251 S Orange Blossom Trl  Orlando, FL 32837",
    "location": "Gilchrist"
  },
  {
    "name": "Gap Factory",
    "description": "Clothing Stores",
    "phone": "(407) 238-1514",
    "address": "8228 Vineland Ave Ste LL01  Orlando, FL 32821",
    "location": "Gilchrist"
  },
  {
    "name": "Nike - Orlando",
    "description": "Clothing Stores",
    "phone": "(407) 239-3663",
    "address": "8200 Vineland Ave  Orlando, FL 32821",
    "location": "Gilchrist"
  },
  {
    "name": "Lucky Brand",
    "description": "Clothing Stores",
    "phone": "(407) 239-7267",
    "address": "8200 Vineland Ave Ste 805  Orlando, FL 32821",
    "location": "Gilchrist"
  },
  {
    "name": "Prada Orlando Premium",
    "description": "Clothing Stores",
    "phone": "(407) 238-6280",
    "address": "8200 Vineland Ave Ste 120  Orlando, FL 32821",
    "location": "Gilchrist"
  },
  {
    "name": "Cole Haan Outlet",
    "description": "Clothing Stores",
    "phone": "(407) 239-4900",
    "address": "8200 Vineland Ave Ste 325  Orlando, FL 32821",
    "location": "Gilchrist"
  },
  {
    "name": "Marc Jacobs - Orlando Vineland Premium Outlets",
    "description": "Clothing Stores",
    "phone": "(407) 605-6091",
    "address": "8200 Vineland Ave Ste 170  Orlando, FL 32821",
    "location": "Gilchrist"
  },
  {
    "name": "Karl Lagerfeld Paris",
    "description": "Clothing Stores",
    "phone": "(321) 329-3002",
    "address": "8200 Vineland Ave Ste 1005B  Orlando, FL 32821",
    "location": "Gilchrist"
  },
  {
    "name": "Gucci - Orlando Outlet",
    "description": "Clothing Stores",
    "phone": "(321) 329-3451",
    "address": "8200 Vineland Ave Ste 115  Orlando, FL 32821",
    "location": "Gilchrist"
  },
  {
    "name": "Dkny",
    "description": "Clothing Stores",
    "phone": "(407) 238-2003",
    "address": "8200 Vineland Ave Ste 1213  Orlando, FL 32821",
    "location": "Gilchrist"
  },
  {
    "name": "Puma Outlet Store",
    "description": "Clothing Stores",
    "phone": "(407) 239-6211",
    "address": "8200 Vineland Ave  Orlando, FL 32821",
    "location": "Gilchrist"
  },
  {
    "name": "7 For All Mankind",
    "description": "Clothing Stores",
    "phone": "(407) 465-0155",
    "address": "8200 Vineland Ave  Orlando, FL 32821",
    "location": "Gilchrist"
  },
  {
    "name": "COACH Outlet",
    "description": "Clothing Stores",
    "phone": "(407) 239-4673",
    "address": "8200 Vineland Ave Ste 430  Orlando, FL 32821",
    "location": "Gilchrist"
  },
  {
    "name": "Brooks Brothers",
    "description": "Clothing Stores",
    "phone": "(407) 239-9000",
    "address": "8200 Vineland Ave Ste 420  Orlando, FL 32821",
    "location": "Gilchrist"
  },
  {
    "name": "Bottega Veneta",
    "description": "Clothing Stores",
    "phone": "(321) 329-3950",
    "address": "8200 Vineland Ave  Orlando, FL 32821",
    "location": "Gilchrist"
  },
  {
    "name": "Polo Ralph Lauren Factory Store",
    "description": "Clothing Stores",
    "phone": "(407) 239-7656",
    "address": "8200 Vineland Ave Ste 500  Orlando, FL 32821",
    "location": "Gilchrist"
  },
  {
    "name": "Michael Kors Mens Outlet",
    "description": "Clothing Stores",
    "phone": "(407) 239-0231",
    "address": "8200 Vineland Ave Ste 815  Orlando, FL 32821",
    "location": "Gilchrist"
  },
  {
    "name": "Longchamp Orlando",
    "description": "Clothing Stores",
    "phone": "(407) 390-0527",
    "address": "8200 Vineland Ave Ste 165  Orlando, FL 32821",
    "location": "Gilchrist"
  },
  {
    "name": "BOSS Menswear Outlet",
    "description": "Clothing Stores",
    "phone": "(407) 465-0660",
    "address": "8200 Vineland Ave  Orlando, FL 32821",
    "location": "Gilchrist"
  },
  {
    "name": "Nike Factory Store - Orlando Vineland",
    "description": "Clothing Stores",
    "phone": "(407) 239-3663",
    "address": "8200 Vineland Ave Ste 600  Orlando, FL 32821",
    "location": "Gilchrist"
  },
  {
    "name": "FERRAGAMO Outlet",
    "description": "Clothing Stores",
    "phone": "(407) 477-0091",
    "address": "8200 Vineland Ave  Orlando, FL 32821",
    "location": "Gilchrist"
  },
  {
    "name": "Max Mara",
    "description": "Clothing Stores",
    "phone": "(407) 239-9485",
    "address": "8200 Vineland Ave  Orlando, FL 32821",
    "location": "Gilchrist"
  },
  {
    "name": "Zegna Outlet",
    "description": "Clothing Stores",
    "phone": "(407) 239-6300",
    "address": "8200 Vineland Ave Ste 1149  Orlando, FL 32821",
    "location": "Gilchrist"
  },
  {
    "name": "Hugo Boss Factory Outlet",
    "description": "Clothing Stores",
    "phone": "(407) 465-0660",
    "address": "8200 Vineland Ave Ste 1120  Orlando, FL 32821",
    "location": "Gilchrist"
  },
  {
    "name": "Kenneth Cole",
    "description": "Clothing Stores",
    "phone": "(407) 239-1116",
    "address": "8200 Vineland Ave Ste 405  Orlando, FL 32821",
    "location": "Gilchrist"
  },
  {
    "name": "Loft",
    "description": "Clothing Stores",
    "phone": "(407) 238-4504",
    "address": "8200 Vineland Ave  Orlando, FL 32821",
    "location": "Gilchrist"
  },
  {
    "name": "Giorgio Armani",
    "description": "Clothing Stores",
    "phone": "(407) 465-2121",
    "address": "8200 Vineland Ave Ste 305  Orlando, FL 32821",
    "location": "Gilchrist"
  },
  {
    "name": "Papaya Clothing",
    "description": "Clothing Stores",
    "phone": "(407) 465-6500",
    "address": "8200 Vineland Ave Ste 1240  Orlando, FL 32821",
    "location": "Gilchrist"
  },
  {
    "name": "Ermenegildo Zegna",
    "description": "Clothing Stores",
    "phone": "(407) 239-6300",
    "address": "8200 Vineland Ave  Orlando, FL 32821",
    "location": "Gilchrist"
  },
  {
    "name": "Zadig & Voltaire",
    "description": "Clothing Stores",
    "phone": "(321) 346-0557",
    "address": "8200 Vineland Ave Ste 1124  Orlando, FL 32821",
    "location": "Gilchrist"
  },
  {
    "name": "Perry Ellis",
    "description": "Clothing Stores",
    "phone": "(407) 238-7769",
    "address": "8200 Vineland Ave Ste 445  Orlando, FL 32821",
    "location": "Gilchrist"
  },
  {
    "name": "True Religion Jeans",
    "description": "Clothing Stores",
    "phone": "(407) 239-6597",
    "address": "8200 Vineland Ave Ste 0920  Orlando, FL 32821",
    "location": "Gilchrist"
  },
  {
    "name": "Florida Lifestyle Apparel",
    "description": "Clothing Stores",
    "phone": "(407) 239-0988",
    "address": "12181 S Apopka Vineland Rd  Orlando, FL 32836",
    "location": "Gilchrist"
  },
  {
    "name": "Rice Labs",
    "description": "Clothing Stores",
    "phone": "(407) 203-5048",
    "address": "1271 La Quinta Dr Ste 3  Orlando, FL 32809",
    "location": "Gilchrist"
  },
  {
    "name": "Johnny Was",
    "description": "Clothing Stores",
    "phone": "(407) 560-0835",
    "address": "1520 E Buena Vista Dr Unit Drive;  Lake Buena Vista, FL 32830",
    "location": "Gilchrist"
  },
  {
    "name": "Ron Jon Surf Shop - Disney Springs",
    "description": "Clothing Stores",
    "phone": "(407) 560-8888",
    "address": "1530 E Buena Vista Dr  Lake Buena Vista, FL 32830",
    "location": "Gilchrist"
  },
  {
    "name": "Everything But Water",
    "description": "Clothing Stores",
    "phone": "(407) 560-9160",
    "address": "1520 E Buena Vista Dr # P  Lake Buena Vista, FL 32830",
    "location": "Gilchrist"
  },
  {
    "name": "Ugg",
    "description": "Clothing Stores",
    "phone": "(407) 208-2318",
    "address": "1520 E Buena Vista Dr Unit G  Lake Buena Vista, FL 32830",
    "location": "Gilchrist"
  },
  {
    "name": "Lucky Brand Jeans",
    "description": "Clothing Stores",
    "phone": "(407) 560-9841",
    "address": "1520 E Buena Vista Dr Bldg D  Orlando, FL 32830",
    "location": "Gilchrist"
  },
  {
    "name": "Lilly Pulitzer",
    "description": "Clothing Stores",
    "phone": "(407) 560-0067",
    "address": "1520 E Buena Vista Dr  Lake Buena Vista, FL 32830",
    "location": "Gilchrist"
  },
  {
    "name": "Superdry",
    "description": "Clothing Stores",
    "phone": "(321) 251-3351",
    "address": "1486 E Buena Vista Dr  Orlando, FL 32830",
    "location": "Gilchrist"
  },
  {
    "name": "Zara",
    "description": "Clothing Stores",
    "phone": "(407) 560-9199",
    "address": "1494 E Buena Vista Dr  Orlando, FL 32830",
    "location": "Gilchrist"
  },
  {
    "name": "GUESS Factory",
    "description": "Clothing Stores",
    "phone": "(407) 238-4410",
    "address": "8200 Vineland Ave  Orlando, FL 32821",
    "location": "Gilchrist"
  },
  {
    "name": "Brands For Less",
    "description": "Clothing Stores",
    "phone": "(407) 892-1432",
    "address": "1001 New York Ave  Saint Cloud, FL 34769",
    "location": "Gilchrist"
  },
  {
    "name": "New York & Company",
    "description": "Clothing Stores",
    "phone": "(407) 859-9962",
    "address": "8001 S Orange Blossom Trl Ste 156  Orlando, FL 32809",
    "location": "Gilchrist"
  },
  {
    "name": "A Baby's Best Friend",
    "description": "Clothing Stores",
    "phone": "(407) 891-2241",
    "address": "4865 Hidden Ln  Saint Cloud, FL 34771",
    "location": "Gilchrist"
  },
  {
    "name": "ESPN Clubhouse Shop",
    "description": "Clothing Stores",
    "phone": "(407) 939-5277",
    "address": "700 S Victory Way  Kissimmee, FL 34747",
    "location": "Gilchrist"
  },
  {
    "name": "Adrian & Edith's Head to Toe",
    "description": "Clothing Stores",
    "phone": "(407) 939-5277",
    "address": "Disneys Hollywood Studios  Kissimmee, FL 34747",
    "location": "Gilchrist"
  },
  {
    "name": "FernEllie Creations",
    "description": "Clothing Stores",
    "phone": "(321) 234-2775",
    "address": "5250 International Dr Ste 6g  Orlando, FL 32819",
    "location": "Gilchrist"
  },
  {
    "name": "Be Fit Apparel",
    "description": "Clothing Stores",
    "phone": "(407) 354-5335",
    "address": "8803 Futures Dr  Orlando, FL 32819",
    "location": "Gilchrist"
  },
  {
    "name": "AX Armani Exchange",
    "description": "Clothing Stores",
    "phone": "(407) 438-4183",
    "address": "8001 S Orange Blossom Trl Ste 476A  Orlando, FL 32809",
    "location": "Gilchrist"
  },
  {
    "name": "Oakley Store",
    "description": "Clothing Stores",
    "phone": "(407) 888-6004",
    "address": "8001 S Orange Blossom Trl Ste 324  Orlando, FL 32809",
    "location": "Gilchrist"
  },
  {
    "name": "Macy's",
    "description": "Clothing Stores",
    "phone": "(407) 854-2300",
    "address": "8001 S Orange Blossom Trl Ste 1100  Orlando, FL 32809",
    "location": "Gilchrist"
  },
  {
    "name": "Charming Charlie",
    "description": "Clothing Stores",
    "phone": "(407) 855-1006",
    "address": "8001 S Orange Blossom Trl Ste 1160  Orlando, FL 32809",
    "location": "Gilchrist"
  },
  {
    "name": "abercrombie kids",
    "description": "Clothing Stores",
    "phone": "(407) 850-2023",
    "address": "8001 S Orange Blossom Trl  Orlando, FL 32809",
    "location": "Gilchrist"
  },
  {
    "name": "Shoe Palace",
    "description": "Clothing Stores",
    "phone": "(407) 458-5595",
    "address": "8001 S Orange Blossom Trl Ste 1220  Orlando, FL 32809",
    "location": "Gilchrist"
  },
  {
    "name": "Windsor",
    "description": "Clothing Stores",
    "phone": "(888) 495-4957",
    "address": "8001 S Orange Blossom Trl Ste 310  Orlando, FL 32809",
    "location": "Gilchrist"
  },
  {
    "name": "Intimissimi",
    "description": "Clothing Stores",
    "phone": "(321) 352-7618",
    "address": "8001 S Orange Blossom Trl  Orlando, FL 32809",
    "location": "Gilchrist"
  },
  {
    "name": "Sirens",
    "description": "Clothing Stores",
    "phone": "(321) 352-7678",
    "address": "8001 S Orange Blossom Trl  Orlando, FL 32809",
    "location": "Gilchrist"
  },
  {
    "name": "Cignal",
    "description": "Clothing Stores",
    "phone": "(407) 240-1233",
    "address": "8001 S Orange Blossom Trl  Orlando, FL 32809",
    "location": "Gilchrist"
  },
  {
    "name": "Chico's",
    "description": "Clothing Stores",
    "phone": "(407) 856-5500",
    "address": "8001 S Orange Blossom Trl Ste 1264  Orlando, FL 32809",
    "location": "Gilchrist"
  },
  {
    "name": "Cache",
    "description": "Clothing Stores",
    "phone": "(407) 856-0034",
    "address": "8001 S Orange Blossom Trl Ste 494  Orlando, FL 32809",
    "location": "Gilchrist"
  },
  {
    "name": "The Children's Place",
    "description": "Clothing Stores",
    "phone": "(407) 438-8770",
    "address": "8001 S Orange Blossom Trl Unit 12238  Orlando, FL 32809",
    "location": "Gilchrist"
  },
  {
    "name": "Roxy",
    "description": "Clothing Stores",
    "phone": "(407) 888-3553",
    "address": "8001 S Orange Blossom Trl Ste 306B  Orlando, FL 32809",
    "location": "Gilchrist"
  },
  {
    "name": "5.7.9",
    "description": "Clothing Stores",
    "phone": "(321) 236-9803",
    "address": "8001 S Orange Blossom Trl  Orlando, FL 32809",
    "location": "Gilchrist"
  },
  {
    "name": "Hope & Henry",
    "description": "Clothing Stores",
    "phone": "(407) 337-8125",
    "address": "8001 S Orange Blossom Trl  Orlando, FL 32809",
    "location": "Gilchrist"
  },
  {
    "name": "Emmanuel Mens Wear",
    "description": "Clothing Stores",
    "phone": "(321) 352-7760",
    "address": "8001 S Orange Blossom Trl  Orlando, FL 32809",
    "location": "Gilchrist"
  },
  {
    "name": "Avenue",
    "description": "Clothing Stores",
    "phone": "(407) 816-5524",
    "address": "730 Sand Lake Rd  Orlando, FL 32809",
    "location": "Gilchrist"
  },
  {
    "name": "Sears",
    "description": "Clothing Stores",
    "phone": "(407) 826-9600",
    "address": "8001 S Orange Ave  Orlando, FL 32809",
    "location": "Gilchrist"
  },
  {
    "name": "Liz Claiborne",
    "description": "Clothing Stores",
    "phone": "(407) 251-8933",
    "address": "8001 S Orange Ave  Orlando, FL 32809",
    "location": "Gilchrist"
  },
  {
    "name": "Central Admixture Pharmacy Services",
    "description": "Clothing Stores",
    "phone": "(407) 856-8828",
    "address": "2815 Directors Row Ste 300  Orlando, FL 32809",
    "location": "Gilchrist"
  },
  {
    "name": "Wild Side Clothing and Shoes",
    "description": "Clothing Stores",
    "phone": "(407) 355-3150",
    "address": "6203 W Sand Lake Rd Ste C2  Orlando, FL 32819",
    "location": "Gilchrist"
  },
  {
    "name": "US Apparel Online",
    "description": "Clothing Stores",
    "phone": "(407) 447-9980",
    "address": "7414 Kingspointe Pkwy  Orlando, FL 32819",
    "location": "Gilchrist"
  },
  {
    "name": "Black Spire Outfitters",
    "description": "Clothing Stores",
    "phone": "(407) 939-5277",
    "address": "351 S Studio Dr  Lake Buena Vista, FL 32830",
    "location": "Gilchrist"
  },
  {
    "name": "YourLogoGifts.com",
    "description": "Clothing Stores",
    "phone": "(407) 832-6446",
    "address": "5916 Caravan Court Resort Shoppe  Orlando, FL 32819",
    "location": "Gilchrist"
  },
  {
    "name": "DXL Big + Tall Outlet",
    "description": "Clothing Stores",
    "phone": "(407) 363-5570",
    "address": "5443 International Dr  Orlando, FL 32819",
    "location": "Gilchrist"
  },
  {
    "name": "DXL Big + Tall",
    "description": "Clothing Stores",
    "phone": "(407) 363-5570",
    "address": "5443 International Dr  Orlando, FL 32819",
    "location": "Gilchrist"
  },
  {
    "name": "Fashionlinedirect",
    "description": "Clothing Stores",
    "phone": "(321) 422-2054",
    "address": "5545 International Dr  Orlando, FL 32819",
    "location": "Gilchrist"
  },
  {
    "name": "American Retail Group",
    "description": "Clothing Stores",
    "phone": "(407) 351-0900",
    "address": "6454 International Dr  Orlando, FL 32819",
    "location": "Gilchrist"
  },
  {
    "name": "Casual Outlet",
    "description": "Clothing Stores",
    "phone": "(407) 352-7034",
    "address": "5295 International Dr  Orlando, FL 32819",
    "location": "Gilchrist"
  },
  {
    "name": "US Polo Association",
    "description": "Clothing Stores",
    "phone": "(407) 355-9825",
    "address": "5265 International Dr  Orlando, FL 32819",
    "location": "Gilchrist"
  },
  {
    "name": "Pac Sun",
    "description": "Clothing Stores",
    "phone": "(407) 345-1619",
    "address": "5250 International Dr  Orlando, FL 32819",
    "location": "Gilchrist"
  },
  {
    "name": "Ross",
    "description": "Clothing Stores",
    "phone": "(407) 248-0821",
    "address": "5452 Touchstone Dr  Orlando, FL 32819",
    "location": "Gilchrist"
  },
  {
    "name": "Eagles Wings, Inc",
    "description": "Clothing Stores",
    "phone": "(407) 892-6358",
    "address": "2101 Old Hickory Tree Rd  Saint Cloud, FL 34772",
    "location": "Gilchrist"
  },
  {
    "name": "Camille La Vie at Outlet Marketplace",
    "description": "Clothing Stores",
    "phone": "(407) 355-7261",
    "address": "5223 International Dr Suite D2  Orlando, FL 32819",
    "location": "Gilchrist"
  },
  {
    "name": "White House | Black Market",
    "description": "Clothing Stores",
    "phone": "(407) 850-0345",
    "address": "8001 S Orange Blossom Trl Ste 1274B  Orlando, FL 32809",
    "location": "Gilchrist"
  },
  {
    "name": "Guess Accessory",
    "description": "Clothing Stores",
    "phone": "(407) 851-7388",
    "address": "9303 Jeff Fuqua Blvd Ste 2713  Orlando, FL 32827",
    "location": "Gilchrist"
  },
  {
    "name": "Style Closet",
    "description": "Clothing Stores",
    "phone": "(407) 480-8055",
    "address": "870 Towne Center Dr  Kissimmee, FL 34759",
    "location": "Gilchrist"
  },
  {
    "name": "Capellini Clothing Inc",
    "description": "Clothing Stores",
    "phone": "(321) 235-5930",
    "address": "4310 S Semoran Blvd  Orlando, FL 32822",
    "location": "Gilchrist"
  },
  {
    "name": "Top Line Screen Printing",
    "description": "Clothing Stores",
    "phone": "(407) 428-9515",
    "address": "4210 L B McLeod Rd  Orlando, FL 32811",
    "location": "Gilchrist"
  },
  {
    "name": "PUMA - Clearance Door",
    "description": "Clothing Stores",
    "phone": "(689) 232-2733",
    "address": "5223 International Dr Ste D2  Orlando, FL 32819",
    "location": "Gilchrist"
  },
  {
    "name": "Oakley",
    "description": "Clothing Stores",
    "phone": "(407) 354-3711",
    "address": "5229 International Dr  Orlando, FL 32819",
    "location": "Gilchrist"
  },
  {
    "name": "Reebok Outlet",
    "description": "Clothing Stores",
    "phone": "(407) 370-8959",
    "address": "5225 International Dr Ste D-1  Orlando, FL 32819",
    "location": "Gilchrist"
  },
  {
    "name": "Nike Orlando",
    "description": "Clothing Stores",
    "phone": "(407) 351-9400",
    "address": "5209 International Dr  Orlando, FL 32819",
    "location": "Gilchrist"
  },
  {
    "name": "Tommy Hilfiger Outlet Store",
    "description": "Clothing Stores",
    "phone": "(407) 355-3588",
    "address": "5080 International Dr  Orlando, FL 32819",
    "location": "Gilchrist"
  },
  {
    "name": "Puma Outlet",
    "description": "Clothing Stores",
    "phone": "(407) 351-9721",
    "address": "4977 International Dr  Orlando, FL 32819",
    "location": "Gilchrist"
  },
  {
    "name": "Carhartt Orlando Factory Outlet",
    "description": "Clothing Stores",
    "phone": "(407) 241-3327",
    "address": "4973 International Dr Ste 3F21  Orlando, FL 32819",
    "location": "Gilchrist"
  },
  {
    "name": "Burton Outlet Store - Orlando",
    "description": "Clothing Stores",
    "phone": "(407) 235-1300",
    "address": "4973 International Dr  Orlando, FL 32819",
    "location": "Gilchrist"
  },
  {
    "name": "Quiksilver Factory Outlet",
    "description": "Clothing Stores",
    "phone": "(407) 363-0919",
    "address": "4963 International Dr  Orlando, FL 32819",
    "location": "Gilchrist"
  },
  {
    "name": "Supreme International",
    "description": "Clothing Stores",
    "phone": "(407) 363-4613",
    "address": "4963 International Dr  Orlando, FL 32819",
    "location": "Gilchrist"
  },
  {
    "name": "The Donna Karan Company Store",
    "description": "Clothing Stores",
    "phone": "(407) 351-4481",
    "address": "4955 International Dr  Orlando, FL 32819",
    "location": "Gilchrist"
  },
  {
    "name": "Elie Tahari Outlet",
    "description": "Clothing Stores",
    "phone": "(321) 352-7554",
    "address": "4955 International Dr  Orlando, FL 32819",
    "location": "Gilchrist"
  },
  {
    "name": "Dooney & Bourke Factory Store",
    "description": "Clothing Stores",
    "phone": "(407) 226-0611",
    "address": "4955 International Dr  Orlando, FL 32819",
    "location": "Gilchrist"
  },
  {
    "name": "Marc Jacobs - Orlando International Premium Outlets",
    "description": "Clothing Stores",
    "phone": "(407) 904-2700",
    "address": "4953 International Dr Ste 1A09  Orlando, FL 32819",
    "location": "Gilchrist"
  },
  {
    "name": "St. John Outlet",
    "description": "Clothing Stores",
    "phone": "(407) 352-5646",
    "address": "4953 International Dr Ste 1A01  Orlando, FL 32819",
    "location": "Gilchrist"
  },
  {
    "name": "Solaris",
    "description": "Clothing Stores",
    "phone": "(407) 401-7118",
    "address": "4953 International Dr Ste 1A  Orlando, FL 32819",
    "location": "Gilchrist"
  },
  {
    "name": "Armani Exchange (A/X)",
    "description": "Clothing Stores",
    "phone": "(407) 352-2633",
    "address": "4951 International Dr # 2a01  Orlando, FL 32819",
    "location": "Gilchrist"
  },
  {
    "name": "Fresh Produce",
    "description": "Clothing Stores",
    "phone": "(407) 363-1756",
    "address": "6000 Universal Blvd Ste 745C  Orlando, FL 32819",
    "location": "Gilchrist"
  },
  {
    "name": "Nordstrom Rack Millenia Crossing",
    "description": "Clothing Stores",
    "phone": "(321) 558-3800",
    "address": "4036 Eastgate Dr  Orlando, FL 32839",
    "location": "Gilchrist"
  },
  {
    "name": "SAINT LAURENT PARIS",
    "description": "Clothing Stores",
    "phone": "(407) 354-1460",
    "address": "Mall At Millenia 4200 Conroy Road  Orlando, FL 32839",
    "location": "Gilchrist"
  },
  {
    "name": "Prada Orlando Millenia",
    "description": "Clothing Stores",
    "phone": "(407) 235-1240",
    "address": "4200 Conroy Rd P279 P279  Orlando, FL 32839",
    "location": "Gilchrist"
  },
  {
    "name": "HermÃ¨s",
    "description": "Clothing Stores",
    "phone": "(407) 815-5411",
    "address": "4200 Conroy Road The Mall At Millenia  Orlando, FL 32839",
    "location": "Gilchrist"
  },
  {
    "name": "Dolce & Gabbana",
    "description": "Clothing Stores",
    "phone": "(407) 264-5900",
    "address": "C/O Neiman Marcus At The Mall At The Millenia 4170 Conroy Road  Orlando, FL 32839",
    "location": "Gilchrist"
  },
  {
    "name": "Versace",
    "description": "Clothing Stores",
    "phone": "(321) 332-9800",
    "address": "Mall At Millenia 4200 Conroy Road Space K284  Orlando, FL 32839",
    "location": "Gilchrist"
  },
  {
    "name": "Emporio Armani",
    "description": "Clothing Stores",
    "phone": "(407) 264-2400",
    "address": "4152 Conroy Rd  Orlando, FL 32839",
    "location": "Gilchrist"
  },
  {
    "name": "JD Sports",
    "description": "Clothing Stores",
    "phone": "(407) 226-1165",
    "address": "4200 Conroy Rd Ste 120  Orlando, FL 32839",
    "location": "Gilchrist"
  },
  {
    "name": "Alo",
    "description": "Clothing Stores",
    "phone": "(407) 216-5426",
    "address": "4200 Conroy Rd Spc G175  Orlando, FL 32839",
    "location": "Gilchrist"
  },
  {
    "name": "Tory Burch",
    "description": "Clothing Stores",
    "phone": "(407) 903-1263",
    "address": "4200 Conroy Rd Spc K290  Orlando, FL 32839",
    "location": "Gilchrist"
  },
  {
    "name": "Chanel",
    "description": "Clothing Stores",
    "phone": "(407) 352-5100",
    "address": "4200 Conroy Rd  Orlando, FL 32839",
    "location": "Gilchrist"
  },
  {
    "name": "Christian Louboutin Orlando",
    "description": "Clothing Stores",
    "phone": "(407) 307-1010",
    "address": "4200 Conroy Rd Ste K292  Orlando, FL 32839",
    "location": "Gilchrist"
  },
  {
    "name": "Athleta",
    "description": "Clothing Stores",
    "phone": "(407) 226-9846",
    "address": "4200 Conroy Rd  Orlando, FL 32839",
    "location": "Gilchrist"
  },
  {
    "name": "Ray-Ban",
    "description": "Clothing Stores",
    "phone": "(407) 903-1900",
    "address": "4200 Conroy Rd Spc G165  Orlando, FL 32839",
    "location": "Gilchrist"
  },
  {
    "name": "Bvlgari",
    "description": "Clothing Stores",
    "phone": "(407) 363-9636",
    "address": "4200 Conroy Rd Spc P-271  Orlando, FL 32839",
    "location": "Gilchrist"
  },
  {
    "name": "Aritzia",
    "description": "Clothing Stores",
    "phone": "(407) 264-0315",
    "address": "4200 Conroy Rd  Orlando, FL 32839",
    "location": "Gilchrist"
  },
  {
    "name": "Robin's Jean",
    "description": "Clothing Stores",
    "phone": "(407) 363-5223",
    "address": "4200 Conroy Rd  Orlando, FL 32839",
    "location": "Gilchrist"
  },
  {
    "name": "Uptown Tux",
    "description": "Clothing Stores",
    "phone": "(407) 240-4515",
    "address": "4983 S Orange Ave  Orlando, FL 32806",
    "location": "Gilchrist"
  },
  {
    "name": "CHIC & Lynn's thrift store",
    "description": "Clothing Stores",
    "phone": "(407) 757-5194",
    "address": "5225 Maui Ln  Orlando, FL 32812",
    "location": "Gilchrist"
  },
  {
    "name": "Catherines Plus Sizes",
    "description": "Clothing Stores",
    "phone": "(407) 903-9498",
    "address": "4673 Millenia Plaza Way  Orlando, FL 32839",
    "location": "Gilchrist"
  },
  {
    "name": "Star Traders",
    "description": "Clothing Stores",
    "phone": "(407) 939-5277",
    "address": "1180 Seven Seas Dr  Lake Buena Vista, FL 32830",
    "location": "Gilchrist"
  },
  {
    "name": "Sun Lovers of Central FL Inc",
    "description": "Clothing Stores",
    "phone": "(407) 425-7708",
    "address": "4601 SW 34th St  Orlando, FL 32811",
    "location": "Gilchrist"
  },
  {
    "name": "Rock 'em Apparel Co.",
    "description": "Clothing Stores",
    "phone": "(855) 762-5364",
    "address": "5051 L B Mcleod Rd Ste A  Orlando, FL 32811",
    "location": "Gilchrist"
  },
  {
    "name": "Design Lab Uniforms That Serve",
    "description": "Clothing Stores",
    "phone": "(407) 649-2099",
    "address": "4065 L B Mcleod Rd  Orlando, FL 32811",
    "location": "Gilchrist"
  },
  {
    "name": "J.McLaughlin",
    "description": "Clothing Stores",
    "phone": "(689) 267-3093",
    "address": "5048 Dr Phillips Blvd  Orlando, FL 32819",
    "location": "Gilchrist"
  },
  {
    "name": "Rainbow",
    "description": "Clothing Stores",
    "phone": "(407) 999-7709",
    "address": "344 E Michigan St  Orlando, FL 32806",
    "location": "Gilchrist"
  },
  {
    "name": "Future Generations",
    "description": "Clothing Stores",
    "phone": "(407) 648-5675",
    "address": "251 E Michigan St  Orlando, FL 32806",
    "location": "Gilchrist"
  },
  {
    "name": "Moda Colombia",
    "description": "Clothing Stores",
    "phone": "(407) 776-2477",
    "address": "4310 S Semoran Blvd  Orlando, FL 32822",
    "location": "Gilchrist"
  },
  {
    "name": "Great Lakes Loyalty",
    "description": "Clothing Stores",
    "phone": "(716) 308-3676",
    "address": "8535 Lansmere Ln  Orlando, FL 32835",
    "location": "Gilchrist"
  },
  {
    "name": "Tiendas Donato",
    "description": "Clothing Stores",
    "phone": "(407) 281-6370",
    "address": "3906 S Semoran Blvd  Orlando, FL 32822",
    "location": "Gilchrist"
  },
  {
    "name": "Men In Style",
    "description": "Clothing Stores",
    "phone": "(407) 578-1414",
    "address": "2282 S Kirkman Rd  Orlando, FL 32811",
    "location": "Gilchrist"
  },
  {
    "name": "Lola's of Windermere",
    "description": "Clothing Stores",
    "phone": "(407) 876-5052",
    "address": "505 Main St  Windermere, FL 34786",
    "location": "Gilchrist"
  },
  {
    "name": "Asamoda Corp",
    "description": "Clothing Stores",
    "phone": "(407) 440-4508",
    "address": "2744 S Chickasaw Trl  Orlando, FL 32829",
    "location": "Gilchrist"
  },
  {
    "name": "ParkCity Fashion",
    "description": "Clothing Stores",
    "phone": "(855) 554-1899",
    "address": "2212 s Chickasaw Trail #445  Orlando, FL 32825",
    "location": "Gilchrist"
  },
  {
    "name": "Entertainment Apparel",
    "description": "Clothing Stores",
    "phone": "(407) 816-4100",
    "address": "6000 Turkey Lake Rd  Orlando, FL 32819",
    "location": "Gilchrist"
  },
  {
    "name": "Dollar Express",
    "description": "Discount Stores",
    "phone": "(407) 846-0457",
    "address": "720 E Vine St  Kissimmee, FL 34744",
    "location": "Gilchrist"
  },
  {
    "name": "Walmart Supercenter",
    "description": "General Merchandise",
    "phone": "(407) 870-2277",
    "address": "1471 E Osceola Pkwy  Kissimmee, FL 34744",
    "location": "Gilchrist"
  },
  {
    "name": "Kissimmee Dollar & Up",
    "description": "Variety Stores",
    "phone": "(407) 348-0222",
    "address": "1015 W Vine St  Kissimmee, FL 34741",
    "location": "Gilchrist"
  },
  {
    "name": "Xhias Xessories",
    "description": "Women's Fashion Accessories",
    "phone": "(407) 483-5801",
    "address": "1924 N John Young Pkwy  Kissimmee, FL 34741",
    "location": "Gilchrist"
  },
  {
    "name": "Antasha's West Indian Store",
    "description": "General Merchandise",
    "phone": "(407) 518-9200",
    "address": "1314 N John Young Pkwy  Kissimmee, FL 34741",
    "location": "Gilchrist"
  },
  {
    "name": "Pedro A. Martinez",
    "description": "Women's Clothing",
    "phone": "(321) 284-6604",
    "address": "1505 Dorado Dr  Kissimmee, FL 34741",
    "location": "Gilchrist"
  },
  {
    "name": "Hibbett Sports",
    "description": "Sporting Goods",
    "phone": "(689) 312-4161",
    "address": "1100 N John Young Pkwy  Kissimmee, FL 34741",
    "location": "Gilchrist"
  },
  {
    "name": "Bonanza Boutique",
    "description": "Boutique Items",
    "phone": "(407) 846-2151",
    "address": "1518 W Vine St  Kissimmee, FL 34741",
    "location": "Gilchrist"
  },
  {
    "name": "Shore's Boutique",
    "description": "Boutique Items",
    "phone": "(407) 846-6922",
    "address": "203 Broadway  Kissimmee, FL 34741",
    "location": "Gilchrist"
  },
  {
    "name": "DICK'S Sporting Goods Warehouse Sale",
    "description": "Sporting Goods",
    "phone": "(407) 259-5944",
    "address": "3214 N John Parkway  Kissimmee, FL 34741",
    "location": "Gilchrist"
  },
  {
    "name": "Cato Fashions",
    "description": "Women's Clothing",
    "phone": "(407) 348-3412",
    "address": "1379 E Osceola Pkwy  Kissimmee, FL 34744",
    "location": "Gilchrist"
  },
  {
    "name": "Academy Sports + Outdoors",
    "description": "Sporting Goods",
    "phone": "(321) 697-5100",
    "address": "621 Centerview Blvd  Kissimmee, FL 34741",
    "location": "Gilchrist"
  },
  {
    "name": "Bunny's Place Enterprise Inc.",
    "description": "Orthopedic Shoe Dealers",
    "phone": "(407) 452-5576",
    "address": "2225 W Orange Blvd  Kissimmee, FL 34741",
    "location": "Gilchrist"
  },
  {
    "name": "Footaction USA",
    "description": "Shoe Stores",
    "phone": "(407) 851-9620",
    "address": "S 8001 Orange Blossom Trl  Orlando, FL 32809",
    "location": "Gilchrist"
  },
  {
    "name": "Good Vibrations Inc",
    "description": "Sportswear",
    "phone": "(407) 896-5807",
    "address": "FASHION Square Mall  Orlando, FL 32803",
    "location": "Gilchrist"
  },
  {
    "name": "Avon Diva",
    "description": "Bras",
    "phone": "(407) 601-9442",
    "address": "ORLANDO Fl  Orlando, FL 32810",
    "location": "Gilchrist"
  },
  {
    "name": "The Limited",
    "description": "Women's Clothing",
    "phone": "(407) 896-3791",
    "address": "FASHION Square Mall  Orlando, FL 32803",
    "location": "Gilchrist"
  },
  {
    "name": "Kdab, Inc",
    "description": "Men's Clothing",
    "phone": "(407) 331-8001",
    "address": "6869 Stapoint Ct suite 111  Winter Park, FL 32792",
    "location": "Gilchrist"
  },
  {
    "name": "Famous Footwear",
    "description": "Shoe Stores",
    "phone": "(407) 343-9914",
    "address": "3282 N John Young Pkwy  Kissimmee, FL 34741",
    "location": "Gilchrist"
  },
  {
    "name": "Play It Again Sports",
    "description": "Sporting Goods",
    "phone": "(407) 944-4005",
    "address": "2900 W Vine St  Kissimmee, FL 34741",
    "location": "Gilchrist"
  },
  {
    "name": "D' Rachel's Boutique",
    "description": "Women's Clothing",
    "phone": "(321) 284-2572",
    "address": "3831 W Vine St Ste 59  Kissimmee, FL 34741",
    "location": "Gilchrist"
  },
  {
    "name": "lucy",
    "description": "Women's Clothing",
    "phone": "(407) 201-4043",
    "address": "1308 Dyer Blvd  Kissimmee, FL 34741",
    "location": "Gilchrist"
  },
  {
    "name": "pOpshelf",
    "description": "Variety Stores",
    "phone": "(407) 846-0845",
    "address": "2003 W Osceola Pkwy  Kissimmee, FL 34741",
    "location": "Gilchrist"
  },
  {
    "name": "Men's Wearhouse",
    "description": "Men's Clothing",
    "phone": "(407) 343-7551",
    "address": "3299 Greenwald Way N  Kissimmee, FL 34741",
    "location": "Gilchrist"
  },
  {
    "name": "DressBarn",
    "description": "Women's Clothing",
    "phone": "(407) 932-2285",
    "address": "3204 N John Young Pkwy  Kissimmee, FL 34741",
    "location": "Gilchrist"
  },
  {
    "name": "DICK'S Warehouse Sale",
    "description": "Men's Clothing",
    "phone": "(407) 259-5944",
    "address": "3214 N John Young Pkwy  Kissimmee, FL 34741",
    "location": "Gilchrist"
  },
  {
    "name": "Lids",
    "description": "Hat Shops",
    "phone": "(407) 933-5755",
    "address": "3224 N John Young Pkwy  Kissimmee, FL 34741",
    "location": "Gilchrist"
  },
  {
    "name": "Peace Joy & Intention",
    "description": "Department Stores",
    "phone": "(407) 483-8500",
    "address": "3242 N John Young Pkwy  Kissimmee, FL 34741",
    "location": "Gilchrist"
  },
  {
    "name": "Mirz Instyle, Inc.",
    "description": "Women's Clothing",
    "phone": "(407) 797-0442",
    "address": "3050 Dyer Blvd  Kissimmee, FL 34741",
    "location": "Gilchrist"
  },
  {
    "name": "Nike",
    "description": "Sportswear",
    "phone": "(407) 847-4205",
    "address": "2661 W Osceola Pkwy  Kissimmee, FL 34741",
    "location": "Gilchrist"
  },
  {
    "name": "Christopher & Banks",
    "description": "Women's Clothing",
    "phone": "(407) 518-1656",
    "address": "2625 W Osceola Pkwy  Kissimmee, FL 34741",
    "location": "Gilchrist"
  },
  {
    "name": "Beya",
    "description": "Women's Fashion Accessories",
    "phone": "(407) 344-2392",
    "address": "2657 W Osceola Pkwy  Kissimmee, FL 34741",
    "location": "Gilchrist"
  },
  {
    "name": "Foot Locker",
    "description": "Shoe Stores",
    "phone": "(407) 933-8994",
    "address": "3831 W Vine St Ste 17  Kissimmee, FL 34741",
    "location": "Gilchrist"
  },
  {
    "name": "Comfort-Forever",
    "description": "General Merchandise",
    "phone": "(407) 535-1168",
    "address": "3831 W Vine St  Kissimmee, FL 34741",
    "location": "Gilchrist"
  },
  {
    "name": "Fenix S P Corp",
    "description": "Department Stores",
    "phone": "(407) 548-7829",
    "address": "3831 W Vine St  Kissimmee, FL 34741",
    "location": "Gilchrist"
  },
  {
    "name": "Blessed Boutique By Li",
    "description": "Boutique Items",
    "phone": "(407) 369-0917",
    "address": "3831 W Vine St  Kissimmee, FL 34741",
    "location": "Gilchrist"
  },
  {
    "name": "M & K PRO Shops Inc",
    "description": "Sportswear",
    "phone": "(407) 846-7252",
    "address": "4140 W Vine St  Kissimmee, FL 34741",
    "location": "Gilchrist"
  },
  {
    "name": "Jj General Merchandise",
    "description": "General Merchandise",
    "phone": "(407) 348-5700",
    "address": "2070 E Osceola Pkwy  Kissimmee, FL 34743",
    "location": "Gilchrist"
  },
  {
    "name": "Dollar Zone",
    "description": "Department Stores",
    "phone": "(407) 344-9778",
    "address": "1030 Buenaventura Blvd  Kissimmee, FL 34743",
    "location": "Gilchrist"
  },
  {
    "name": "Dollar One Retail Inc",
    "description": "Department Stores",
    "phone": "(407) 348-5200",
    "address": "2320 Fortune Rd  Kissimmee, FL 34744",
    "location": "Gilchrist"
  },
  {
    "name": "Gregory Askins",
    "description": "Department Stores",
    "phone": "(321) 300-3332",
    "address": "2869 Falling Tree Cir  Orlando, FL 32837",
    "location": "Gilchrist"
  },
  {
    "name": "Wal-Mart Vacations",
    "description": "General Merchandise",
    "phone": "(407) 397-0090",
    "address": "4444 W Vine St  Kissimmee, FL 34746",
    "location": "Gilchrist"
  },
  {
    "name": "Harlem World Ne W York",
    "description": "Sportswear",
    "phone": "(407) 572-8766",
    "address": "2283 Simpson Rd  Kissimmee, FL 34744",
    "location": "Gilchrist"
  },
  {
    "name": "Specialty Products & Svc Inc",
    "description": "Women's Clothing",
    "phone": "(407) 396-3930",
    "address": "4301 W Vine St  Kissimmee, FL 34746",
    "location": "Gilchrist"
  },
  {
    "name": "Laverne Fashions",
    "description": "Women's Clothing",
    "phone": "(407) 396-3933",
    "address": "4301 W Vine St  Kissimmee, FL 34746",
    "location": "Gilchrist"
  },
  {
    "name": "Dollar and Services",
    "description": "Variety Stores",
    "phone": "(407) 343-5011",
    "address": "2564 Simpson Rd  Kissimmee, FL 34744",
    "location": "Gilchrist"
  },
  {
    "name": "Madison Crossing",
    "description": "General Merchandise",
    "phone": "(407) 344-2333",
    "address": "2299 E Irlo Bronson Memorial Hwy  Kissimmee, FL 34744",
    "location": "Gilchrist"
  },
  {
    "name": "A Wedding Specialist of Kissimmee",
    "description": "Women's Clothing",
    "phone": "(407) 390-7388",
    "address": "1016 Plaza Dr  Kissimmee, FL 34743",
    "location": "Gilchrist"
  },
  {
    "name": "Safina Sportswear Inc",
    "description": "Sportswear",
    "phone": "(407) 518-9285",
    "address": "1014 American Way  Kissimmee, FL 34741",
    "location": "Gilchrist"
  },
  {
    "name": "Rainbow Apparel Co",
    "description": "Women's Clothing",
    "phone": "(407) 396-0047",
    "address": "4461 W Vine St  Kissimmee, FL 34746",
    "location": "Gilchrist"
  },
  {
    "name": "Great Orlando Discounts",
    "description": "Department Stores",
    "phone": "(407) 396-4000",
    "address": "4499 W Vine St  Kissimmee, FL 34746",
    "location": "Gilchrist"
  },
  {
    "name": "BonWorth",
    "description": "Women's Clothing",
    "phone": "(407) 397-0744",
    "address": "2537 Old Vineland Rd  Kissimmee, FL 34746",
    "location": "Gilchrist"
  },
  {
    "name": "Target",
    "description": "General Merchandise",
    "phone": "(407) 251-5133",
    "address": "2155 W Town Center Blvd  Orlando, FL 32837",
    "location": "Gilchrist"
  },
  {
    "name": "Aire Gypsy Women's Clothing Boutique Orlando Florida",
    "description": "Women's Clothing",
    "phone": "(863) 258-7511",
    "address": "13526 Village Park Dr  Orlando, FL 32837",
    "location": "Gilchrist"
  },
  {
    "name": "Bosswag",
    "description": "Women's Clothing",
    "phone": "(321) 297-1975",
    "address": "13609 Bayview Isle Dr  Orlando, FL 32824",
    "location": "Gilchrist"
  },
  {
    "name": "Donato Orlando",
    "description": "Men's Clothing",
    "phone": "(407) 856-7083",
    "address": "12963 S Orange Blossom Trl  Orlando, FL 32837",
    "location": "Gilchrist"
  },
  {
    "name": "Bon Worth",
    "description": "Women's Clothing",
    "phone": "(407) 518-1565",
    "address": "3339 S Orange Blossom Trl  Kissimmee, FL 34746",
    "location": "Gilchrist"
  },
  {
    "name": "Rack Room Shoes",
    "description": "Shoe Stores",
    "phone": "(407) 397-7682",
    "address": "4677 W Irlo Bronson Memorial Hwy  Kissimmee, FL 34746",
    "location": "Gilchrist"
  },
  {
    "name": "Lane Bryant",
    "description": "Women's Clothing",
    "phone": "(321) 677-3118",
    "address": "4797 W Irlo Bronson Memorial Hwy  Kissimmee, FL 34746",
    "location": "Gilchrist"
  },
  {
    "name": "123 Dollar Store",
    "description": "Variety Stores",
    "phone": "(407) 507-1546",
    "address": "2905 Vineland Rd  Kissimmee, FL 34746",
    "location": "Gilchrist"
  },
  {
    "name": "Ana Equity",
    "description": "Department Stores",
    "phone": "(386) 956-1516",
    "address": "2935 Vineland Rd  Kissimmee, FL 34746",
    "location": "Gilchrist"
  },
  {
    "name": "Motherhood Maternity",
    "description": "Maternity Clothes",
    "phone": "(407) 465-1757",
    "address": "3080 Vineland Rd  Kissimmee, FL 34746",
    "location": "Gilchrist"
  },
  {
    "name": "Lamourella",
    "description": "Women's Clothing",
    "phone": "(407) 201-4098",
    "address": "2751 Granada Blvd  Kissimmee, FL 34746",
    "location": "Gilchrist"
  },
  {
    "name": "Dream Girl",
    "description": "Women's Clothing",
    "phone": "(407) 396-9595",
    "address": "5403 W Irlo Bronson Memorial Hwy  Kissimmee, FL 34746",
    "location": "Gilchrist"
  },
  {
    "name": "Sanjana Stephen Ladies Garments",
    "description": "Women's Clothing",
    "phone": "(407) 396-8630",
    "address": "5403 W Irlo Bronson Memorial Hwy  Kissimmee, FL 34746",
    "location": "Gilchrist"
  },
  {
    "name": "Skechers",
    "description": "Shoe Stores",
    "phone": "(407) 851-0517",
    "address": "2006 Crosston Cir  Orlando, FL 32824",
    "location": "Gilchrist"
  },
  {
    "name": "Orlando Dollar",
    "description": "Department Stores",
    "phone": "(407) 850-2288",
    "address": "11312 S Orange Blossom Trl  Orlando, FL 32837",
    "location": "Gilchrist"
  },
  {
    "name": "Ann Taylor",
    "description": "Women's Clothing",
    "phone": "(407) 238-4413",
    "address": "15831 State Road 535  Orlando, FL 32821",
    "location": "Gilchrist"
  },
  {
    "name": "Nine West Outlet",
    "description": "Shoe Stores",
    "phone": "(407) 239-7556",
    "address": "15753 State Road 535  Orlando, FL 32821",
    "location": "Gilchrist"
  },
  {
    "name": "Fashion World Fl",
    "description": "Women's Clothing",
    "phone": "(407) 239-0600",
    "address": "15745 State Road 535  Orlando, FL 32821",
    "location": "Gilchrist"
  },
  {
    "name": "Crocs",
    "description": "Shoe Stores",
    "phone": "(407) 465-1525",
    "address": "15715 State Road 535  Orlando, FL 32821",
    "location": "Gilchrist"
  },
  {
    "name": "Under Armour",
    "description": "Sportswear",
    "phone": "(407) 238-2025",
    "address": "15657 State Road 535  Orlando, FL 32821",
    "location": "Gilchrist"
  },
  {
    "name": "Character Outlet",
    "description": "Department Stores",
    "phone": "(407) 239-3690",
    "address": "15629 State Road 535  Orlando, FL 32821",
    "location": "Gilchrist"
  },
  {
    "name": "Sarai Lingerie Inc",
    "description": "Lingerie",
    "phone": "(407) 238-4404",
    "address": "15525 State Road 535  Orlando, FL 32821",
    "location": "Gilchrist"
  },
  {
    "name": "Athletic Action",
    "description": "Sportswear",
    "phone": "(407) 465-0337",
    "address": "15577 State Road 535  Orlando, FL 32821",
    "location": "Gilchrist"
  },
  {
    "name": "Bonworth",
    "description": "Women's Clothing",
    "phone": "(407) 778-1453",
    "address": "15563 State Road 535  Orlando, FL 32821",
    "location": "Gilchrist"
  },
  {
    "name": "Dollar Cloud",
    "description": "General Merchandise",
    "phone": "(407) 593-2296",
    "address": "321 Commerce Center Dr  Saint Cloud, FL 34769",
    "location": "Gilchrist"
  },
  {
    "name": "199 Outlet",
    "description": "Department Stores",
    "phone": "(407) 397-2112",
    "address": "5499 W Irlo Bronson Memorial Hwy  Kissimmee, FL 34746",
    "location": "Gilchrist"
  },
  {
    "name": "As Seen on TV",
    "description": "General Merchandise",
    "phone": "(407) 787-3789",
    "address": "5570 W Irlo Bronson Memorial Hwy  Kissimmee, FL 34746",
    "location": "Gilchrist"
  },
  {
    "name": "Wardrobe Seven",
    "description": "Women's Clothing",
    "phone": "(407) 397-4131",
    "address": "5770 W Irlo Bronson Memorial Hwy Ste 215  Kissimmee, FL 34746",
    "location": "Gilchrist"
  },
  {
    "name": "Iw Merchandise",
    "description": "Merchandising Service",
    "phone": "(407) 239-7152",
    "address": "5770 W Irlo Bronson Memorial Hwy  Kissimmee, FL 34746",
    "location": "Gilchrist"
  },
  {
    "name": "Vivla Investment Co",
    "description": "Department Stores",
    "phone": "(407) 822-9351",
    "address": "2900 Parkway Blvd  Kissimmee, FL 34747",
    "location": "Gilchrist"
  },
  {
    "name": "Casa Di Bella Bridal Btq",
    "description": "Women's Clothing",
    "phone": "(407) 566-9198",
    "address": "613 Celebration Ave  Kissimmee, FL 34747",
    "location": "Gilchrist"
  },
  {
    "name": "Vans",
    "description": "Shoe Stores",
    "phone": "(407) 465-0424",
    "address": "8200 Vineland Ave Ste 1743  Orlando, FL 32821",
    "location": "Gilchrist"
  },
  {
    "name": "American Hero Gear",
    "description": "Men's Clothing",
    "phone": "(407) 401-6067",
    "address": "5475 Neptune Rd  saint cloud, FL 34769",
    "location": "Gilchrist"
  },
  {
    "name": "Saks Fifth Avenue",
    "description": "Department Stores",
    "phone": "(321) 354-6998",
    "address": "4012 Central Florida Pkwy  Orlando, FL 32837",
    "location": "Gilchrist"
  },
  {
    "name": "Mimi's Boutique",
    "description": "Swimwear & Accessories",
    "phone": "(407) 393-4023",
    "address": "4040 Central Florida Pkwy  Orlando, FL 32837",
    "location": "Gilchrist"
  },
  {
    "name": "Lelui Jeans",
    "description": "Department Stores",
    "phone": "(407) 477-8617",
    "address": "11237 Purple Plum Ct  Orlando, FL 32821",
    "location": "Gilchrist"
  },
  {
    "name": "Rock Em Apparel",
    "description": "Sportswear",
    "phone": "(407) 730-7931",
    "address": "9561 Satellite Blvd  Orlando, FL 32837",
    "location": "Gilchrist"
  },
  {
    "name": "Cooper and Brass",
    "description": "Aluminum Products",
    "phone": "(407) 826-4217",
    "address": "2487 Tradeport Dr Ste 100  Orlando, FL 32824",
    "location": "Gilchrist"
  },
  {
    "name": "Tennis Plaza",
    "description": "Tennis Equipment & Supplies",
    "phone": "(407) 778-4864",
    "address": "13401 Blue Heron Beach Dr Ste 101  Orlando, FL 32821",
    "location": "Gilchrist"
  },
  {
    "name": "Columbia Sportswear",
    "description": "Sportswear",
    "phone": "(407) 238-0631",
    "address": "8166 Vineland Ave Ste 1765  Orlando, FL 32821",
    "location": "Gilchrist"
  },
  {
    "name": "Motherhood Maternity Outlet",
    "description": "Maternity Clothes",
    "phone": "(407) 238-5481",
    "address": "8166 Vineland Ave  Orlando, FL 32821",
    "location": "Gilchrist"
  },
  {
    "name": "Lululemon",
    "description": "Sportswear",
    "phone": "(407) 238-1076",
    "address": "8174 Vineland Ave Ste 1509  Orlando, FL 32821",
    "location": "Gilchrist"
  },
  {
    "name": "ASICS Outlet",
    "description": "Shoe Stores",
    "phone": "(407) 238-0645",
    "address": "8174 Vineland Ave  Orlando, FL 32821",
    "location": "Gilchrist"
  },
  {
    "name": "Maidenform",
    "description": "Lingerie",
    "phone": "(407) 238-2744",
    "address": "8200 Vineland Ave  Orlando, FL 32821",
    "location": "Gilchrist"
  },
  {
    "name": "Kate Spade Outlet",
    "description": "Women's Clothing",
    "phone": "(407) 238-1690",
    "address": "8200 Vineland Ave Ste 326  Orlando, FL 32821",
    "location": "Gilchrist"
  },
  {
    "name": "Michael Kors Outlet",
    "description": "Women's Clothing",
    "phone": "(407) 238-9641",
    "address": "8200 Vineland Ave Ste 900  Orlando, FL 32821",
    "location": "Gilchrist"
  },
  {
    "name": "Adidas Outlet Store",
    "description": "Outlet Stores",
    "phone": "(407) 239-2836",
    "address": "8200 Vineland Ave  Orlando, FL 32821",
    "location": "Gilchrist"
  },
  {
    "name": "BCBGMAXAZRIA",
    "description": "Women's Clothing",
    "phone": "(407) 239-9322",
    "address": "8200 Vineland Ave Ste 115  Orlando, FL 32821",
    "location": "Gilchrist"
  },
  {
    "name": "Talbots",
    "description": "Women's Clothing",
    "phone": "(407) 238-2057",
    "address": "8200 Vineland Ave  Orlando, FL 32821",
    "location": "Gilchrist"
  },
  {
    "name": "SKECHERS Factory Outlet",
    "description": "Shoe Stores",
    "phone": "(407) 477-0029",
    "address": "8200 Vineland Ave Ste 1229  Orlando, FL 32821",
    "location": "Gilchrist"
  },
  {
    "name": "Carolina Herrera",
    "description": "Women's Clothing",
    "phone": "(407) 465-5524",
    "address": "8200 Vineland Ave  Orlando, FL 32821",
    "location": "Gilchrist"
  },
  {
    "name": "Johnston & Murphy",
    "description": "Shoe Stores",
    "phone": "(407) 239-8099",
    "address": "8200 Vineland Ave  Orlando, FL 32821",
    "location": "Gilchrist"
  },
  {
    "name": "Cucinelli Retail Orl",
    "description": "General Merchandise",
    "phone": "(407) 465-1200",
    "address": "8200 Vineland Ave  Orlando, FL 32821",
    "location": "Gilchrist"
  },
  {
    "name": "bebe",
    "description": "Women's Clothing",
    "phone": "(407) 239-3400",
    "address": "8200 Vineland Ave Ste 1225  Orlando, FL 32821",
    "location": "Gilchrist"
  },
  {
    "name": "The PUMA Store",
    "description": "Shoe Stores",
    "phone": "(407) 239-6211",
    "address": "8200 Vineland Ave  Orlando, FL 32821",
    "location": "Gilchrist"
  },
  {
    "name": "Smart Department Store",
    "description": "Department Stores",
    "phone": "(407) 239-4100",
    "address": "12236 S Apopka Vineland Rd  Orlando, FL 32836",
    "location": "Gilchrist"
  },
  {
    "name": "Bliss Ology",
    "description": "Women's Clothing",
    "phone": "(407) 498-0583",
    "address": "1014 New York Ave  Saint Cloud, FL 34769",
    "location": "Gilchrist"
  },
  {
    "name": "Cool",
    "description": "Women's Clothing",
    "phone": "(407) 496-0425",
    "address": "1032 New York Ave  Saint Cloud, FL 34769",
    "location": "Gilchrist"
  },
  {
    "name": "Anthropologie",
    "description": "Women's Clothing",
    "phone": "(407) 828-2820",
    "address": "1668 E Buena Vista Dr  Lake Buena Vista, FL 32830",
    "location": "Gilchrist"
  },
  {
    "name": "Francesca's",
    "description": "Women's Clothing",
    "phone": "(407) 956-6257",
    "address": "1668 E Buena Vista Dr # 1P  Lake Buena Vista, FL 32830",
    "location": "Gilchrist"
  },
  {
    "name": "Fabletics",
    "description": "Sportswear",
    "phone": "(689) 206-9347",
    "address": "1668 E Buena Vista Dr  Lake Buena Vista, FL 32830",
    "location": "Gilchrist"
  },
  {
    "name": "Millennium Team Sports",
    "description": "T-Shirts",
    "phone": "(407) 362-7945",
    "address": "9187 Boggy Creek Rd  Orlando, FL 32824",
    "location": "Gilchrist"
  },
  {
    "name": "Shoe Land",
    "description": "Shoe Stores",
    "phone": "(407) 251-1717",
    "address": "8506 S Orange Blossom Trl  Orlando, FL 32809",
    "location": "Gilchrist"
  },
  {
    "name": "Volcom",
    "description": "Sportswear",
    "phone": "(407) 560-8239",
    "address": "1536 E Buena Vista Dr  Orlando, FL 32830",
    "location": "Gilchrist"
  },
  {
    "name": "Kate Spade",
    "description": "Women's Clothing",
    "phone": "(407) 560-0148",
    "address": "1520 E Buena Vista Dr Spc B06S-101  Lake Buena Vista, FL 32830",
    "location": "Gilchrist"
  },
  {
    "name": "The Friendly Dollar",
    "description": "Women's Clothing",
    "phone": "(407) 917-3056",
    "address": "8421 S Orange Blossom Trl Ste 250  Orlando, FL 32809",
    "location": "Gilchrist"
  },
  {
    "name": "Body Central",
    "description": "Women's Clothing",
    "phone": "(407) 857-1749",
    "address": "8001 S Orange Blossom Trl  Orlando, FL 32809",
    "location": "Gilchrist"
  },
  {
    "name": "My French Wardrobe",
    "description": "Lingerie",
    "phone": "(407) 580-1548",
    "address": "6220 S Orange Blossom Trl  Orlando, FL 32809",
    "location": "Gilchrist"
  },
  {
    "name": "Village Mercantile",
    "description": "Sportswear",
    "phone": "(407) 566-0744",
    "address": "605 Market St Ste 140  Kissimmee, FL 34747",
    "location": "Gilchrist"
  },
  {
    "name": "M Fashion Inc",
    "description": "Women's Clothing",
    "phone": "(407) 566-1101",
    "address": "606 Market St  Kissimmee, FL 34747",
    "location": "Gilchrist"
  },
  {
    "name": "Tennis Plaza (Orlando)",
    "description": "Tennis Equipment & Supplies",
    "phone": "(407) 288-8088",
    "address": "5540 International Dr  Orlando, FL 32819",
    "location": "Gilchrist"
  },
  {
    "name": "Walmart Garden Center",
    "description": "General Merchandise",
    "phone": "(407) 556-0995",
    "address": "2125 Nolte Rd  Saint Cloud, FL 34772",
    "location": "Gilchrist"
  },
  {
    "name": "Burlington Stores",
    "description": "Department Stores",
    "phone": "(407) 857-0980",
    "address": "8204 S Orange Blossom Trl  Orlando, FL 32809",
    "location": "Gilchrist"
  },
  {
    "name": "Titania Golf",
    "description": "Women's Clothing",
    "phone": "(407) 903-9701",
    "address": "8810 Commodity Cir Ste 14  Orlando, FL 32819",
    "location": "Gilchrist"
  },
  {
    "name": "Player Athletics Office",
    "description": "Sportswear",
    "phone": "(407) 866-1168",
    "address": "8810 Commodity Cir  Orlando, FL 32819",
    "location": "Gilchrist"
  },
  {
    "name": "Gucci",
    "description": "Women's Clothing",
    "phone": "(407) 851-9236",
    "address": "8011 S Orange Blossom Trl  Orlando, FL 32809",
    "location": "Gilchrist"
  },
  {
    "name": "Dillard's",
    "description": "Department Stores",
    "phone": "(407) 240-1771",
    "address": "8001 S Orange Blossom Trl Ste 400  Orlando, FL 32809",
    "location": "Gilchrist"
  },
  {
    "name": "Aerie",
    "description": "Women's Clothing",
    "phone": "(407) 241-1173",
    "address": "8001 S Orange Blossom Trl Ste 878  Orlando, FL 32809",
    "location": "Gilchrist"
  },
  {
    "name": "Champs Sports",
    "description": "Sportswear",
    "phone": "(407) 240-3715",
    "address": "8001 S Orange Blossom Trl  Orlando, FL 32809",
    "location": "Gilchrist"
  },
  {
    "name": "Victoria's Secret",
    "description": "Lingerie",
    "phone": "(407) 825-9050",
    "address": "8001 S Orange Blossom Trl  Orlando, FL 32809",
    "location": "Gilchrist"
  },
  {
    "name": "Pink",
    "description": "Women's Clothing",
    "phone": "(407) 825-9050",
    "address": "8001 S Orange Blossom Trl  Orlando, FL 32809",
    "location": "Gilchrist"
  },
  {
    "name": "Michael Kors",
    "description": "Women's Clothing",
    "phone": "(407) 852-0280",
    "address": "8001 S Orange Blossom Trl Ste 338A  Orlando, FL 32809",
    "location": "Gilchrist"
  },
  {
    "name": "Dick's Sporting Goods",
    "description": "Sporting Goods",
    "phone": "(321) 445-4286",
    "address": "8001 S Orange Blossom Trl Ste 1302  Orlando, FL 32809",
    "location": "Gilchrist"
  },
  {
    "name": "Ultimate Sports Fan Inc",
    "description": "Sporting Goods",
    "phone": "(407) 851-6386",
    "address": "8001 S Orange Blossom Trl Ste 840  Orlando, FL 32809",
    "location": "Gilchrist"
  },
  {
    "name": "ProPrint247(X-PressYourself)",
    "description": "Uniforms",
    "phone": "(407) 409-0516",
    "address": "8001 S Orange Blossom Trl  Orlando, FL 32809",
    "location": "Gilchrist"
  },
  {
    "name": "Zararemote Stock Room",
    "description": "Women's Clothing",
    "phone": "(407) 812-4289",
    "address": "8001 S Orange Blossom Trl Ste 1410  Orlando, FL 32809",
    "location": "Gilchrist"
  },
  {
    "name": "New York, Steps",
    "description": "Women's Clothing",
    "phone": "(407) 888-9141",
    "address": "8001 S Orange Blossom Trl  Orlando, FL 32809",
    "location": "Gilchrist"
  },
  {
    "name": "Group USA",
    "description": "Women's Clothing",
    "phone": "(321) 888-4000",
    "address": "8001 S Orange Blossom Trl  Orlando, FL 32809",
    "location": "Gilchrist"
  },
  {
    "name": "Aphonics",
    "description": "Department Stores",
    "phone": "(321) 247-5020",
    "address": "8001 S Orange Blossom Trl  Orlando, FL 32809",
    "location": "Gilchrist"
  },
  {
    "name": "Pro Image",
    "description": "Sportswear",
    "phone": "(321) 247-5828",
    "address": "8001 S Orange Blossom Trl  Orlando, FL 32809",
    "location": "Gilchrist"
  },
  {
    "name": "Big 5 Sporting Goods",
    "description": "Sporting Goods",
    "phone": "(321) 352-7504",
    "address": "8001 S Orange Blossom Trl  Orlando, FL 32809",
    "location": "Gilchrist"
  },
  {
    "name": "Sportswear Retail",
    "description": "Sportswear",
    "phone": "(407) 240-0610",
    "address": "8001 S Orange Blossom Trl Ste 904  Orlando, FL 32809",
    "location": "Gilchrist"
  },
  {
    "name": "Cato",
    "description": "Women's Clothing",
    "phone": "(407) 370-6720",
    "address": "8267 S John Young Pkwy  Orlando, FL 32819",
    "location": "Gilchrist"
  },
  {
    "name": "Lady Foot Locker",
    "description": "Shoe Stores",
    "phone": "(407) 858-2532",
    "address": "8001 S Orange Blossom Trl Ste 1202A  Orlando, FL 32809",
    "location": "Gilchrist"
  },
  {
    "name": "Ps Imports Fl Inc Dba Beya",
    "description": "Women's Clothing",
    "phone": "(407) 438-5900",
    "address": "8001 S Orange Blossom Trl  Orlando, FL 32809",
    "location": "Gilchrist"
  },
  {
    "name": "Dollar 99",
    "description": "Department Stores",
    "phone": "(407) 826-5268",
    "address": "7657 S Orange Blossom Trl  Orlando, FL 32809",
    "location": "Gilchrist"
  },
  {
    "name": "SKECHERS Retail",
    "description": "Shoe Stores",
    "phone": "(407) 825-3208",
    "address": "9403 Jeff Fuqua Blvd # 8066  Orlando, FL 32827",
    "location": "Gilchrist"
  },
  {
    "name": "Finish Line",
    "description": "Shoe Stores",
    "phone": "(321) 234-1096",
    "address": "9403 Jeff Fuqua Blvd Ste 8027  Orlando, FL 32827",
    "location": "Gilchrist"
  },
  {
    "name": "Rainbow Apparel Company",
    "description": "Women's Clothing",
    "phone": "(407) 852-1497",
    "address": "7633 S Orange Blossom Trl  Orlando, FL 32809",
    "location": "Gilchrist"
  },
  {
    "name": "Reebok Factory Direct Store",
    "description": "Shoe Stores",
    "phone": "(407) 370-3570",
    "address": "8747 International Dr  Orlando, FL 32819",
    "location": "Gilchrist"
  },
  {
    "name": "Apricot Lane Boutique",
    "description": "Boutique Items",
    "phone": "(407) 492-1344",
    "address": "1621 Future Way  Celebration, FL 34747",
    "location": "Gilchrist"
  },
  {
    "name": "Jay Jacobs",
    "description": "Women's Clothing",
    "phone": "(407) 857-5518",
    "address": "8001 S Orange Ave  Orlando, FL 32809",
    "location": "Gilchrist"
  },
  {
    "name": "Nine West",
    "description": "Shoe Stores",
    "phone": "(407) 859-5455",
    "address": "8001 S Orange Ave  Orlando, FL 32809",
    "location": "Gilchrist"
  },
  {
    "name": "Merry-Go-Round",
    "description": "Women's Clothing",
    "phone": "(407) 859-6864",
    "address": "8001 S Orange Ave  Orlando, FL 32809",
    "location": "Gilchrist"
  },
  {
    "name": "Jcpennev Co Inc",
    "description": "Department Stores",
    "phone": "(407) 851-5200",
    "address": "8001 S Orange Ave  Orlando, FL 32809",
    "location": "Gilchrist"
  },
  {
    "name": "West Marine",
    "description": "Boat Equipment & Supplies",
    "phone": "(407) 857-7337",
    "address": "7478 S Orange Blossom Trl Ste A  Orlando, FL 32809",
    "location": "Gilchrist"
  },
  {
    "name": "Sweetheartz USA Inc",
    "description": "Resale Shops",
    "phone": "(407) 888-9112",
    "address": "7478 S Orange Blossom Trl  Orlando, FL 32809",
    "location": "Gilchrist"
  },
  {
    "name": "Mango",
    "description": "Women's Clothing",
    "phone": "(321) 352-7248",
    "address": "1 Jeff Fuqua Blvd  Orlando, FL 32827",
    "location": "Gilchrist"
  },
  {
    "name": "Perfect Shot Pro Shop",
    "description": "Bowling Equipment & Accessories",
    "phone": "(407) 251-0770",
    "address": "7401 S Orange Blossom Trl  Orlando, FL 32809",
    "location": "Gilchrist"
  },
  {
    "name": "Turner Drugs Celebration",
    "description": "Pharmacies",
    "phone": "(407) 566-9060",
    "address": "1530 Celebration Blvd  Celebration, FL 34747",
    "location": "Gilchrist"
  },
  {
    "name": "Golf Galaxy",
    "description": "Exercise & Fitness Equipment",
    "phone": "(407) 248-4990",
    "address": "8055 Turkey Lake Rd  Orlando, FL 32819",
    "location": "Gilchrist"
  },
  {
    "name": "Big Blondes",
    "description": "Department Stores",
    "phone": "(407) 634-0710",
    "address": "7679 International Dr  Orlando, FL 32819",
    "location": "Gilchrist"
  },
  {
    "name": "Westgate Shellworld",
    "description": "Department Stores",
    "phone": "(407) 447-5040",
    "address": "7012 Municipal Dr  Orlando, FL 32819",
    "location": "Gilchrist"
  },
  {
    "name": "Prerana Beauty & Boutique",
    "description": "Boutique Items",
    "phone": "(321) 217-2220",
    "address": "1179 Doss Ave  Orlando, FL 32809",
    "location": "Gilchrist"
  },
  {
    "name": "Allen Brothers Department Store",
    "description": "Department Stores",
    "phone": "(407) 251-2830",
    "address": "6021 S Rio Grande Ave  Orlando, FL 32809",
    "location": "Gilchrist"
  },
  {
    "name": "Special Tee Golf & Tennis",
    "description": "Golf Equipment & Supplies",
    "phone": "(407) 352-3673",
    "address": "5400 International Dr  Orlando, FL 32819",
    "location": "Gilchrist"
  },
  {
    "name": "Dxl Destination Xl Outlet",
    "description": "Men's Clothing",
    "phone": "(407) 363-5570",
    "address": "5443 International Dr  Orlando, FL 32819",
    "location": "Gilchrist"
  },
  {
    "name": "Edwin Watts Golf",
    "description": "Golf Equipment & Supplies",
    "phone": "(407) 352-2535",
    "address": "7024 International Dr  Orlando, FL 32819",
    "location": "Gilchrist"
  },
  {
    "name": "Brands For You",
    "description": "Department Stores",
    "phone": "(407) 351-1027",
    "address": "5627 International Dr  Orlando, FL 32819",
    "location": "Gilchrist"
  },
  {
    "name": "Blue Giraffe Boutique",
    "description": "Women's Clothing",
    "phone": "(407) 421-0358",
    "address": "3007 Nela Ave  Belle Isle, FL 32809",
    "location": "Gilchrist"
  },
  {
    "name": "Lucky Me Stores",
    "description": "Women's Clothing",
    "phone": "(407) 250-5474",
    "address": "5295 International Dr  Orlando, FL 32819",
    "location": "Gilchrist"
  },
  {
    "name": "Annettes Discounts",
    "description": "Discount Stores",
    "phone": "(407) 438-6711",
    "address": "5850 S Orange Blossom Trl  Orlando, FL 32839",
    "location": "Gilchrist"
  },
  {
    "name": "HomeSense Store #2008 Orlando FL",
    "description": "Department Stores",
    "phone": "(407) 363-0654",
    "address": "7600 Dr Phillips Blvd  Orlando, FL 32819",
    "location": "Gilchrist"
  },
  {
    "name": "Dresses For Less",
    "description": "Women's Clothing",
    "phone": "(407) 281-8808",
    "address": "7621 S Orange Blossom Trl  Orlando, FL 32809",
    "location": "Gilchrist"
  },
  {
    "name": "Preferred Endeavors 2",
    "description": "Department Stores",
    "phone": "(321) 401-1120",
    "address": "7550 W Irlo Bronson Memorial Hwy  Kissimmee, FL 34747",
    "location": "Gilchrist"
  },
  {
    "name": "Orlando Gifts Sportwear",
    "description": "Sportswear",
    "phone": "(407) 201-3001",
    "address": "7620 W Irlo Bronson Memorial Hwy  Kissimmee, FL 34747",
    "location": "Gilchrist"
  },
  {
    "name": "Exquisitstylz & Accessories",
    "description": "Women's Fashion Accessories",
    "phone": "(407) 787-3599",
    "address": "8546 W Irlo Bronson Memorial Hwy  Kissimmee, FL 34747",
    "location": "Gilchrist"
  },
  {
    "name": "Embroidery Solutions",
    "description": "Uniforms",
    "phone": "(407) 438-8188",
    "address": "6457 Hazeltine National Dr Ste 120  Orlando, FL 32822",
    "location": "Gilchrist"
  },
  {
    "name": "Premier Couples Superstore",
    "description": "Women's Clothing",
    "phone": "(407) 857-2050",
    "address": "5009 S Orange Blossom Trl  Orlando, FL 32839",
    "location": "Gilchrist"
  },
  {
    "name": "Wal-Mart",
    "description": "General Merchandise",
    "phone": "(407) 277-0475",
    "address": "3838 S Semoran Blvd  Orlando, FL 32822",
    "location": "Gilchrist"
  },
  {
    "name": "Bloomingdale's",
    "description": "Department Stores",
    "phone": "(407) 264-2400",
    "address": "4152 Conroy Rd  Orlando, FL 32839",
    "location": "Gilchrist"
  },
  {
    "name": "JoS. A. Bank",
    "description": "Men's Clothing",
    "phone": "(407) 226-1484",
    "address": "7940 Via Dellagio Way  Orlando, FL 32819",
    "location": "Gilchrist"
  },
  {
    "name": "Zou Zou Boutique",
    "description": "Boutique Items",
    "phone": "(407) 601-7727",
    "address": "7988 Via Dellagio Way  Orlando, FL 32819",
    "location": "Gilchrist"
  },
  {
    "name": "Star Wars Galactic Outpost",
    "description": "Department Stores",
    "phone": "(407) 939-5277",
    "address": "Buena Vista Drive  Lake Buena Vista, FL 32830",
    "location": "Gilchrist"
  },
  {
    "name": "Stylezzle",
    "description": "Women's Clothing",
    "phone": "(787) 932-2133",
    "address": "7512 Dr Phillips Blvd Ste 50-280  Orlando, FL 32819",
    "location": "Gilchrist"
  },
  {
    "name": "Dockers Store",
    "description": "Department Stores",
    "phone": "(407) 351-0917",
    "address": "4967 International Dr  Orlando, FL 32819",
    "location": "Gilchrist"
  },
  {
    "name": "Victoria's Secret Outlet",
    "description": "Lingerie",
    "phone": "(407) 355-9890",
    "address": "4959 International Dr  Orlando, FL 32819",
    "location": "Gilchrist"
  },
  {
    "name": "Juicy Outlet",
    "description": "Outlet Malls",
    "phone": "(407) 355-7225",
    "address": "4959 International Dr  Orlando, FL 32819",
    "location": "Gilchrist"
  },
  {
    "name": "Max Studio",
    "description": "Women's Clothing",
    "phone": "(407) 355-7893",
    "address": "4955 International Dr  Orlando, FL 32819",
    "location": "Gilchrist"
  },
  {
    "name": "Lane Bryant Outlet - Closed",
    "description": "Shoe Stores",
    "phone": "(321) 354-2076",
    "address": "4953 International Dr  Orlando, FL 32819",
    "location": "Gilchrist"
  },
  {
    "name": "Time Factory Watch Outlet",
    "description": "Outlet Malls",
    "phone": "(407) 248-8215",
    "address": "4953 International Dr  Orlando, FL 32819",
    "location": "Gilchrist"
  },
  {
    "name": "Love Culture",
    "description": "Women's Clothing",
    "phone": "(407) 345-0651",
    "address": "4951 International Dr  Orlando, FL 32819",
    "location": "Gilchrist"
  },
  {
    "name": "Reebok",
    "description": "Shoe Stores",
    "phone": "(407) 214-9240",
    "address": "4951 International Dr Ste 3A-31  Orlando, FL 32819",
    "location": "Gilchrist"
  },
  {
    "name": "Neiman Marcus",
    "description": "Department Stores",
    "phone": "(407) 264-2988",
    "address": "4949 International Dr  Orlando, FL 32819",
    "location": "Gilchrist"
  },
  {
    "name": "Ecko Unlimited",
    "description": "Men's Clothing",
    "phone": "(407) 354-4407",
    "address": "4949 International Dr  Orlando, FL 32819",
    "location": "Gilchrist"
  },
  {
    "name": "Steps New York",
    "description": "Department Stores",
    "phone": "(407) 888-9141",
    "address": "4949 International Dr  Orlando, FL 32819",
    "location": "Gilchrist"
  },
  {
    "name": "Adidas AG",
    "description": "Sportswear",
    "phone": "(407) 351-5750",
    "address": "4950 International Dr  Orlando, FL 32819",
    "location": "Gilchrist"
  },
  {
    "name": "Simply Fashion",
    "description": "Women's Clothing",
    "phone": "(407) 854-8336",
    "address": "2141 Americana Blvd  Orlando, FL 32839",
    "location": "Gilchrist"
  },
  {
    "name": "Parties Are US",
    "description": "Discount Stores",
    "phone": "(407) 601-7732",
    "address": "5151 S Orange Ave  Orlando, FL 32809",
    "location": "Gilchrist"
  },
  {
    "name": "Dollar Mart",
    "description": "Variety Stores",
    "phone": "(407) 240-0797",
    "address": "5233 S John Young Pkwy  Orlando, FL 32839",
    "location": "Gilchrist"
  },
  {
    "name": "Bain, Richard N",
    "description": "Department Stores",
    "phone": "(407) 660-4449",
    "address": "8998 Crichton Wood Dr  Orlando, FL 32819",
    "location": "Gilchrist"
  },
  {
    "name": "Lavina Marketplace",
    "description": "Department Stores",
    "phone": "(407) 658-6734",
    "address": "9161 Narcoossee Rd  Orlando, FL 32827",
    "location": "Gilchrist"
  },
  {
    "name": "Luxury Kouture Boutique",
    "description": "Women's Clothing",
    "phone": "(888) 447-2532",
    "address": "4700 Millenia Blvd Ste 175  Orlando, FL 32839",
    "location": "Gilchrist"
  },
  {
    "name": "Ermenegildo Zegna at Neiman Marcus",
    "description": "Men's Clothing",
    "phone": "(407) 264-5900",
    "address": "4170 Conroy Rd  Orlando, FL 32839",
    "location": "Gilchrist"
  },
  {
    "name": "Kate Spade - Closed",
    "description": "Women's Clothing",
    "phone": "(407) 363-4805",
    "address": "4200 Conroy Rd Spc B172  Orlando, FL 32839",
    "location": "Gilchrist"
  },
  {
    "name": "Hermes",
    "description": "Department Stores",
    "phone": "(407) 248-8548",
    "address": "4200 Conroy Rd  Orlando, FL 32839",
    "location": "Gilchrist"
  },
  {
    "name": "Marciano",
    "description": "Women's Clothing",
    "phone": "(407) 226-0213",
    "address": "4200 Conroy Rd  Orlando, FL 32839",
    "location": "Gilchrist"
  },
  {
    "name": "Juicy Couture",
    "description": "Women's Clothing",
    "phone": "(407) 354-0228",
    "address": "4200 Conroy Rd  Orlando, FL 32839",
    "location": "Gilchrist"
  },
  {
    "name": "Allen Edmonds",
    "description": "Shoe Stores",
    "phone": "(407) 845-6379",
    "address": "4200 Conroy Rd Ste 299  Orlando, FL 32839",
    "location": "Gilchrist"
  },
  {
    "name": "Dieguez, Iris",
    "description": "General Merchandise",
    "phone": "(321) 247-5900",
    "address": "4200 Conroy Rd  Orlando, FL 32839",
    "location": "Gilchrist"
  },
  {
    "name": "Gucci America",
    "description": "Women's Clothing",
    "phone": "(407) 903-1056",
    "address": "4200 Conroy Rd  Orlando, FL 32839",
    "location": "Gilchrist"
  },
  {
    "name": "Mr barberspa",
    "description": "Day Spas",
    "phone": "(321) 695-0117",
    "address": "5907 Turkey Lake Rd Ste 112  Orlando, FL 32819",
    "location": "Gilchrist"
  },
  {
    "name": "360 Nutrition",
    "description": "Sportswear",
    "phone": "(321) 304-9612",
    "address": "4429 Hoffner Ave  Orlando, FL 32812",
    "location": "Gilchrist"
  },
  {
    "name": "Masquerade Express",
    "description": "Costumes",
    "phone": "(888) 869-8332",
    "address": "5401 S Kirkman Rd Ste 301  Orlando, FL 32819",
    "location": "Gilchrist"
  },
  {
    "name": "FetishShoetique",
    "description": "Shoe Stores",
    "phone": "(407) 413-9578",
    "address": "4893 S Orange Ave  Orlando, FL 32806",
    "location": "Gilchrist"
  },
  {
    "name": "Dollar Store",
    "description": "Variety Stores",
    "phone": "(407) 969-0358",
    "address": "4716 S Orange Blossom Trl  Orlando, FL 32839",
    "location": "Gilchrist"
  },
  {
    "name": "Narcoossee Store",
    "description": "General Merchandise",
    "phone": "(407) 273-0012",
    "address": "8101 Narcoossee Rd  Orlando, FL 32822",
    "location": "Gilchrist"
  },
  {
    "name": "Dollar Plus USA Inc",
    "description": "Variety Stores",
    "phone": "(407) 857-2676",
    "address": "4628 S Orange Blossom Trl  Orlando, FL 32839",
    "location": "Gilchrist"
  },
  {
    "name": "DTLR",
    "description": "Shoe Stores",
    "phone": "(407) 859-3146",
    "address": "4614 S Orange Blossom Trl  Orlando, FL 32839",
    "location": "Gilchrist"
  },
  {
    "name": "Soccer Shop US",
    "description": "Sportswear",
    "phone": "(321) 280-6673",
    "address": "8946 Leeland Archer Blvd  Orlando, FL 32836",
    "location": "Gilchrist"
  },
  {
    "name": "Butterfly Kisses",
    "description": "Baby Accessories, Furnishings & Services",
    "phone": "(407) 666-8715",
    "address": "4002 Bounce Dr  Orlando, FL 32812",
    "location": "Gilchrist"
  },
  {
    "name": "Perfect Shot Inc",
    "description": "Bowling Equipment & Accessories",
    "phone": "(407) 203-5094",
    "address": "7470 Hoffner Ave  Orlando, FL 32822",
    "location": "Gilchrist"
  },
  {
    "name": "Em Apparel Rock",
    "description": "Sportswear",
    "phone": "(407) 730-7931",
    "address": "4490 SW 34th St  Orlando, FL 32811",
    "location": "Gilchrist"
  },
  {
    "name": "Yenne Exchange",
    "description": "Closets & Accessories",
    "phone": "(704) 699-7174",
    "address": "4301 Lizshire Ln  Orlando, FL 32822",
    "location": "Gilchrist"
  },
  {
    "name": "Fleet Feet Sports",
    "description": "Shoe Stores",
    "phone": "(407) 930-6056",
    "address": "25 W Crystal Lake St  Orlando, FL 32806",
    "location": "Gilchrist"
  },
  {
    "name": "Value Dollar UP",
    "description": "Variety Stores",
    "phone": "(407) 380-9630",
    "address": "3910 S Semoran Blvd  Orlando, FL 32822",
    "location": "Gilchrist"
  },
  {
    "name": "Krafty Inspirations",
    "description": "T-Shirts",
    "phone": "(407) 259-9810",
    "address": "PO Box 837  Windermere, FL 34786",
    "location": "Gilchrist"
  },
  {
    "name": "One Two Three Dollar Store",
    "description": "Variety Stores",
    "phone": "(407) 203-6768",
    "address": "4602 E Michigan St  Orlando, FL 32812",
    "location": "Gilchrist"
  },
  {
    "name": "Naked Turtle Sunscreen & Apparel",
    "description": "Women's Clothing",
    "phone": "(407) 299-7333",
    "address": "7652 Ashley Park Ct Ste 305  Orlando, FL 32835",
    "location": "Gilchrist"
  },
  {
    "name": "Corcoran Betsey",
    "description": "Women's Clothing",
    "phone": "(407) 217-5867",
    "address": "12982 Kegan St  Windermere, FL 34786",
    "location": "Gilchrist"
  },
  {
    "name": "Cuffllinks Depot",
    "description": "Department Stores",
    "phone": "(407) 253-7075",
    "address": "6996 Piazza Grande Ave  Orlando, FL 32835",
    "location": "Gilchrist"
  },
  {
    "name": "Ipanema Girl USA",
    "description": "Women's Clothing",
    "phone": "(407) 989-0457",
    "address": "6965 Piazza Grande Ave Ste 212  Orlando, FL 32835",
    "location": "Gilchrist"
  },
  {
    "name": "Tres Chic Designer Boutique",
    "description": "Women's Clothing",
    "phone": "(407) 876-9062",
    "address": "503 Main St  Windermere, FL 34786",
    "location": "Gilchrist"
  },
  {
    "name": "Intelaweb",
    "description": "Discount Stores",
    "phone": "(407) 203-6768",
    "address": "2238 Kettle Dr  Orlando, FL 32835",
    "location": "Gilchrist"
  },
  {
    "name": "Amy's Walk-in Closet Shop",
    "description": "Consignment Service",
    "phone": "(407) 282-4291",
    "address": "2751 S Chickasaw Trl Ste 104  Orlando, FL 32829",
    "location": "Gilchrist"
  },
  {
    "name": "ASA Moda Corp",
    "description": "Women's Clothing",
    "phone": "(407) 413-5743",
    "address": "2176 S Chickasaw Trl  Orlando, FL 32825",
    "location": "Gilchrist"
  },
  {
    "name": "Sunbelt Elc",
    "description": "Department Stores",
    "phone": "(407) 654-0960",
    "address": "6213 Andreozzi Ln  Windermere, FL 34786",
    "location": "Gilchrist"
  },
  {
    "name": "Belk",
    "description": "Department Stores",
    "phone": "(863) 420-1984",
    "address": "5500 Grandview Pkwy  Davenport, FL 33837",
    "location": "Gilchrist"
  },
  {
    "name": "DICK'S Sporting Goods",
    "description": "Exercise & Fitness Equipment",
    "phone": "(863) 424-4444",
    "address": "1300 Posner Blvd  Davenport, FL 33837",
    "location": "Gilchrist"
  },
  {
    "name": "Sunshine Emporium",
    "description": "Department Stores",
    "phone": "(863) 547-8376",
    "address": "43338 Highway 27  Davenport, FL 33837",
    "location": "Gilchrist"
  },
  {
    "name": "T & Company Salon",
    "description": "Beauty Salons",
    "phone": "(863) 438-2737",
    "address": "43350 Highway 27  Davenport, FL 33837",
    "location": "Gilchrist"
  },
  {
    "name": "Avant-Guard II Dress & Lingerie Boutique",
    "description": "Lingerie",
    "phone": "(407) 843-1233",
    "address": "3985 S Orange Blossom Trl  Orlando, FL 32839",
    "location": "Gilchrist"
  }
]