[
  {
    "name": "Metal Sky Wear",
    "description": "Clothing Stores",
    "phone": "(941) 780-3908",
    "address": "2114 Bispham Rd  Sarasota, FL 34231",
    "location": "Gulf"
  },
  {
    "name": "Hollister",
    "description": "Clothing Stores",
    "phone": "(941) 925-1452",
    "address": "8201 S Tamiami Trl  Sarasota, FL 34238",
    "location": "Gulf"
  },
  {
    "name": "Buckle",
    "description": "Clothing Stores",
    "phone": "(941) 925-0458",
    "address": "8201 S Tamiami Trl  Sarasota, FL 34238",
    "location": "Gulf"
  },
  {
    "name": "Coconuts of Siesta Key",
    "description": "Clothing Stores",
    "phone": "(941) 346-2954",
    "address": "1215 Old Stickney Point Rd  Sarasota, FL 34242",
    "location": "Gulf"
  },
  {
    "name": "Jalal Fashion Inc",
    "description": "Clothing Stores",
    "phone": "(941) 924-4600",
    "address": "8201 S Tamiami Trl  Sarasota, FL 34238",
    "location": "Gulf"
  },
  {
    "name": "Land's End",
    "description": "Clothing Stores",
    "phone": "(941) 921-8233",
    "address": "8201 S Tamiami Trl  Sarasota, FL 34238",
    "location": "Gulf"
  },
  {
    "name": "Rue 21",
    "description": "Clothing Stores",
    "phone": "(941) 922-0340",
    "address": "8201 S Tamiami Trl  Sarasota, FL 34238",
    "location": "Gulf"
  },
  {
    "name": "Old Navy",
    "description": "Clothing Stores",
    "phone": "(941) 922-7320",
    "address": "8201 S Tamiami Trl  Sarasota, FL 34238",
    "location": "Gulf"
  },
  {
    "name": "H&M (Hennes & Mauritz)",
    "description": "Clothing Stores",
    "phone": "(855) 466-7467",
    "address": "8201 S Tamiami Trl  Sarasota, FL 34238",
    "location": "Gulf"
  },
  {
    "name": "Tommy Hilfiger",
    "description": "Clothing Stores",
    "phone": "(941) 925-5314",
    "address": "8201 S Tamiami Trl  Sarasota, FL 34238",
    "location": "Gulf"
  },
  {
    "name": "Hot Topic",
    "description": "Clothing Stores",
    "phone": "(941) 925-0529",
    "address": "8201 S Tamiami Trl  Sarasota, FL 34238",
    "location": "Gulf"
  },
  {
    "name": "Express",
    "description": "Clothing Stores",
    "phone": "(941) 343-8462",
    "address": "8201 S Tamiami Trl  Sarasota, FL 34238",
    "location": "Gulf"
  },
  {
    "name": "Rocketman Shop",
    "description": "Clothing Stores",
    "phone": "(941) 923-2096",
    "address": "1888 Stickney Point Rd  Sarasota, FL 34231",
    "location": "Gulf"
  },
  {
    "name": "Burlington Coat Factory",
    "description": "Clothing Stores",
    "phone": "(941) 499-3450",
    "address": "8372 S Tamiami Trl  Sarasota, FL 34238",
    "location": "Gulf"
  },
  {
    "name": "Wave Inspired",
    "description": "Clothing Stores",
    "phone": "(941) 554-8720",
    "address": "1514 Stickney Point Rd  Sarasota, FL 34231",
    "location": "Gulf"
  },
  {
    "name": "Clothes Mentor",
    "description": "Clothing Stores",
    "phone": "(941) 210-3897",
    "address": "3442 Clark Rd  Sarasota, FL 34231",
    "location": "Gulf"
  },
  {
    "name": "Apc Fashion Biz Consulting",
    "description": "Clothing Stores",
    "phone": "(941) 313-7166",
    "address": "4283 Express Ln  Sarasota, FL 34249",
    "location": "Gulf"
  },
  {
    "name": "Jules Lerner",
    "description": "Clothing Stores",
    "phone": "(941) 923-7525",
    "address": "3435 Fox Run Rd  Sarasota, FL 34231",
    "location": "Gulf"
  },
  {
    "name": "American Eagle Outfitters",
    "description": "Clothing Stores",
    "phone": "(941) 926-7196",
    "address": "8201 S Tamiami Trl  Sarasota, FL 34238",
    "location": "Gulf"
  },
  {
    "name": "Stein Mart",
    "description": "Clothing Stores",
    "phone": "(941) 927-1337",
    "address": "6535 S Tamiami Trl  Sarasota, FL 34231",
    "location": "Gulf"
  },
  {
    "name": "PacSun",
    "description": "Clothing Stores",
    "phone": "(941) 921-3233",
    "address": "8201 S Tamiami Trl  Sarasota, FL 34238",
    "location": "Gulf"
  },
  {
    "name": "Charlotte Russe",
    "description": "Clothing Stores",
    "phone": "(941) 926-4402",
    "address": "8201 S Tamiami Trl  Sarasota, FL 34238",
    "location": "Gulf"
  },
  {
    "name": "Aeropostale",
    "description": "Clothing Stores",
    "phone": "(941) 921-6901",
    "address": "8201 S Tamiami Trl Unit A2  Sarasota, FL 34238",
    "location": "Gulf"
  },
  {
    "name": "Redneck Outpost",
    "description": "Clothing Stores",
    "phone": "(941) 444-7829",
    "address": "4401 Ashton Rd Unit F  Sarasota, FL 34233",
    "location": "Gulf"
  },
  {
    "name": "Bealls Department Store",
    "description": "Clothing Stores",
    "phone": "(941) 921-4416",
    "address": "5451 Palmer Crossing Cir  Sarasota, FL 34233",
    "location": "Gulf"
  },
  {
    "name": "Closet Divas",
    "description": "Clothing Stores",
    "phone": "(941) 927-7467",
    "address": "3576 Webber St  Sarasota, FL 34239",
    "location": "Gulf"
  },
  {
    "name": "T.J. Maxx",
    "description": "Clothing Stores",
    "phone": "(941) 922-5395",
    "address": "3700 S Tuttle Ave  Sarasota, FL 34239",
    "location": "Gulf"
  },
  {
    "name": "Stitchin' Waves",
    "description": "Clothing Stores",
    "phone": "(941) 929-1155",
    "address": "4433 S Tamiami Trl  Sarasota, FL 34231",
    "location": "Gulf"
  },
  {
    "name": "King James Big and Tall",
    "description": "Clothing Stores",
    "phone": "(941) 922-1873",
    "address": "4333 S Tamiami Trl Ste D  Sarasota, FL 34231",
    "location": "Gulf"
  },
  {
    "name": "Gap",
    "description": "Clothing Stores",
    "phone": "(941) 924-6373",
    "address": "5989 Approach Rd  Sarasota, FL 34238",
    "location": "Gulf"
  },
  {
    "name": "Eddie Bauer",
    "description": "Clothing Stores",
    "phone": "(941) 365-4536",
    "address": "747 Southgate Mall  Sarasota, FL 34239",
    "location": "Gulf"
  },
  {
    "name": "Abercrombie & Fitch",
    "description": "Clothing Stores",
    "phone": "(941) 366-8958",
    "address": "3501 S Tamiami Trl  Sarasota, FL 34239",
    "location": "Gulf"
  },
  {
    "name": "Muse Sarasota",
    "description": "Clothing Stores",
    "phone": "(941) 312-4066",
    "address": "3809 McIntosh Rd  Sarasota, FL 34232",
    "location": "Gulf"
  },
  {
    "name": "Fashion Room",
    "description": "Clothing Stores",
    "phone": "(941) 952-3170",
    "address": "2083 Siesta Dr  Sarasota, FL 34239",
    "location": "Gulf"
  },
  {
    "name": "Casa Smeralda",
    "description": "Clothing Stores",
    "phone": "(941) 388-1305",
    "address": "5121 Ocean Blvd  Sarasota, FL 34242",
    "location": "Gulf"
  },
  {
    "name": "Srq Lady Fashion",
    "description": "Clothing Stores",
    "phone": "(941) 208-8128",
    "address": "PO Box 5942  Sarasota, FL 34277",
    "location": "Gulf"
  },
  {
    "name": "Marley Vibes",
    "description": "Clothing Stores",
    "phone": "(941) 203-5749",
    "address": "5055 Ocean Blvd  Sarasota, FL 34242",
    "location": "Gulf"
  },
  {
    "name": "These Quiet Sounds",
    "description": "Clothing Stores",
    "phone": "(941) 203-5108",
    "address": "3533 Tangier Ter  Sarasota, FL 34239",
    "location": "Gulf"
  },
  {
    "name": "Tom Co",
    "description": "Clothing Stores",
    "phone": "(941) 306-4028",
    "address": "3625 Webber St  Sarasota, FL 34232",
    "location": "Gulf"
  },
  {
    "name": "Susanmmall",
    "description": "Clothing Stores",
    "phone": "(941) 342-1569",
    "address": "5746 Lake Breeze Ct  Sarasota, FL 34233",
    "location": "Gulf"
  },
  {
    "name": "Coastal Clothing Consignments",
    "description": "Clothing Stores",
    "phone": "(941) 218-6153",
    "address": "107 N Tamiami Trl  Osprey, FL 34229",
    "location": "Gulf"
  },
  {
    "name": "Fifis Fine Resale Apparel",
    "description": "Clothing Stores",
    "phone": "(941) 451-8298",
    "address": "11 S Tamiami Trl  Osprey, FL 34229",
    "location": "Gulf"
  },
  {
    "name": "Tommy Bahama",
    "description": "Clothing Stores",
    "phone": "(941) 491-4408",
    "address": "5132 Ocean Blvd  Siesta Key, FL 34242",
    "location": "Gulf"
  },
  {
    "name": "Lularoe Sonya Ivester",
    "description": "Clothing Stores",
    "phone": "(307) 797-0932",
    "address": "536 Bayview Ave  Osprey, FL 34229",
    "location": "Gulf"
  },
  {
    "name": "Eliett's On Palm",
    "description": "Clothing Stores",
    "phone": "(941) 953-2999",
    "address": "45 S Palm Ave  Sarasota, FL 34236",
    "location": "Gulf"
  },
  {
    "name": "Tiara Trading",
    "description": "Clothing Stores",
    "phone": "(941) 365-4554",
    "address": "1620 Main St  Sarasota, FL 34236",
    "location": "Gulf"
  },
  {
    "name": "Stockyard-Feed & Western Wear",
    "description": "Clothing Stores",
    "phone": "(941) 444-1771",
    "address": "1010 Cattlemen Rd  Sarasota, FL 34232",
    "location": "Gulf"
  },
  {
    "name": "On the Trashy Side",
    "description": "Clothing Stores",
    "phone": "(941) 302-7003",
    "address": "3221 Vesper Ave  Sarasota, FL 34232",
    "location": "Gulf"
  },
  {
    "name": "LuLaRoe by Cathy L.",
    "description": "Clothing Stores",
    "phone": "(941) 216-6126",
    "address": "2128 Hyde Park Cir  Sarasota, FL 34239",
    "location": "Gulf"
  },
  {
    "name": "Stitchin' Kitty",
    "description": "Clothing Stores",
    "phone": "(941) 545-8591",
    "address": "2035 Linwood Way  Sarasota, FL 34232",
    "location": "Gulf"
  },
  {
    "name": "Eddy Dick & Jean",
    "description": "Clothing Stores",
    "phone": "(941) 371-2750",
    "address": "5248 Manz Pl  Sarasota, FL 34232",
    "location": "Gulf"
  },
  {
    "name": "Blaklader",
    "description": "Clothing Stores",
    "phone": "(941) 342-4936",
    "address": "6311 Porter Rd  Sarasota, FL 34240",
    "location": "Gulf"
  },
  {
    "name": "Rollo Enterprises",
    "description": "Clothing Stores",
    "phone": "(941) 349-4372",
    "address": "1685 Laurel St  Sarasota, FL 34236",
    "location": "Gulf"
  },
  {
    "name": "Jenn's Personalized Impressions",
    "description": "Clothing Stores",
    "phone": "(941) 915-3896",
    "address": "5207 Indian Mound St  Sarasota, FL 34232",
    "location": "Gulf"
  },
  {
    "name": "La Femme Fatale",
    "description": "Clothing Stores",
    "phone": "(941) 365-5100",
    "address": "80 S Palm Ave  Sarasota, FL 34236",
    "location": "Gulf"
  },
  {
    "name": "Greiners Fine Mens Clothing",
    "description": "Clothing Stores",
    "phone": "(941) 343-2143",
    "address": "45 S Palm Ave  Sarasota, FL 34236",
    "location": "Gulf"
  },
  {
    "name": "Johnson Marketing Group",
    "description": "Clothing Stores",
    "phone": "(941) 955-3200",
    "address": "1727 Hyde Park St  Sarasota, FL 34239",
    "location": "Gulf"
  },
  {
    "name": "Oh My Gauze!",
    "description": "Clothing Stores",
    "phone": "(941) 388-1964",
    "address": "374 Saint Armands Cir  Sarasota, FL 34236",
    "location": "Gulf"
  },
  {
    "name": "Breezin' Up Inc",
    "description": "Clothing Stores",
    "phone": "(941) 388-2950",
    "address": "362 John Ringling Blvd  Sarasota, FL 34236",
    "location": "Gulf"
  },
  {
    "name": "Island Pursuit",
    "description": "Clothing Stores",
    "phone": "(941) 388-2849",
    "address": "400 Madison Dr Ste 206  Sarasota, FL 34236",
    "location": "Gulf"
  },
  {
    "name": "Ivory Coast",
    "description": "Clothing Stores",
    "phone": "(941) 388-1999",
    "address": "15 N Blvd Of The Presidents  Sarasota, FL 34236",
    "location": "Gulf"
  },
  {
    "name": "Go Fish Clothing & Jewelry",
    "description": "Clothing Stores",
    "phone": "(941) 953-5730",
    "address": "1463 Main St  Sarasota, FL 34236",
    "location": "Gulf"
  },
  {
    "name": "The DanceWEAR Shoppe",
    "description": "Clothing Stores",
    "phone": "(941) 312-6312",
    "address": "315 Interstate Blvd  Sarasota, FL 34240",
    "location": "Gulf"
  },
  {
    "name": "McMahon Fur Storage",
    "description": "Clothing Stores",
    "phone": "(941) 371-6041",
    "address": "233 Avant St  Sarasota, FL 34232",
    "location": "Gulf"
  },
  {
    "name": "Sahara",
    "description": "Clothing Stores",
    "phone": "(941) 388-0587",
    "address": "362 Saint Armands Cir  Sarasota, FL 34236",
    "location": "Gulf"
  },
  {
    "name": "Everything But Water",
    "description": "Clothing Stores",
    "phone": "(941) 388-1205",
    "address": "331 John Ringling Blvd  Sarasota, FL 34236",
    "location": "Gulf"
  },
  {
    "name": "Print My T's",
    "description": "Clothing Stores",
    "phone": "(941) 225-9809",
    "address": "2040 Dr Martin Luther King Way  Sarasota, FL 34234",
    "location": "Gulf"
  },
  {
    "name": "Floridafied HD",
    "description": "Clothing Stores",
    "phone": "(941) 961-3471",
    "address": "905 Cattlemen Rd  Sarasota, FL 34232",
    "location": "Gulf"
  },
  {
    "name": "Olivia",
    "description": "Clothing Stores",
    "phone": "(941) 388-1677",
    "address": "9 S Blvd Of Presidents  Sarasota, FL 34236",
    "location": "Gulf"
  },
  {
    "name": "Mercantile",
    "description": "Clothing Stores",
    "phone": "(941) 366-2457",
    "address": "1463 Main St  Sarasota, FL 34236",
    "location": "Gulf"
  },
  {
    "name": "Foxy Lady Siesta Key Inc",
    "description": "Clothing Stores",
    "phone": "(941) 706-4611",
    "address": "14 S Blvd Of The Presidents  Sarasota, FL 34236",
    "location": "Gulf"
  },
  {
    "name": "Tommy Bahama Store",
    "description": "Clothing Stores",
    "phone": "(941) 388-2446",
    "address": "371 Saint Armands Cir  Sarasota, FL 34236",
    "location": "Gulf"
  },
  {
    "name": "Darci",
    "description": "Clothing Stores",
    "phone": "(941) 330-2800",
    "address": "1441 Main St  Sarasota, FL 34236",
    "location": "Gulf"
  },
  {
    "name": "I Tesori",
    "description": "Clothing Stores",
    "phone": "(941) 907-9296",
    "address": "1405 1st St  Sarasota, FL 34236",
    "location": "Gulf"
  },
  {
    "name": "Butterfly Beach",
    "description": "Clothing Stores",
    "phone": "(941) 346-6785",
    "address": "313 John Ringling Blvd  Sarasota, FL 34236",
    "location": "Gulf"
  },
  {
    "name": "Grab Life by the Gills",
    "description": "Clothing Stores",
    "phone": "(941) 378-0957",
    "address": "2041 Misty Sunrise Trl  Sarasota, FL 34240",
    "location": "Gulf"
  },
  {
    "name": "Look at Me Now Urban Wear & Beauty Supply",
    "description": "Clothing Stores",
    "phone": "(941) 312-5989",
    "address": "3251 17th St  Sarasota, FL 34235",
    "location": "Gulf"
  },
  {
    "name": "Fada Fashion",
    "description": "Clothing Stores",
    "phone": "(941) 312-5354",
    "address": "2000 N Washington Blvd Ste B  Sarasota, FL 34234",
    "location": "Gulf"
  },
  {
    "name": "New Beginnings Childrens Consignment LLC.",
    "description": "Clothing Stores",
    "phone": "(941) 377-8187",
    "address": "4952 Fruitville Rd  Sarasota, FL 34232",
    "location": "Gulf"
  },
  {
    "name": "Bold & Beautiful",
    "description": "Clothing Stores",
    "phone": "(941) 365-9109",
    "address": "2063 Fruitville Rd  Sarasota, FL 34237",
    "location": "Gulf"
  },
  {
    "name": "Free People",
    "description": "Clothing Stores",
    "phone": "(941) 893-1175",
    "address": "140 University Town Center Dr Unit 246  Sarasota, FL 34243",
    "location": "Gulf"
  },
  {
    "name": "Queen Custom Creations",
    "description": "Clothing Stores",
    "phone": "(941) 355-4230",
    "address": "1026 Colleton Dr  Sarasota, FL 34234",
    "location": "Gulf"
  },
  {
    "name": "Souzou Design House",
    "description": "Clothing Stores",
    "phone": "(941) 376-3468",
    "address": "5891 Milton Ave  Sarasota, FL 34243",
    "location": "Gulf"
  },
  {
    "name": "David Yurman at Saks Fifth Avenue",
    "description": "Clothing Stores",
    "phone": "(941) 364-5300",
    "address": "120 University Town Center Dr  Sarasota, FL 34243",
    "location": "Gulf"
  },
  {
    "name": "Topaz Design Group",
    "description": "Clothing Stores",
    "phone": "(941) 444-7939",
    "address": "1870 University Pkwy  Sarasota, FL 34243",
    "location": "Gulf"
  },
  {
    "name": "American Eagle & Aerie",
    "description": "Clothing Stores",
    "phone": "(941) 256-0200",
    "address": "140 University Town Center Dr Unit 187  Sarasota, FL 34243",
    "location": "Gulf"
  },
  {
    "name": "Banana Republic",
    "description": "Clothing Stores",
    "phone": "(941) 256-0442",
    "address": "140 University Town Center Dr Unit 283  Sarasota, FL 34243",
    "location": "Gulf"
  },
  {
    "name": "Charlotte Tilbury",
    "description": "Clothing Stores",
    "phone": "(941) 702-9491",
    "address": "140 University Town Center Dr Unit 279  Sarasota, FL 34243",
    "location": "Gulf"
  },
  {
    "name": "Urban Outfitters",
    "description": "Clothing Stores",
    "phone": "(941) 213-1426",
    "address": "140 University Town Center Dr  Sarasota, FL 34243",
    "location": "Gulf"
  },
  {
    "name": "UNTUCKit",
    "description": "Clothing Stores",
    "phone": "(941) 724-8844",
    "address": "140 University Town Center Dr Unit 143  Sarasota, FL 34243",
    "location": "Gulf"
  },
  {
    "name": "J. Crew",
    "description": "Clothing Stores",
    "phone": "(941) 893-3664",
    "address": "140 University Town Center Dr Unit 271  Sarasota, FL 34243",
    "location": "Gulf"
  },
  {
    "name": "Calypso St Barth",
    "description": "Clothing Stores",
    "phone": "(941) 306-1414",
    "address": "140 University Town Center Dr  Sarasota, FL 34243",
    "location": "Gulf"
  },
  {
    "name": "H&M",
    "description": "Clothing Stores",
    "phone": "(941) 893-1148",
    "address": "140 University Town Center Dr  Sarasota, FL 34243",
    "location": "Gulf"
  },
  {
    "name": "Hugo Boss",
    "description": "Clothing Stores",
    "phone": "(941) 536-9000",
    "address": "140 University Town Center Dr Unit 261  Sarasota, FL 34243",
    "location": "Gulf"
  },
  {
    "name": "Vineyard Vines",
    "description": "Clothing Stores",
    "phone": "(941) 926-6085",
    "address": "140 University Town Center Dr  Sarasota, FL 34243",
    "location": "Gulf"
  },
  {
    "name": "WSW Apparel Direct",
    "description": "Clothing Stores",
    "phone": "(941) 488-9327",
    "address": "121 Triple Diamond Blvd  North Venice, FL 34275",
    "location": "Gulf"
  },
  {
    "name": "Wurkin Stiffs",
    "description": "Clothing Stores",
    "phone": "(941) 379-8163",
    "address": "105 Triple Diamond Blvd  North Venice, FL 34275",
    "location": "Gulf"
  },
  {
    "name": "5.11 Tactical",
    "description": "Clothing Stores",
    "phone": "(941) 538-5402",
    "address": "5231 University Pkwy Unit 101  University Park, FL 34201",
    "location": "Gulf"
  },
  {
    "name": "Boden",
    "description": "Clothing Stores",
    "phone": "(941) 907-3458",
    "address": "6290 Lake Osprey Dr  Lakewood Ranch, FL 34240",
    "location": "Gulf"
  },
  {
    "name": "J.Crew Factory",
    "description": "Clothing Stores",
    "phone": "(941) 667-6751",
    "address": "8107 Cooper Creek Blvd  University Park, FL 34201",
    "location": "Gulf"
  },
  {
    "name": "Style",
    "description": "Clothing Stores",
    "phone": "(941) 451-8857",
    "address": "319 W Venice Ave  Venice, FL 34285",
    "location": "Gulf"
  },
  {
    "name": "T.J. Maxx & HomeGoods",
    "description": "Clothing Stores",
    "phone": "(941) 484-6461",
    "address": "450 Us Highway 41 Byp N  Venice, FL 34285",
    "location": "Gulf"
  },
  {
    "name": "TIKI TYME",
    "description": "Clothing Stores",
    "phone": "(941) 416-6505",
    "address": "1831 Tamiami Trl S  Venice, FL 34293",
    "location": "Gulf"
  },
  {
    "name": "Parichat House",
    "description": "Clothing Stores",
    "phone": "(941) 486-8130",
    "address": "116 Nokomis Ave S  Venice, FL 34285",
    "location": "Gulf"
  },
  {
    "name": "Citi Trends",
    "description": "Clothing Stores",
    "phone": "(941) 877-2001",
    "address": "5108 15th St E Ste 501A  Bradenton, FL 34203",
    "location": "Gulf"
  },
  {
    "name": "Purabell House of Fashion",
    "description": "Clothing Stores",
    "phone": "(941) 752-0202",
    "address": "5002 Lena Rd  Bradenton, FL 34211",
    "location": "Gulf"
  },
  {
    "name": "Elle La Peche",
    "description": "Clothing Stores",
    "phone": "(847) 340-6382",
    "address": "372 Montgomery Ave  Sarasota, FL 34243",
    "location": "Gulf"
  },
  {
    "name": "Andi's List",
    "description": "Clothing Stores",
    "phone": "(941) 284-2020",
    "address": "553 Magellan Dr  Sarasota, FL 34243",
    "location": "Gulf"
  },
  {
    "name": "Debutante Vintage",
    "description": "Clothing Stores",
    "phone": "(866) 954-4526",
    "address": "1531 Tamiami Trl S  Venice, FL 34285",
    "location": "Gulf"
  },
  {
    "name": "Poshy",
    "description": "Clothing Stores",
    "phone": "(941) 388-2893",
    "address": "7718 Edmonston Cir  Bradenton, FL 34201",
    "location": "Gulf"
  },
  {
    "name": "Bambooty Bodygear",
    "description": "Clothing Stores",
    "phone": "(941) 484-2100",
    "address": "736 Myrtle Ave  Venice, FL 34285",
    "location": "Gulf"
  },
  {
    "name": "Raffle Mike",
    "description": "Clothing Stores",
    "phone": "(941) 962-4711",
    "address": "6208 26th St W  Bradenton, FL 34207",
    "location": "Gulf"
  },
  {
    "name": "We Make Custom Teez - Custom T-Shirts",
    "description": "Clothing Stores",
    "phone": "(941) 479-0559",
    "address": "11161 State Road 70 E Unit 110-801  Lakewood Ranch, FL 34202",
    "location": "Gulf"
  },
  {
    "name": "Fifi's Fine Resale Apparel",
    "description": "Clothing Stores",
    "phone": "(941) 758-7222",
    "address": "7343 52nd Pl E  Bradenton, FL 34203",
    "location": "Gulf"
  },
  {
    "name": "Prayers Apparel",
    "description": "Clothing Stores",
    "phone": "(941) 773-2291",
    "address": "4676 72nd Ct E  Bradenton, FL 34203",
    "location": "Gulf"
  },
  {
    "name": "Fresh Inc.",
    "description": "Clothing Stores",
    "phone": "(855) 787-5059",
    "address": "4916 21st St W  Bradenton, FL 34207",
    "location": "Gulf"
  },
  {
    "name": "Bunulu",
    "description": "Clothing Stores",
    "phone": "(844) 507-5374",
    "address": "1806 38th Ave E  Bradenton, FL 34208",
    "location": "Gulf"
  },
  {
    "name": "Rainbow Shops",
    "description": "Clothing Stores",
    "phone": "(941) 758-8437",
    "address": "725 Cortez Rd W  Bradenton, FL 34207",
    "location": "Gulf"
  },
  {
    "name": "Echo Park Traders",
    "description": "Clothing Stores",
    "phone": "(941) 923-0508",
    "address": "807 Cortez Rd W  Bradenton, FL 34207",
    "location": "Gulf"
  },
  {
    "name": "Bags By Hedwig",
    "description": "Clothing Stores",
    "phone": "(941) 493-3831",
    "address": "428 Autumn Chase Dr  Venice, FL 34292",
    "location": "Gulf"
  },
  {
    "name": "Earsound Customs",
    "description": "Clothing Stores",
    "phone": "(941) 922-0201",
    "address": "2170 Gulf Gate Dr  Sarasota, FL 34231",
    "location": "Gulf"
  },
  {
    "name": "Rumor Has It",
    "description": "Clothing Stores",
    "phone": "(941) 343-2229",
    "address": "6549 Superior Ave  Sarasota, FL 34231",
    "location": "Gulf"
  },
  {
    "name": "Ross Dress for Less",
    "description": "Clothing Stores",
    "phone": "(941) 922-4401",
    "address": "6569 S Tamiami Trl  Sarasota, FL 34231",
    "location": "Gulf"
  },
  {
    "name": "Catherines Plus Sizes",
    "description": "Clothing Stores",
    "phone": "(941) 444-8841",
    "address": "6571B S Tamiami Trl  Sarasota, FL 34231",
    "location": "Gulf"
  },
  {
    "name": "Splash Sun & Fun",
    "description": "Clothing Stores",
    "phone": "(941) 923-1003",
    "address": "6508 S Tamiami Trl  Sarasota, FL 34231",
    "location": "Gulf"
  },
  {
    "name": "The Children's Place",
    "description": "Clothing Stores",
    "phone": "(941) 927-2440",
    "address": "8201 S Tamiami Trl Space A-37a  Sarasota, FL 34238",
    "location": "Gulf"
  },
  {
    "name": "Rocketman Shop Old School Head shop",
    "description": "Clothing Stores",
    "phone": "(941) 923-2096",
    "address": "2635 Mall Dr  Sarasota, FL 34231",
    "location": "Gulf"
  },
  {
    "name": "SKECHERS Warehouse Outlet",
    "description": "Clothing Stores",
    "phone": "(941) 306-2925",
    "address": "6583 S Tamiami Trl  Sarasota, FL 34231",
    "location": "Gulf"
  },
  {
    "name": "Five Below",
    "description": "Clothing Stores",
    "phone": "(941) 924-6294",
    "address": "6571 S Tamiami Trl  Sarasota, FL 34231",
    "location": "Gulf"
  },
  {
    "name": "Marshalls",
    "description": "Clothing Stores",
    "phone": "(941) 921-6641",
    "address": "6561 S Tamiami Trl  Sarasota, FL 34231",
    "location": "Gulf"
  },
  {
    "name": "Bealls Outlet Stores",
    "description": "Clothing Stores",
    "phone": "(941) 924-1567",
    "address": "6555 S Tamiami Trl  Sarasota, FL 34231",
    "location": "Gulf"
  },
  {
    "name": "Bealls",
    "description": "Clothing Stores",
    "phone": "(941) 925-2745",
    "address": "6507 S Tamiami Trl  Sarasota, FL 34231",
    "location": "Gulf"
  },
  {
    "name": "JCPenney",
    "description": "Clothing Stores",
    "phone": "(941) 921-7911",
    "address": "8201 S Tamiami Trl  Sarasota, FL 34238",
    "location": "Gulf"
  },
  {
    "name": "Journeys",
    "description": "Clothing Stores",
    "phone": "(941) 925-9847",
    "address": "8201 S Tamiami Trl  Sarasota, FL 34238",
    "location": "Gulf"
  },
  {
    "name": "Wet Seal",
    "description": "Clothing Stores",
    "phone": "(941) 923-6749",
    "address": "8201 S Tamiami Trl  Sarasota, FL 34238",
    "location": "Gulf"
  },
  {
    "name": "Justice",
    "description": "Clothing Stores",
    "phone": "(941) 926-8655",
    "address": "8201 S Tamiami Trl  Sarasota, FL 34238",
    "location": "Gulf"
  },
  {
    "name": "Wall Street For Men",
    "description": "Clothing Stores",
    "phone": "(941) 927-1501",
    "address": "8201 S Tamiami Trl  Sarasota, FL 34238",
    "location": "Gulf"
  },
  {
    "name": "Macy's",
    "description": "Clothing Stores",
    "phone": "(941) 925-5300",
    "address": "8201 S Tamiami Trl  Sarasota, FL 34238",
    "location": "Gulf"
  },
  {
    "name": "Torrid",
    "description": "Clothing Stores",
    "phone": "(941) 921-3582",
    "address": "8201 S Tamiami Trl  Sarasota, FL 34238",
    "location": "Gulf"
  },
  {
    "name": "D212",
    "description": "Clothing Stores",
    "phone": "(941) 921-3583",
    "address": "8201 S Tamiami Trl  Sarasota, FL 34238",
    "location": "Gulf"
  },
  {
    "name": "Forever 21",
    "description": "Clothing Stores",
    "phone": "(941) 922-0403",
    "address": "8201 S Tamiami Trl  Sarasota, FL 34238",
    "location": "Gulf"
  },
  {
    "name": "A&A Baby & Beach Rentals",
    "description": "Clothing Stores",
    "phone": "(941) 921-7688",
    "address": "3247 Rowena St  Sarasota, FL 34231",
    "location": "Gulf"
  },
  {
    "name": "S.A. Elite",
    "description": "Clothing Stores",
    "phone": "(941) 966-1917",
    "address": "8372 S Tamiami Trl  Sarasota, FL 34238",
    "location": "Gulf"
  },
  {
    "name": "Kohl's",
    "description": "Clothing Stores",
    "phone": "(941) 966-3231",
    "address": "3950 Central Sarasota Pkwy  Sarasota, FL 34238",
    "location": "Gulf"
  },
  {
    "name": "Superiortees",
    "description": "Clothing Stores",
    "phone": "(941) 921-9286",
    "address": "4557 Clark Rd  Sarasota, FL 34233",
    "location": "Gulf"
  },
  {
    "name": "Sarasota Messenger Imprin",
    "description": "Clothing Stores",
    "phone": "(941) 924-4945",
    "address": "4662 Ashton Rd  Sarasota, FL 34233",
    "location": "Gulf"
  },
  {
    "name": "Lilly Pulitzer",
    "description": "Clothing Stores",
    "phone": "(941) 343-2948",
    "address": "Siesta Village Plaza 5118 Ocean Boulevard  Sarasota, FL 34242",
    "location": "Gulf"
  },
  {
    "name": "White House | Black Market",
    "description": "Clothing Stores",
    "phone": "(941) 364-5123",
    "address": "3501 S Tamiami Trl  Sarasota, FL 34239",
    "location": "Gulf"
  },
  {
    "name": "Foxy Lady",
    "description": "Clothing Stores",
    "phone": "(941) 349-6644",
    "address": "209 Beach Rd  Sarasota, FL 34242",
    "location": "Gulf"
  },
  {
    "name": "Chico's",
    "description": "Clothing Stores",
    "phone": "(941) 957-6426",
    "address": "3501 S Tamiami Trl  Sarasota, FL 34239",
    "location": "Gulf"
  },
  {
    "name": "Cache",
    "description": "Clothing Stores",
    "phone": "(941) 404-1218",
    "address": "3501 S Tamiami Trl Ste 113  Sarasota, FL 34239",
    "location": "Gulf"
  },
  {
    "name": "Loft",
    "description": "Clothing Stores",
    "phone": "(941) 951-5200",
    "address": "3501 S Tamiami Trl  Sarasota, FL 34239",
    "location": "Gulf"
  },
  {
    "name": "Beach Bazaar",
    "description": "Clothing Stores",
    "phone": "(941) 346-2995",
    "address": "5211 Ocean Blvd  Sarasota, FL 34242",
    "location": "Gulf"
  },
  {
    "name": "Lotus Boutique",
    "description": "Clothing Stores",
    "phone": "(941) 346-6793",
    "address": "5118 Ocean Blvd  Sarasota, FL 34242",
    "location": "Gulf"
  },
  {
    "name": "Royal-Tee's Screen Printing & Embroidery",
    "description": "Clothing Stores",
    "phone": "(941) 378-8112",
    "address": "5556 Palmer Blvd  Sarasota, FL 34232",
    "location": "Gulf"
  },
  {
    "name": "Pinos II P",
    "description": "Clothing Stores",
    "phone": "(941) 366-2666",
    "address": "1849 Hillview St  Sarasota, FL 34239",
    "location": "Gulf"
  },
  {
    "name": "Suncoast Embroidery & Tees",
    "description": "Clothing Stores",
    "phone": "(941) 378-3111",
    "address": "5405 Cork Oak St  Sarasota, FL 34232",
    "location": "Gulf"
  },
  {
    "name": "Stark Enterprises Inc",
    "description": "Clothing Stores",
    "phone": "(941) 341-0319",
    "address": "2555 Porter Lake Dr  Sarasota, FL 34240",
    "location": "Gulf"
  },
  {
    "name": "The Exchange Inc.",
    "description": "Clothing Stores",
    "phone": "(941) 955-7859",
    "address": "539 S Orange Ave  Sarasota, FL 34236",
    "location": "Gulf"
  },
  {
    "name": "SL Printwear",
    "description": "Clothing Stores",
    "phone": "(941) 780-0061",
    "address": "2876 Ringling Blvd  Sarasota, FL 34237",
    "location": "Gulf"
  },
  {
    "name": "Andeansun Corp",
    "description": "Clothing Stores",
    "phone": "(239) 277-1877",
    "address": "242 S Washington Blvd  Sarasota, FL 34236",
    "location": "Gulf"
  },
  {
    "name": "Pineapple Lain Boutique",
    "description": "Clothing Stores",
    "phone": "(941) 330-8771",
    "address": "407 S Pineapple Ave  Sarasota, FL 34236",
    "location": "Gulf"
  },
  {
    "name": "Clothesline Co",
    "description": "Clothing Stores",
    "phone": "(941) 953-1764",
    "address": "2250 2nd St  Sarasota, FL 34237",
    "location": "Gulf"
  },
  {
    "name": "Martin Freeman",
    "description": "Clothing Stores",
    "phone": "(941) 953-2948",
    "address": "75 S Palm Ave  Sarasota, FL 34236",
    "location": "Gulf"
  },
  {
    "name": "Crazy Shirts",
    "description": "Clothing Stores",
    "phone": "(941) 388-1105",
    "address": "359 Saint Armands Cir  Sarasota, FL 34236",
    "location": "Gulf"
  },
  {
    "name": "Avenue",
    "description": "Clothing Stores",
    "phone": "(941) 388-3354",
    "address": "28 N Blvd Of Presidents  Sarasota, FL 34236",
    "location": "Gulf"
  },
  {
    "name": "Aquarius Silk Screen Inc",
    "description": "Clothing Stores",
    "phone": "(941) 377-3059",
    "address": "5931 Palmer Blvd  Sarasota, FL 34232",
    "location": "Gulf"
  },
  {
    "name": "Brooks Brothers Country Club",
    "description": "Clothing Stores",
    "phone": "(941) 954-7545",
    "address": "1500 Main St  Sarasota, FL 34236",
    "location": "Gulf"
  },
  {
    "name": "Kmart",
    "description": "Clothing Stores",
    "phone": "(941) 957-1460",
    "address": "501 N Beneva Rd  Sarasota, FL 34232",
    "location": "Gulf"
  },
  {
    "name": "J.McLaughlin",
    "description": "Clothing Stores",
    "phone": "(941) 706-3587",
    "address": "1503 Main St  Sarasota, FL 34236",
    "location": "Gulf"
  },
  {
    "name": "Marcello Sport St. Armands",
    "description": "Clothing Stores",
    "phone": "(941) 706-1357",
    "address": "18 S Blvd Of The Presidents  Sarasota, FL 34236",
    "location": "Gulf"
  },
  {
    "name": "India Artisans",
    "description": "Clothing Stores",
    "phone": "(941) 203-8913",
    "address": "1899 Fruitville Rd Unit A  Sarasota, FL 34236",
    "location": "Gulf"
  },
  {
    "name": "Cariloha",
    "description": "Clothing Stores",
    "phone": "(941) 388-0412",
    "address": "478 John Ringling Blvd  Sarasota, FL 34236",
    "location": "Gulf"
  },
  {
    "name": "Aquarius Graphics",
    "description": "Clothing Stores",
    "phone": "(941) 981-2623",
    "address": "5931 Palmer Blvd  Sarasota, FL 34232",
    "location": "Gulf"
  },
  {
    "name": "Scout and Molly's of Sarasota",
    "description": "Clothing Stores",
    "phone": "(941) 955-2170",
    "address": "1413 1st St  Sarasota, FL 34236",
    "location": "Gulf"
  },
  {
    "name": "Just Cruizin",
    "description": "Clothing Stores",
    "phone": "(941) 706-2150",
    "address": "21 N Blvd Of The Presidents  Sarasota, FL 34236",
    "location": "Gulf"
  },
  {
    "name": "Swim City",
    "description": "Clothing Stores",
    "phone": "(941) 954-8800",
    "address": "50 N Tamiami Trl  Sarasota, FL 34236",
    "location": "Gulf"
  },
  {
    "name": "Environeers",
    "description": "Clothing Stores",
    "phone": "(941) 371-6208",
    "address": "5373 Fruitville Rd  Sarasota, FL 34232",
    "location": "Gulf"
  },
  {
    "name": "Tracht Brothers Inc",
    "description": "Clothing Stores",
    "phone": "(941) 371-6208",
    "address": "5373 Fruitville Rd  Sarasota, FL 34232",
    "location": "Gulf"
  },
  {
    "name": "Rock Bottom Apparel",
    "description": "Clothing Stores",
    "phone": "(941) 365-8922",
    "address": "2590 17th St  Sarasota, FL 34234",
    "location": "Gulf"
  },
  {
    "name": "XTC Super Center of Sarasota",
    "description": "Clothing Stores",
    "phone": "(941) 366-6969",
    "address": "2092 17th St  Sarasota, FL 34234",
    "location": "Gulf"
  },
  {
    "name": "Nifty Thrifty",
    "description": "Clothing Stores",
    "phone": "(941) 343-2372",
    "address": "2101 19th St  Sarasota, FL 34234",
    "location": "Gulf"
  },
  {
    "name": "Anthony's Ladies Apparel",
    "description": "Clothing Stores",
    "phone": "(941) 488-7643",
    "address": "1087 Tamiami Trl N  Nokomis, FL 34275",
    "location": "Gulf"
  },
  {
    "name": "Influence",
    "description": "Clothing Stores",
    "phone": "(941) 343-2315",
    "address": "474 John Ringling Blvd  Sarasota, FL 34236",
    "location": "Gulf"
  },
  {
    "name": "Binjara Traders Inc",
    "description": "Clothing Stores",
    "phone": "(941) 388-3335",
    "address": "327 John Ringling Blvd  Sarasota, FL 34236",
    "location": "Gulf"
  },
  {
    "name": "N Y Connection",
    "description": "Clothing Stores",
    "phone": "(941) 358-9203",
    "address": "3333 N Tamiami Trl  Sarasota, FL 34234",
    "location": "Gulf"
  },
  {
    "name": "Sarah Louise Inc",
    "description": "Clothing Stores",
    "phone": "(941) 377-9656",
    "address": "128 Sarasota Center Blvd  Sarasota, FL 34240",
    "location": "Gulf"
  },
  {
    "name": "Veith & Associates Apparel",
    "description": "Clothing Stores",
    "phone": "(941) 378-5694",
    "address": "201 Field End St  Sarasota, FL 34240",
    "location": "Gulf"
  },
  {
    "name": "Calzedonia",
    "description": "Clothing Stores",
    "phone": "(941) 667-2396",
    "address": "140 University Town Center Dr  Sarasota, FL 34243",
    "location": "Gulf"
  },
  {
    "name": "Brooks Brothers",
    "description": "Clothing Stores",
    "phone": "(941) 702-9110",
    "address": "140 University Town Center Dr Unit 228  Sarasota, FL 34243",
    "location": "Gulf"
  },
  {
    "name": "Oakley Store",
    "description": "Clothing Stores",
    "phone": "(941) 702-9932",
    "address": "140 University Town Center Dr Unit 214  Sarasota, FL 34243",
    "location": "Gulf"
  },
  {
    "name": "Oshkosh B'Gosh",
    "description": "Clothing Stores",
    "phone": "(941) 259-0101",
    "address": "140 University Town Center Dr Unit 210  Sarasota, FL 34243",
    "location": "Gulf"
  },
  {
    "name": "Athleta",
    "description": "Clothing Stores",
    "phone": "(941) 667-2052",
    "address": "140 University Town Center Dr Unit 136  Sarasota, FL 34243",
    "location": "Gulf"
  },
  {
    "name": "Lucky Brand Jeans",
    "description": "Clothing Stores",
    "phone": "(941) 893-1180",
    "address": "140 University Town Center Dr Unit 266  Sarasota, FL 34243",
    "location": "Gulf"
  },
  {
    "name": "Robert Graham Sarasota",
    "description": "Clothing Stores",
    "phone": "(941) 529-1911",
    "address": "140 University Town Center Dr  Sarasota, FL 34243",
    "location": "Gulf"
  },
  {
    "name": "BOSS Menswear Store",
    "description": "Clothing Stores",
    "phone": "(941) 536-9000",
    "address": "140 University Town Center Dr  Sarasota, FL 34243",
    "location": "Gulf"
  },
  {
    "name": "Cotton On Kids",
    "description": "Clothing Stores",
    "phone": "(941) 278-8882",
    "address": "140 University Town Center Dr  Sarasota, FL 34243",
    "location": "Gulf"
  },
  {
    "name": "FP Movement",
    "description": "Clothing Stores",
    "phone": "(941) 279-3979",
    "address": "140 University Town Center Dr Unit 248  Sarasota, FL 34243",
    "location": "Gulf"
  },
  {
    "name": "Contempo Casuals",
    "description": "Clothing Stores",
    "phone": "(941) 923-6749",
    "address": "8201 Tamiami Trl  Sarasota, FL 34238",
    "location": "Gulf"
  },
  {
    "name": "Shirt Stop",
    "description": "Clothing Stores",
    "phone": "(941) 488-9143",
    "address": "247 W Venice Ave  Venice, FL 34285",
    "location": "Gulf"
  },
  {
    "name": "Garage Service Today",
    "description": "Clothing Stores",
    "phone": "(941) 480-0100",
    "address": "121 Triple Diamond Blvd  North Venice, FL 34275",
    "location": "Gulf"
  },
  {
    "name": "SEPHORA at Kohl's",
    "description": "Clothing Stores",
    "phone": "(941) 355-9074",
    "address": "5205 University Pkwy  University Park, FL 34201",
    "location": "Gulf"
  },
  {
    "name": "Lola Monroe",
    "description": "Clothing Stores",
    "phone": "(888) 822-5652",
    "address": "5429 University Pkwy # 1059  University Park, FL 34201",
    "location": "Gulf"
  },
  {
    "name": "Flipresaleclothingco",
    "description": "Clothing Stores",
    "phone": "(941) 445-9083",
    "address": "525 E Venice Ave  Venice, FL 34285",
    "location": "Gulf"
  },
  {
    "name": "Sears Hometown Store",
    "description": "Clothing Stores",
    "phone": "(941) 244-9557",
    "address": "4181 Tamiami Trl S Unit 1  Venice, FL 34293",
    "location": "Gulf"
  },
  {
    "name": "CaribeHeart",
    "description": "Clothing Stores",
    "phone": "(754) 600-1337",
    "address": "8051 N Tamiami Trl Ste E6  Sarasota, FL 34243",
    "location": "Gulf"
  },
  {
    "name": "Natural Discoveries Sales Inc",
    "description": "Clothing Stores",
    "phone": "(941) 355-0611",
    "address": "1281 Tallevast Rd  Sarasota, FL 34243",
    "location": "Gulf"
  },
  {
    "name": "Premier Apparel",
    "description": "Clothing Stores",
    "phone": "(941) 751-0919",
    "address": "1176 Whitfield Ave  Sarasota, FL 34243",
    "location": "Gulf"
  },
  {
    "name": "Gulf Breeze Silkscreen",
    "description": "Clothing Stores",
    "phone": "(941) 488-8337",
    "address": "616 Cypress Ave  Venice, FL 34285",
    "location": "Gulf"
  },
  {
    "name": "Captain's Landing",
    "description": "Clothing Stores",
    "phone": "(941) 485-2329",
    "address": "243 W Venice Ave  Venice, FL 34285",
    "location": "Gulf"
  },
  {
    "name": "Sandy's Designer Clothing",
    "description": "Clothing Stores",
    "phone": "(941) 484-9911",
    "address": "128 W Venice Ave  Venice, FL 34285",
    "location": "Gulf"
  },
  {
    "name": "Krystyna's Designs",
    "description": "Clothing Stores",
    "phone": "(941) 488-7400",
    "address": "120 W Venice Ave  Venice, FL 34285",
    "location": "Gulf"
  },
  {
    "name": "Seaside Chic Boutique",
    "description": "Clothing Stores",
    "phone": "(941) 484-1313",
    "address": "217 W Venice Ave  Venice, FL 34285",
    "location": "Gulf"
  },
  {
    "name": "Main Street Bazaar",
    "description": "Clothing Stores",
    "phone": "(941) 907-3456",
    "address": "8111 Lakewood Main St  Lakewood Ranch, FL 34202",
    "location": "Gulf"
  },
  {
    "name": "Kickz N Lidz",
    "description": "Clothing Stores",
    "phone": "(941) 748-5455",
    "address": "6710 71st St E  Bradenton, FL 34203",
    "location": "Gulf"
  },
  {
    "name": "Creative Native",
    "description": "Clothing Stores",
    "phone": "(941) 756-5659",
    "address": "6160 15th St E  Bradenton, FL 34203",
    "location": "Gulf"
  },
  {
    "name": "Latino's Fashion",
    "description": "Clothing Stores",
    "phone": "(941) 755-2132",
    "address": "1239 60th Ave W  Bradenton, FL 34207",
    "location": "Gulf"
  },
  {
    "name": "The Scrub Club",
    "description": "Clothing Stores",
    "phone": "(941) 755-9669",
    "address": "8527 State Road 70 E  Bradenton, FL 34202",
    "location": "Gulf"
  },
  {
    "name": "Eye Care Family Vision Center",
    "description": "Clothing Stores",
    "phone": "(941) 753-2020",
    "address": "6156 State Road 70 E  Bradenton, FL 34203",
    "location": "Gulf"
  },
  {
    "name": "Teez By Design",
    "description": "Clothing Stores",
    "phone": "(941) 745-2257",
    "address": "5266 Office Park Blvd  Bradenton, FL 34203",
    "location": "Gulf"
  },
  {
    "name": "Longboat Resort Wear",
    "description": "Clothing Stores",
    "phone": "(941) 383-9320",
    "address": "5380 Gulf Of Mexico Dr  Longboat Key, FL 34228",
    "location": "Gulf"
  },
  {
    "name": "Outlet Centrl Fulfill",
    "description": "Clothing Stores",
    "phone": "(941) 752-8987",
    "address": "1806 38th Ave E  Bradenton, FL 34208",
    "location": "Gulf"
  },
  {
    "name": "Team Edition Apparel",
    "description": "Clothing Stores",
    "phone": "(941) 747-5300",
    "address": "4208 19th Street Ct E  Bradenton, FL 34208",
    "location": "Gulf"
  },
  {
    "name": "Bealls Outlet",
    "description": "Clothing Stores",
    "phone": "(941) 761-2519",
    "address": "4902 Cortez Rd W  Bradenton, FL 34210",
    "location": "Gulf"
  },
  {
    "name": "American Apparel Designs Inc",
    "description": "Clothing Stores",
    "phone": "(941) 488-3770",
    "address": "121 Corporation Way Unit C  Venice, FL 34285",
    "location": "Gulf"
  },
  {
    "name": "Innovative Imprint Concept",
    "description": "Clothing Stores",
    "phone": "(941) 484-5414",
    "address": "2302 Hermitage Blvd  Venice, FL 34292",
    "location": "Gulf"
  },
  {
    "name": "Avenue Garage Inc",
    "description": "Clothing Stores",
    "phone": "(941) 421-3717",
    "address": "4138 Electric Way  Port Charlotte, FL 33980",
    "location": "Gulf"
  },
  {
    "name": "Miami Girl Fashion",
    "description": "Women's Clothing",
    "phone": "(941) 554-8573",
    "address": "7650 S Tamiami Trl Ste 1  Sarasota, FL 34231",
    "location": "Gulf"
  },
  {
    "name": "First Lady Boutique Inc",
    "description": "Boutique Items",
    "phone": "(941) 922-9666",
    "address": "2053 Reynolds St  Sarasota, FL 34231",
    "location": "Gulf"
  },
  {
    "name": "Kinky Kitty",
    "description": "Lingerie",
    "phone": "(941) 358-8707",
    "address": "2246 Gulf Gate Dr  Sarasota, FL 34231",
    "location": "Gulf"
  },
  {
    "name": "The British Corner Shop",
    "description": "Department Stores",
    "phone": "(941) 346-6004",
    "address": "2236 Gulf Gate Dr  Sarasota, FL 34231",
    "location": "Gulf"
  },
  {
    "name": "Giannini Custom Tailoring",
    "description": "Men's Clothing",
    "phone": "(941) 923-1752",
    "address": "2144 Gulf Gate Dr  Sarasota, FL 34231",
    "location": "Gulf"
  },
  {
    "name": "The Island Cabana",
    "description": "Gift Shops",
    "phone": "(941) 896-4946",
    "address": "403 C Pine Avenue  Anna Maria, FL 34216",
    "location": "Gulf"
  },
  {
    "name": "Men's Wearhouse",
    "description": "Men's Clothing",
    "phone": "(941) 924-5371",
    "address": "8201 S Tamiami Trl Unit Ao24  Sarasota, FL 34238",
    "location": "Gulf"
  },
  {
    "name": "Target",
    "description": "General Merchandise",
    "phone": "(941) 925-3377",
    "address": "8401 S Tamiami Trl  Sarasota, FL 34238",
    "location": "Gulf"
  },
  {
    "name": "Westfield Mall - Sarasota Square",
    "description": "Department Stores",
    "phone": "(941) 922-9609",
    "address": "8201 S Tamiami Trl  Sarasota, FL 34238",
    "location": "Gulf"
  },
  {
    "name": "Sports Fan-Attic",
    "description": "Sporting Goods",
    "phone": "(941) 926-2434",
    "address": "8201 S Tamiami Trl  Sarasota, FL 34238",
    "location": "Gulf"
  },
  {
    "name": "Champs Sports",
    "description": "Sportswear",
    "phone": "(941) 924-1991",
    "address": "8201 S Tamiami Trl  Sarasota, FL 34238",
    "location": "Gulf"
  },
  {
    "name": "Finish Line",
    "description": "Shoe Stores",
    "phone": "(941) 922-7408",
    "address": "8201 S Tamiami Trl  Sarasota, FL 34238",
    "location": "Gulf"
  },
  {
    "name": "Rack Room Shoes",
    "description": "Shoe Stores",
    "phone": "(941) 925-7746",
    "address": "8201 S Tamiami Trl Unit 38  Sarasota, FL 34238",
    "location": "Gulf"
  },
  {
    "name": "Lady Foot Locker",
    "description": "Shoe Stores",
    "phone": "(941) 922-3216",
    "address": "8201 S Tamiami Trl Unit 44  Sarasota, FL 34238",
    "location": "Gulf"
  },
  {
    "name": "Windsor",
    "description": "Women's Clothing",
    "phone": "(941) 222-0717",
    "address": "8201 S Tamiami Trl  Sarasota, FL 34238",
    "location": "Gulf"
  },
  {
    "name": "Motherhood Maternity",
    "description": "Maternity Clothes",
    "phone": "(215) 555-1212",
    "address": "8201 S Tamiami Trl  Sarasota, FL 34238",
    "location": "Gulf"
  },
  {
    "name": "Libra Usa",
    "description": "Department Stores",
    "phone": "(941) 924-3106",
    "address": "8201 S Tamiami Trl  Sarasota, FL 34238",
    "location": "Gulf"
  },
  {
    "name": "Victoria's Secret",
    "description": "Lingerie",
    "phone": "(941) 923-6406",
    "address": "8201 S Tamiami Trl  Sarasota, FL 34238",
    "location": "Gulf"
  },
  {
    "name": "JoS. A. Bank",
    "description": "Men's Clothing",
    "phone": "(941) 923-9440",
    "address": "8201 S Tamiami Trl Unit A32  Sarasota, FL 34238",
    "location": "Gulf"
  },
  {
    "name": "Lids",
    "description": "Hat Shops",
    "phone": "(941) 921-6171",
    "address": "8201 S Tamiami Trl  Sarasota, FL 34238",
    "location": "Gulf"
  },
  {
    "name": "Hot Flash",
    "description": "Women's Clothing",
    "phone": "(941) 921-7027",
    "address": "1742 Dawn St  Sarasota, FL 34231",
    "location": "Gulf"
  },
  {
    "name": "Key Casuals",
    "description": "Women's Clothing",
    "phone": "(941) 349-6625",
    "address": "6625 Midnight Pass Rd  Sarasota, FL 34242",
    "location": "Gulf"
  },
  {
    "name": "Things You Like",
    "description": "Fashion Designers",
    "phone": "(941) 349-1994",
    "address": "6529 Midnight Pass Rd  Sarasota, FL 34242",
    "location": "Gulf"
  },
  {
    "name": "Nice Day Sports",
    "description": "Sportswear",
    "phone": "(941) 538-6941",
    "address": "4283 Express Ln  Sarasota, FL 34249",
    "location": "Gulf"
  },
  {
    "name": "Pelican Knits",
    "description": "Women's Clothing",
    "phone": "(941) 923-6421",
    "address": "8221 Shadow Pine Way  Sarasota, FL 34238",
    "location": "Gulf"
  },
  {
    "name": "Tom James Company",
    "description": "Custom Made Men's Suits",
    "phone": "(941) 487-0095",
    "address": "2100 Constitution Blvd Suite 166  Sarasota, FL 34231",
    "location": "Gulf"
  },
  {
    "name": "European Traditions",
    "description": "Furniture Stores",
    "phone": "(941) 921-5616",
    "address": "6030 Clark Center Ave  Sarasota, FL 34238",
    "location": "Gulf"
  },
  {
    "name": "Edwin Watts Golf",
    "description": "Golf Equipment & Supplies",
    "phone": "(941) 922-1006",
    "address": "5247 S Tamiami Trl  Sarasota, FL 34231",
    "location": "Gulf"
  },
  {
    "name": "The Perfect Dress of Sarasota",
    "description": "Bridal Shops",
    "phone": "(941) 925-5888",
    "address": "5109 S Tamiami Trl  Sarasota, FL 34231",
    "location": "Gulf"
  },
  {
    "name": "Draper's & Damon's",
    "description": "Women's Clothing",
    "phone": "(941) 921-3717",
    "address": "4820 S Tamiami Trl  Sarasota, FL 34231",
    "location": "Gulf"
  },
  {
    "name": "West Marine",
    "description": "Boat Equipment & Supplies",
    "phone": "(941) 360-6000",
    "address": "4708 Tamiami Trl  Sarasota, FL 34231",
    "location": "Gulf"
  },
  {
    "name": "Bealls Florida",
    "description": "Home Furnishings",
    "phone": "(941) 921-4416",
    "address": "5451 Palmer Crossing Cir  Sarasota, FL 34233",
    "location": "Gulf"
  },
  {
    "name": "Laura Jean's",
    "description": "Consignment Service",
    "phone": "(941) 922-5535",
    "address": "3830 S Tuttle Ave  Sarasota, FL 34239",
    "location": "Gulf"
  },
  {
    "name": "Soma Intimates",
    "description": "Lingerie",
    "phone": "(941) 951-0326",
    "address": "3501 S Tamiami Trl  Sarasota, FL 34239",
    "location": "Gulf"
  },
  {
    "name": "Giggles",
    "description": "Lingerie",
    "phone": "(941) 927-7474",
    "address": "4407 S Tamiami Trl  Sarasota, FL 34231",
    "location": "Gulf"
  },
  {
    "name": "Adam & Eve",
    "description": "Department Stores",
    "phone": "(941) 203-8651",
    "address": "4400 S Tamiami Trl  Sarasota, FL 34231",
    "location": "Gulf"
  },
  {
    "name": "King James Inc",
    "description": "Women's Clothing",
    "phone": "(941) 922-1873",
    "address": "4333 S Tamiami Trl  Sarasota, FL 34231",
    "location": "Gulf"
  },
  {
    "name": "Casual Male XL",
    "description": "Men's Clothing",
    "phone": "(941) 924-3239",
    "address": "4130 S Tamiami Trl  Sarasota, FL 34231",
    "location": "Gulf"
  },
  {
    "name": "Daisy Cotton Inc",
    "description": "Women's Clothing",
    "phone": "(941) 925-5833",
    "address": "3847 S School Ave  Sarasota, FL 34239",
    "location": "Gulf"
  },
  {
    "name": "Ann Taylor",
    "description": "Women's Clothing",
    "phone": "(941) 953-3639",
    "address": "747 Southgate Mall  Sarasota, FL 34239",
    "location": "Gulf"
  },
  {
    "name": "Talbots",
    "description": "Women's Clothing",
    "phone": "(941) 952-9100",
    "address": "300 Southgate Mall  Sarasota, FL 34239",
    "location": "Gulf"
  },
  {
    "name": "Saks Fifth Avenue",
    "description": "Department Stores",
    "phone": "(941) 364-5300",
    "address": "100 Southgate Mall  Sarasota, FL 34239",
    "location": "Gulf"
  },
  {
    "name": "J. Jill",
    "description": "Women's Clothing",
    "phone": "(941) 955-2873",
    "address": "3501 S Tamiami Trl  Sarasota, FL 34239",
    "location": "Gulf"
  },
  {
    "name": "Francesca's",
    "description": "Women's Clothing",
    "phone": "(941) 365-1700",
    "address": "3501 S Tamiami Trl  Sarasota, FL 34239",
    "location": "Gulf"
  },
  {
    "name": "Alexander's",
    "description": "Women's Clothing",
    "phone": "(941) 366-5400",
    "address": "3501 S Tamiami Trl  Sarasota, FL 34239",
    "location": "Gulf"
  },
  {
    "name": "Island Cotton Co",
    "description": "Women's Clothing",
    "phone": "(941) 349-1170",
    "address": "5221 Ocean Blvd  Sarasota, FL 34242",
    "location": "Gulf"
  },
  {
    "name": "Island Styles",
    "description": "Women's Clothing",
    "phone": "(941) 960-2338",
    "address": "5206 Ocean Blvd  Sarasota, FL 34242",
    "location": "Gulf"
  },
  {
    "name": "Juraci's Place",
    "description": "Women's Clothing",
    "phone": "(941) 217-5327",
    "address": "3631 Webber St  Sarasota, FL 34232",
    "location": "Gulf"
  },
  {
    "name": "Walmart Supercenter",
    "description": "General Merchandise",
    "phone": "(941) 918-1247",
    "address": "13140 S Tamiami Trl  Osprey, FL 34229",
    "location": "Gulf"
  },
  {
    "name": "Samba",
    "description": "Women's Clothing",
    "phone": "(941) 953-3505",
    "address": "1652 Main St  Sarasota, FL 34236",
    "location": "Gulf"
  },
  {
    "name": "Tina's On Osprey",
    "description": "Boutique Items",
    "phone": "(941) 366-1555",
    "address": "1907 S Osprey Ave  Sarasota, FL 34239",
    "location": "Gulf"
  },
  {
    "name": "Willow506",
    "description": "Women's Clothing",
    "phone": "(941) 955-5506",
    "address": "1821 Hillview St  Sarasota, FL 34239",
    "location": "Gulf"
  },
  {
    "name": "Good As New Consignment & Brdl",
    "description": "Consignment Service",
    "phone": "(941) 366-1234",
    "address": "1273 Beneva Rd Fl 34232  Sarasota, FL 34232",
    "location": "Gulf"
  },
  {
    "name": "GOOD AS NEW CONSIGNMENT AND BRIDAL SHOPPE",
    "description": "Bridal Shops",
    "phone": "(941) 366-1234",
    "address": "1273 Beneva Rd  Sarasota, FL 34232",
    "location": "Gulf"
  },
  {
    "name": "Velella Reasearch Inc",
    "description": "Women's Clothing",
    "phone": "(941) 953-1948",
    "address": "2750 Bahia Vista St Ste 134  Sarasota, FL 34239",
    "location": "Gulf"
  },
  {
    "name": "Designer Consigner of Sarasota",
    "description": "Consignment Service",
    "phone": "(941) 953-5995",
    "address": "3639 Bahia Vista St  Sarasota, FL 34232",
    "location": "Gulf"
  },
  {
    "name": "Pine Craft Discount Market",
    "description": "Department Stores",
    "phone": "(941) 260-9046",
    "address": "3667 Bahia Vista St  Sarasota, FL 34232",
    "location": "Gulf"
  },
  {
    "name": "Stylish Benefactor",
    "description": "Women's Clothing",
    "phone": "(877) 310-3817",
    "address": "4785 Maid Marian Ln  Sarasota, FL 34232",
    "location": "Gulf"
  },
  {
    "name": "Oh My Gauze of Wisconsin Inc",
    "description": "Women's Clothing",
    "phone": "(941) 953-9046",
    "address": "502 N Spoonbill Dr  Sarasota, FL 34236",
    "location": "Gulf"
  },
  {
    "name": "Southside Sports Inc",
    "description": "Sporting Goods",
    "phone": "(941) 379-5688",
    "address": "2427 Porter Lake Dr Ste 106  Sarasota, FL 34240",
    "location": "Gulf"
  },
  {
    "name": "Ann Taylor Roman",
    "description": "Women's Clothing",
    "phone": "(941) 735-4975",
    "address": "766 S Osprey Ave  Sarasota, FL 34236",
    "location": "Gulf"
  },
  {
    "name": "Aluminum Specialties Wholesale",
    "description": "Aluminum Products",
    "phone": "(941) 371-3380",
    "address": "2245 Porter Lake Dr  Sarasota, FL 34240",
    "location": "Gulf"
  },
  {
    "name": "CK DANCE SHOES & ACCESSORIES",
    "description": "Dancing Supplies",
    "phone": "(239) 826-6089",
    "address": "1985 Cattlemen Rd Unit 3  Sarasota, FL 34232",
    "location": "Gulf"
  },
  {
    "name": "Fleet Feet Sports",
    "description": "Shoe Stores",
    "phone": "(941) 894-3338",
    "address": "711 S Osprey Ave Ste 1  Sarasota, FL 34236",
    "location": "Gulf"
  },
  {
    "name": "Oh My Gauze Inc",
    "description": "Women's Clothing",
    "phone": "(941) 377-6560",
    "address": "2123 Porter Lake Dr  Sarasota, FL 34240",
    "location": "Gulf"
  },
  {
    "name": "Best Buy Awards",
    "description": "Department Stores",
    "phone": "(941) 377-6307",
    "address": "1655 Cattlemen Rd  Sarasota, FL 34232",
    "location": "Gulf"
  },
  {
    "name": "Imagination & Company",
    "description": "Department Stores",
    "phone": "(941) 371-5238",
    "address": "1575 Cattlemen Rd  Sarasota, FL 34232",
    "location": "Gulf"
  },
  {
    "name": "Dr. Ann Taylor Roman, Counseling and Clinical Psychology",
    "description": "Women's Clothing",
    "phone": "(941) 951-7516",
    "address": "315 Julia Pl  Sarasota, FL 34236",
    "location": "Gulf"
  },
  {
    "name": "Clever Rose",
    "description": "Women's Clothing",
    "phone": "(941) 321-4628",
    "address": "533 S Pineapple Ave  Sarasota, FL 34236",
    "location": "Gulf"
  },
  {
    "name": "Latelier F",
    "description": "Women's Clothing",
    "phone": "(941) 366-1000",
    "address": "538 S Pineapple Ave  Sarasota, FL 34236",
    "location": "Gulf"
  },
  {
    "name": "Lululemon",
    "description": "Sportswear",
    "phone": "(941) 366-6856",
    "address": "330 S Pineapple Ave  Sarasota, FL 34236",
    "location": "Gulf"
  },
  {
    "name": "Rahelia Couture",
    "description": "Boutique Items",
    "phone": "(941) 300-1600",
    "address": "1420 Ringling Blvd,  Sarasota, FL 34236",
    "location": "Gulf"
  },
  {
    "name": "Martin Aluminum",
    "description": "Aluminum Products",
    "phone": "(941) 953-9890",
    "address": "1701 Ringling Blvd  Sarasota, FL 34236",
    "location": "Gulf"
  },
  {
    "name": "Apricot Lane Boutique",
    "description": "Women's Clothing",
    "phone": "(941) 960-1435",
    "address": "464 John Ringling Boulevard St. Armand S Circle  Sarasota, FL 34236",
    "location": "Gulf"
  },
  {
    "name": "Aliki Yamani Creations",
    "description": "Women's Clothing",
    "phone": "(941) 957-6499",
    "address": "1662 Main St  Sarasota, FL 34236",
    "location": "Gulf"
  },
  {
    "name": "The Girl From Brazil",
    "description": "Women's Clothing",
    "phone": "(941) 350-4633",
    "address": "1650 Main St  Sarasota, FL 34236",
    "location": "Gulf"
  },
  {
    "name": "Wearable Art",
    "description": "Women's Clothing",
    "phone": "(941) 957-0105",
    "address": "1424 State St  Sarasota, FL 34236",
    "location": "Gulf"
  },
  {
    "name": "Evelyn & Arthur",
    "description": "Women's Clothing",
    "phone": "(941) 365-2210",
    "address": "1480 Main St  Sarasota, FL 34236",
    "location": "Gulf"
  },
  {
    "name": "Eileen Fisher",
    "description": "Women's Clothing",
    "phone": "(941) 365-2435",
    "address": "1501 Main St  Sarasota, FL 34236",
    "location": "Gulf"
  },
  {
    "name": "Eileen Fisher Store",
    "description": "Women's Clothing",
    "phone": "(941) 365-2435",
    "address": "1501 Main St  Sarasota, FL 34236",
    "location": "Gulf"
  },
  {
    "name": "Juno & Jove Inc",
    "description": "Department Stores",
    "phone": "(941) 953-9500",
    "address": "1343 Main St  Sarasota, FL 34236",
    "location": "Gulf"
  },
  {
    "name": "European Alteration By Toni",
    "description": "Clothing Alterations",
    "phone": "(941) 388-1917",
    "address": "20 S Adams Dr  Sarasota, FL 34236",
    "location": "Gulf"
  },
  {
    "name": "Patchington",
    "description": "Women's Clothing",
    "phone": "(941) 822-0844",
    "address": "1467 Main St  Sarasota, FL 34236",
    "location": "Gulf"
  },
  {
    "name": "Jake's Downtown",
    "description": "Department Stores",
    "phone": "(941) 955-5253",
    "address": "1463 Main St  Sarasota, FL 34236",
    "location": "Gulf"
  },
  {
    "name": "Gia Ventola",
    "description": "Women's Clothing",
    "phone": "(941) 706-0423",
    "address": "14 S Blvd Of The Presidents  Sarasota, FL 34236",
    "location": "Gulf"
  },
  {
    "name": "Lotus",
    "description": "Boutique Items",
    "phone": "(941) 906-7080",
    "address": "1451 Main St  Sarasota, FL 34236",
    "location": "Gulf"
  },
  {
    "name": "Terra Nova",
    "description": "Women's Clothing",
    "phone": "(941) 388-0410",
    "address": "353 Saint Armands Cir  Sarasota, FL 34236",
    "location": "Gulf"
  },
  {
    "name": "Fantasea Coastal Home Inc",
    "description": "Home Furnishings",
    "phone": "(941) 388-3031",
    "address": "378 Saint Armands Cir  Sarasota, FL 34236",
    "location": "Gulf"
  },
  {
    "name": "Dream Weaver",
    "description": "Women's Clothing",
    "phone": "(941) 388-3706",
    "address": "364 Saint Armands Cir  Sarasota, FL 34236",
    "location": "Gulf"
  },
  {
    "name": "Destination Florida",
    "description": "Sportswear",
    "phone": "(941) 388-2119",
    "address": "370 Saint Armands Cir  Sarasota, FL 34236",
    "location": "Gulf"
  },
  {
    "name": "PJ's Boutique",
    "description": "Women's Clothing",
    "phone": "(941) 366-3900",
    "address": "1443 Main St  Sarasota, FL 34236",
    "location": "Gulf"
  },
  {
    "name": "Natural Discoveries",
    "description": "Women's Clothing",
    "phone": "(941) 388-1600",
    "address": "320 John Ringling Blvd  Sarasota, FL 34236",
    "location": "Gulf"
  },
  {
    "name": "Juno & Jove",
    "description": "Department Stores",
    "phone": "(941) 957-0000",
    "address": "1425 1st St  Sarasota, FL 34236",
    "location": "Gulf"
  },
  {
    "name": "LaBella Intimates & Boutique",
    "description": "Bras",
    "phone": "(941) 366-4477",
    "address": "1415 1st St  Sarasota, FL 34236",
    "location": "Gulf"
  },
  {
    "name": "Foxy Lady-West",
    "description": "Women's Clothing",
    "phone": "(941) 388-5239",
    "address": "481 John Ringling Blvd  Sarasota, FL 34236",
    "location": "Gulf"
  },
  {
    "name": "Fresh Produce Sportswear",
    "description": "Sportswear",
    "phone": "(941) 388-1883",
    "address": "1 N Blvd Of The Presidents  Sarasota, FL 34236",
    "location": "Gulf"
  },
  {
    "name": "Expression of Fashion",
    "description": "Women's Clothing",
    "phone": "(941) 365-9440",
    "address": "3327 Ramblewood Way  Sarasota, FL 34237",
    "location": "Gulf"
  },
  {
    "name": "Flow N Roll Jiu Jitsu Custom Apparel",
    "description": "Sportswear",
    "phone": "(941) 544-8799",
    "address": "5317 Fruitville Rd Ste 110  Sarasota, FL 34232",
    "location": "Gulf"
  },
  {
    "name": "Play It Again Sports",
    "description": "Sporting Goods",
    "phone": "(941) 378-1477",
    "address": "5407 Fruitville Rd  Sarasota, FL 34232",
    "location": "Gulf"
  },
  {
    "name": "Mindful Medicinal CBD Dispensary and Spa",
    "description": "Department Stores",
    "phone": "(941) 388-7289",
    "address": "5483 Fruitville Rd  Sarasota, FL 34232",
    "location": "Gulf"
  },
  {
    "name": "Mary's Discount Inc",
    "description": "Discount Stores",
    "phone": "(941) 366-1762",
    "address": "1155 N Washington Blvd  Sarasota, FL 34236",
    "location": "Gulf"
  },
  {
    "name": "Kate Spade",
    "description": "Women's Clothing",
    "phone": "(941) 866-6591",
    "address": "198 Cattlemen Rd  Sarasota, FL 34232",
    "location": "Gulf"
  },
  {
    "name": "Dollar Daze of Sarasota Inc",
    "description": "Variety Stores",
    "phone": "(941) 217-6549",
    "address": "1175 N Washington Blvd  Sarasota, FL 34236",
    "location": "Gulf"
  },
  {
    "name": "J Phillip Apparel",
    "description": "Women's Clothing",
    "phone": "(941) 954-8933",
    "address": "2401 15th St  Sarasota, FL 34237",
    "location": "Gulf"
  },
  {
    "name": "First Lady Botique",
    "description": "Boutique Items",
    "phone": "(941) 312-5565",
    "address": "1709 Chrysler Ave  Sarasota, FL 34234",
    "location": "Gulf"
  },
  {
    "name": "Oh My Gauze",
    "description": "Women's Clothing",
    "phone": "(941) 342-4992",
    "address": "2446 19th St  Sarasota, FL 34234",
    "location": "Gulf"
  },
  {
    "name": "Designing Women Boutique",
    "description": "Consignment Service",
    "phone": "(941) 366-5293",
    "address": "1226 N Tamiami Trl Ste 101  Sarasota, FL 34236",
    "location": "Gulf"
  },
  {
    "name": "Tatiana Fashions",
    "description": "Lingerie",
    "phone": "(941) 488-0995",
    "address": "201 Hills Rd  Nokomis, FL 34275",
    "location": "Gulf"
  },
  {
    "name": "Azuma",
    "description": "Women's Clothing",
    "phone": "(941) 358-3388",
    "address": "4366 Independence Ct  Sarasota, FL 34234",
    "location": "Gulf"
  },
  {
    "name": "Town & Country Industries",
    "description": "Aluminum Products",
    "phone": "(941) 355-7627",
    "address": "2320 Industrial Blvd  Sarasota, FL 34234",
    "location": "Gulf"
  },
  {
    "name": "J & J Apparel",
    "description": "Women's Clothing",
    "phone": "(941) 360-6685",
    "address": "2201 Industrial Blvd  Sarasota, FL 34234",
    "location": "Gulf"
  },
  {
    "name": "Sunshine Apparel Of Sarasota",
    "description": "Sportswear-Wholesale & Manufacturers",
    "phone": "(941) 351-3308",
    "address": "1816 57th St  Sarasota, FL 34243",
    "location": "Gulf"
  },
  {
    "name": "Eilieen Fisher",
    "description": "Women's Clothing",
    "phone": "(941) 952-3605",
    "address": "5033 Eastchester Dr  Sarasota, FL 34234",
    "location": "Gulf"
  },
  {
    "name": "ZAGG University Town Center",
    "description": "Shoe Stores",
    "phone": "(941) 667-0934",
    "address": "140 University Town Center Dr  Sarasota, FL 34243",
    "location": "Gulf"
  },
  {
    "name": "Madewell",
    "description": "Women's Clothing",
    "phone": "(941) 299-0190",
    "address": "140 University Town Center Dr Unit 266  Sarasota, FL 34243",
    "location": "Gulf"
  },
  {
    "name": "Anthropologie",
    "description": "Women's Clothing",
    "phone": "(941) 306-4513",
    "address": "140 University Town Center Dr  Sarasota, FL 34243",
    "location": "Gulf"
  },
  {
    "name": "Victoria's Secret & PINK by Victoria's Secret",
    "description": "Lingerie",
    "phone": "(941) 893-3935",
    "address": "140 University Town Center Dr  Sarasota, FL 34243",
    "location": "Gulf"
  },
  {
    "name": "Foot Locker",
    "description": "Shoe Stores",
    "phone": "(941) 893-3919",
    "address": "140 University Town Center Dr Unit 208  Sarasota, FL 34243",
    "location": "Gulf"
  },
  {
    "name": "Michael Kors",
    "description": "Women's Clothing",
    "phone": "(941) 527-4200",
    "address": "140 University Town Center Dr Unit 225  Sarasota, FL 34243",
    "location": "Gulf"
  },
  {
    "name": "Vans",
    "description": "Shoe Stores",
    "phone": "(941) 225-6670",
    "address": "140 University Town Center Dr Unit 168  Sarasota, FL 34243",
    "location": "Gulf"
  },
  {
    "name": "bebe",
    "description": "Women's Clothing",
    "phone": "(941) 702-9926",
    "address": "140 University Town Center Dr Unit 168  Sarasota, FL 34243",
    "location": "Gulf"
  },
  {
    "name": "BCBGMAXAZRIA",
    "description": "Women's Clothing",
    "phone": "(941) 281-7008",
    "address": "140 University Town Center Dr Unit 273  Sarasota, FL 34243",
    "location": "Gulf"
  },
  {
    "name": "Clarks",
    "description": "Women's Clothing",
    "phone": "(941) 893-1080",
    "address": "140 University Town Center Dr Unit 290  Sarasota, FL 34243",
    "location": "Gulf"
  },
  {
    "name": "Fabletics",
    "description": "Women's Clothing",
    "phone": "(941) 263-1320",
    "address": "140 University Town Center Dr  Sarasota, FL 34243",
    "location": "Gulf"
  },
  {
    "name": "Soft Surroundings",
    "description": "Women's Clothing",
    "phone": "(941) 444-3550",
    "address": "140 University Town Center Dr  Sarasota, FL 34243",
    "location": "Gulf"
  },
  {
    "name": "Johnston & Murphy",
    "description": "Shoe Stores",
    "phone": "(941) 702-9666",
    "address": "140 University Town Center Dr  Sarasota, FL 34243",
    "location": "Gulf"
  },
  {
    "name": "Sears Outlet",
    "description": "Discount Stores",
    "phone": "(941) 355-8331",
    "address": "8333 Lockwood Ridge Rd  Sarasota, FL 34243",
    "location": "Gulf"
  },
  {
    "name": "Rei",
    "description": "Sporting Goods",
    "phone": "(941) 899-0138",
    "address": "161 N Cattlemen Rd  Sarasota, FL 34243",
    "location": "Gulf"
  },
  {
    "name": "Golf Galaxy",
    "description": "Golf Equipment & Supplies",
    "phone": "(941) 351-7945",
    "address": "143 N Cattlemen Rd  Sarasota, FL 34243",
    "location": "Gulf"
  },
  {
    "name": "DressBarn",
    "description": "Women's Clothing",
    "phone": "(941) 355-7238",
    "address": "119 N Cattlemen Rd  Sarasota, FL 34243",
    "location": "Gulf"
  },
  {
    "name": "Dillard's",
    "description": "Department Stores",
    "phone": "(941) 527-4878",
    "address": "200 University Town Center Dr  Sarasota, FL 34243",
    "location": "Gulf"
  },
  {
    "name": "Flying Fish Outfitters",
    "description": "Camping Equipment",
    "phone": "(941) 412-4512",
    "address": "303 Tamiami Trl S Ste H  Nokomis, FL 34275",
    "location": "Gulf"
  },
  {
    "name": "The Colony Beach Shop",
    "description": "Sportswear",
    "phone": "(941) 383-6431",
    "address": "1620 Gulf Of Mexico Dr  Longboat Key, FL 34228",
    "location": "Gulf"
  },
  {
    "name": "Scout & Molly's",
    "description": "Women's Clothing",
    "phone": "(941) 210-4686",
    "address": "5275 University Pkwy  University Park, FL 34201",
    "location": "Gulf"
  },
  {
    "name": "Treasures",
    "description": "Discount Stores",
    "phone": "(941) 882-4467",
    "address": "523 Us Highway 41 Byp  Venice, FL 34285",
    "location": "Gulf"
  },
  {
    "name": "Treasures Benefitting Tidewell",
    "description": "Discount Stores",
    "phone": "(941) 882-4467",
    "address": "523 Us Highway 41 Byp N  Venice, FL 34285",
    "location": "Gulf"
  },
  {
    "name": "Lane Bryant - Closed",
    "description": "Women's Clothing",
    "phone": "(941) 351-3013",
    "address": "8129 Cooper Creek Blvd  University Park, FL 34201",
    "location": "Gulf"
  },
  {
    "name": "Barefoot Contessa",
    "description": "Women's Clothing",
    "phone": "(941) 484-1898",
    "address": "305 W Venice Ave  Venice, FL 34285",
    "location": "Gulf"
  },
  {
    "name": "Lisa's Classic Rose",
    "description": "Women's Clothing",
    "phone": "(941) 488-7788",
    "address": "303B W Venice Ave  Venice, FL 34285",
    "location": "Gulf"
  },
  {
    "name": "Butterfly Boutique",
    "description": "Boutique Items",
    "phone": "(941) 706-1333",
    "address": "7652 Lockwood Ridge Rd  Sarasota, FL 34243",
    "location": "Gulf"
  },
  {
    "name": "Montgomery Ward",
    "description": "Department Stores",
    "phone": "(941) 360-9262",
    "address": "1703 Tallevast Rd  Sarasota, FL 34243",
    "location": "Gulf"
  },
  {
    "name": "Unique Wholesale Distr Inc",
    "description": "General Merchandise",
    "phone": "(941) 355-1719",
    "address": "7509 Pennsylvania Ave  Sarasota, FL 34243",
    "location": "Gulf"
  },
  {
    "name": "Sun & Starsouls Inc",
    "description": "General Merchandise",
    "phone": "(941) 752-8039",
    "address": "6477 Parkland Dr  Sarasota, FL 34243",
    "location": "Gulf"
  },
  {
    "name": "Sunbug at Venice",
    "description": "Women's Clothing",
    "phone": "(941) 485-7946",
    "address": "141 W Venice Ave  Venice, FL 34285",
    "location": "Gulf"
  },
  {
    "name": "American Shore Trading Company",
    "description": "Men's Clothing",
    "phone": "(941) 907-1122",
    "address": "8131 Lakewood Main St Ste 106  Lakewood Ranch, FL 34202",
    "location": "Gulf"
  },
  {
    "name": "Beall's Corporate Offices",
    "description": "Department Stores",
    "phone": "(941) 747-2355",
    "address": "1806 38th Ave E  Bradenton, FL 34208",
    "location": "Gulf"
  },
  {
    "name": "Walmart Garden Center",
    "description": "General Merchandise",
    "phone": "(941) 798-9341",
    "address": "5315 Cortez Rd W  Bradenton, FL 34210",
    "location": "Gulf"
  },
  {
    "name": "Walmart Auto Care Centers",
    "description": "General Merchandise",
    "phone": "(941) 497-0501",
    "address": "4150 S Tamiami Trl  Venice, FL 34293",
    "location": "Gulf"
  },
  {
    "name": "DICK'S Sporting Goods",
    "description": "Exercise & Fitness Equipment",
    "phone": "(941) 751-6900",
    "address": "4108 14th St W  Bradenton, FL 34205",
    "location": "Gulf"
  },
  {
    "name": "St Marco Boutique",
    "description": "Boutique Items",
    "phone": "(941) 488-5600",
    "address": "239 W Venice Ave  Venice, FL 34285",
    "location": "Gulf"
  },
  {
    "name": "Erika's Holiday Dreams",
    "description": "Department Stores",
    "phone": "(941) 486-4235",
    "address": "140 W Venice Ave  Venice, FL 34285",
    "location": "Gulf"
  },
  {
    "name": "THE SOCIAL BUTTERFLY",
    "description": "Resale Shops",
    "phone": "(941) 914-3207",
    "address": "101 W Venice Ave Ste 7  Venice, FL 34285",
    "location": "Gulf"
  },
  {
    "name": "US Mart",
    "description": "Department Stores",
    "phone": "(941) 412-1872",
    "address": "101 W Venice Ave Ste 12  Venice, FL 34285",
    "location": "Gulf"
  },
  {
    "name": "T R L Enterprises Inc",
    "description": "Women's Clothing",
    "phone": "(941) 387-3733",
    "address": "525 Bay Isles Pkwy  Longboat Key, FL 34228",
    "location": "Gulf"
  },
  {
    "name": "Attitudes On Maine Street",
    "description": "Women's Clothing",
    "phone": "(941) 929-2928",
    "address": "8141 Lakewood Ranch Blvd  Lakewood Ranch, FL 34202",
    "location": "Gulf"
  },
  {
    "name": "China Wok",
    "description": "Women's Clothing",
    "phone": "(941) 488-1988",
    "address": "1455 E Venice Ave  Venice, FL 34292",
    "location": "Gulf"
  },
  {
    "name": "Amf",
    "description": "Bowling",
    "phone": "(941) 484-0666",
    "address": "1100 Us Highway 41 Byp S  Venice, FL 34285",
    "location": "Gulf"
  },
  {
    "name": "J & W All American Gen Store",
    "description": "Variety Stores",
    "phone": "(941) 882-4453",
    "address": "1740 E Venice Ave  Venice, FL 34292",
    "location": "Gulf"
  },
  {
    "name": "SinCity Playwear",
    "description": "Swimwear & Accessories",
    "phone": "(800) 553-8478",
    "address": "1532 Us Highway 41 Byp S  Venice, FL 34293",
    "location": "Gulf"
  },
  {
    "name": "Walmart Wireless Services",
    "description": "General Merchandise",
    "phone": "(941) 799-5546",
    "address": "5810 Ranch Lake Blvd  Bradenton, FL 34202",
    "location": "Gulf"
  },
  {
    "name": "Bon Worth",
    "description": "Women's Clothing",
    "phone": "(941) 755-5626",
    "address": "6110 14th St W  Bradenton, FL 34207",
    "location": "Gulf"
  },
  {
    "name": "Bradenton Fashion And Cap City",
    "description": "Women's Clothing",
    "phone": "(941) 753-1555",
    "address": "1427 57th Ave E  Bradenton, FL 34203",
    "location": "Gulf"
  },
  {
    "name": "Your CBD Store",
    "description": "Department Stores",
    "phone": "(941) 782-8191",
    "address": "8724 State Road 70 E  Bradenton, FL 34202",
    "location": "Gulf"
  },
  {
    "name": "Walmart Grocery Pickup",
    "description": "Department Stores",
    "phone": "(941) 374-0539",
    "address": "4536 53rd Ave E  Bradenton, FL 34203",
    "location": "Gulf"
  },
  {
    "name": "Walmart Auto Care Center",
    "description": "General Merchandise",
    "phone": "(941) 752-0025",
    "address": "2911 53rd Ave E  Bradenton, FL 34203",
    "location": "Gulf"
  },
  {
    "name": "Supermatt",
    "description": "Department Stores",
    "phone": "(941) 226-2321",
    "address": "5026 15th St E  Bradenton, FL 34203",
    "location": "Gulf"
  },
  {
    "name": "HR Sportswear",
    "description": "Sportswear",
    "phone": "(941) 209-1790",
    "address": "5002 Lena Rd Unit 112  Bradenton, FL 34211",
    "location": "Gulf"
  },
  {
    "name": "Bealls Westgate Corp",
    "description": "Department Stores",
    "phone": "(941) 747-2355",
    "address": "1806 38th Ave E  Bradenton, FL 34208",
    "location": "Gulf"
  },
  {
    "name": "Jackson Hewitt Tax Service in Walmart",
    "description": "General Merchandise",
    "phone": "(941) 497-1250",
    "address": "4150 Tamiami Trl S  Venice, FL 34293",
    "location": "Gulf"
  },
  {
    "name": "Pier One",
    "description": "Department Stores",
    "phone": "(941) 497-6300",
    "address": "4210 S Tamiami Trl  Venice, FL 34293",
    "location": "Gulf"
  },
  {
    "name": "Optical Outlet",
    "description": "Optical Goods",
    "phone": "(941) 727-0345",
    "address": "1105 Cortez Rd W  Bradenton, FL 34207",
    "location": "Gulf"
  },
  {
    "name": "Loyaltyfitsportwear",
    "description": "Exercise & Fitness Equipment",
    "phone": "(941) 666-4273",
    "address": "4880 51st St W  Bradenton, FL 34210",
    "location": "Gulf"
  }
]