[
  {
    "name": "Bealls Department Store",
    "description": "Clothing Stores",
    "phone": "(386) 427-1358",
    "address": "727 E 3rd Ave  New Smyrna Beach, FL 32169",
    "location": "Hamilton"
  },
  {
    "name": "My Girlfriends Closet Inc",
    "description": "Clothing Stores",
    "phone": "(386) 957-4907",
    "address": "320 Flagler Ave  New Smyrna Beach, FL 32169",
    "location": "Hamilton"
  },
  {
    "name": "Grom Gear",
    "description": "Clothing Stores",
    "phone": "(386) 423-3004",
    "address": "100 N Cooper St Unit 4  New Smyrna Beach, FL 32169",
    "location": "Hamilton"
  },
  {
    "name": "Beachwear Outlet",
    "description": "Clothing Stores",
    "phone": "(386) 423-5456",
    "address": "4170 S Atlantic Ave  New Smyrna Beach, FL 32169",
    "location": "Hamilton"
  },
  {
    "name": "Oceanwear Earth",
    "description": "Clothing Stores",
    "phone": "(386) 405-0636",
    "address": "55 Inlet Point Blvd  Ponce Inlet, FL 32127",
    "location": "Hamilton"
  },
  {
    "name": "Unique Styles & Fashion Accessories",
    "description": "Clothing Stores",
    "phone": "(954) 880-7572",
    "address": "1856 Sabal Palm Dr  Edgewater, FL 32141",
    "location": "Hamilton"
  },
  {
    "name": "Miche Bag of Daytona Beach",
    "description": "Clothing Stores",
    "phone": "(305) 302-4006",
    "address": "2024 Hibiscus Dr  Edgewater, FL 32141",
    "location": "Hamilton"
  },
  {
    "name": "Prep School Vintage",
    "description": "Clothing Stores",
    "phone": "(386) 453-9978",
    "address": "94 Jana Dr  Ponce Inlet, FL 32127",
    "location": "Hamilton"
  },
  {
    "name": "Rue 21",
    "description": "Clothing Stores",
    "phone": "(386) 761-0421",
    "address": "5509 S Wlmsn Blvd St 105  Port Orange, FL 32128",
    "location": "Hamilton"
  },
  {
    "name": "MANO SUITS LLC",
    "description": "Clothing Stores",
    "phone": "(386) 225-6816",
    "address": "1657 Taylor Rd Ste 108  Port Orange, FL 32128",
    "location": "Hamilton"
  },
  {
    "name": "Diversified Sales Co",
    "description": "Clothing Stores",
    "phone": "(386) 761-6642",
    "address": "413 Oak Pl  Port Orange, FL 32127",
    "location": "Hamilton"
  },
  {
    "name": "Lots A Panache",
    "description": "Clothing Stores",
    "phone": "(386) 310-3069",
    "address": "3751 Clyde Morris Blvd  Port Orange, FL 32129",
    "location": "Hamilton"
  },
  {
    "name": "Jopp's Tack Inc",
    "description": "Clothing Stores",
    "phone": "(386) 761-4756",
    "address": "2579 Tribble Dr  Port Orange, FL 32128",
    "location": "Hamilton"
  },
  {
    "name": "Stein Mart",
    "description": "Clothing Stores",
    "phone": "(386) 257-3363",
    "address": "2500 W International Speedway Blvd  Daytona Beach, FL 32114",
    "location": "Hamilton"
  },
  {
    "name": "Citi Trends",
    "description": "Clothing Stores",
    "phone": "(386) 492-0600",
    "address": "878 N Nova Rd  Daytona Beach, FL 32117",
    "location": "Hamilton"
  },
  {
    "name": "Buckle",
    "description": "Clothing Stores",
    "phone": "(386) 252-8279",
    "address": "1700 W International Speedway Blvd  Daytona Beach, FL 32114",
    "location": "Hamilton"
  },
  {
    "name": "Jimmy Jazz",
    "description": "Clothing Stores",
    "phone": "(386) 257-3838",
    "address": "1700 W International Speedway Blvd Ste 240  Daytona Beach, FL 32114",
    "location": "Hamilton"
  },
  {
    "name": "Hot Topic",
    "description": "Clothing Stores",
    "phone": "(386) 258-1730",
    "address": "1700 W International Speedway Blvd  Daytona Beach, FL 32114",
    "location": "Hamilton"
  },
  {
    "name": "Purple Haze",
    "description": "Clothing Stores",
    "phone": "(386) 254-6945",
    "address": "2250 S Atlantic Ave  Daytona Beach, FL 32118",
    "location": "Hamilton"
  },
  {
    "name": "PacSun",
    "description": "Clothing Stores",
    "phone": "(386) 252-9772",
    "address": "1700 W International Speedway Blvd  Daytona Beach, FL 32114",
    "location": "Hamilton"
  },
  {
    "name": "Burlington Coat Factory",
    "description": "Clothing Stores",
    "phone": "(386) 947-8148",
    "address": "1008 W International Speedway Blvd  Daytona Beach, FL 32114",
    "location": "Hamilton"
  },
  {
    "name": "T.J.Maxx",
    "description": "Clothing Stores",
    "phone": "(386) 681-1076",
    "address": "2455 W International Speedway Blvd Ste 800  Daytona Beach, FL 32114",
    "location": "Hamilton"
  },
  {
    "name": "V.I. DIVAZ BOUTIQUE",
    "description": "Clothing Stores",
    "phone": "(386) 898-2276",
    "address": "1363 Beville Rd  Daytona Beach, FL 32119",
    "location": "Hamilton"
  },
  {
    "name": "Charlotte Russe",
    "description": "Clothing Stores",
    "phone": "(386) 255-2167",
    "address": "1698 W International Speedway Blvd  Daytona Beach, FL 32114",
    "location": "Hamilton"
  },
  {
    "name": "Aeropostale",
    "description": "Clothing Stores",
    "phone": "(386) 257-5028",
    "address": "1700 W International Speedway Blvd  Daytona Beach, FL 32114",
    "location": "Hamilton"
  },
  {
    "name": "Unlimited",
    "description": "Clothing Stores",
    "phone": "(386) 257-2424",
    "address": "1700 W International Speedway Blvd  Daytona Beach, FL 32114",
    "location": "Hamilton"
  },
  {
    "name": "Abercrombie & Fitch",
    "description": "Clothing Stores",
    "phone": "(386) 238-3470",
    "address": "1700 W International Speedway Blvd Ste 124  Daytona Beach, FL 32114",
    "location": "Hamilton"
  },
  {
    "name": "First Look Fashion",
    "description": "Clothing Stores",
    "phone": "(386) 258-4756",
    "address": "1700 W International Speedway Blvd  Daytona Beach, FL 32114",
    "location": "Hamilton"
  },
  {
    "name": "H&M",
    "description": "Clothing Stores",
    "phone": "(855) 466-7467",
    "address": "1700 W International Speedway Blvd  Daytona Beach, FL 32114",
    "location": "Hamilton"
  },
  {
    "name": "Tommy Hilfiger",
    "description": "Clothing Stores",
    "phone": "(386) 254-3230",
    "address": "1700 W International Speedway Blvd  Daytona Beach, FL 32114",
    "location": "Hamilton"
  },
  {
    "name": "East Coast Customs",
    "description": "Clothing Stores",
    "phone": "(386) 256-7557",
    "address": "1700 W International Speedway Blvd  Daytona Beach, FL 32114",
    "location": "Hamilton"
  },
  {
    "name": "Aéropostale",
    "description": "Clothing Stores",
    "phone": "(386) 257-5028",
    "address": "1700 W International Speedway Blvd  Daytona Beach, FL 32114",
    "location": "Hamilton"
  },
  {
    "name": "Rainbow Shops",
    "description": "Clothing Stores",
    "phone": "(386) 238-6484",
    "address": "892 N Nova Rd  Daytona Beach, FL 32117",
    "location": "Hamilton"
  },
  {
    "name": "5.11 Tactical",
    "description": "Clothing Stores",
    "phone": "(386) 888-8356",
    "address": "1115 Cornerstone Blvd Unit B  Daytona Beach, FL 32117",
    "location": "Hamilton"
  },
  {
    "name": "VF Outlet",
    "description": "Clothing Stores",
    "phone": "(386) 274-4926",
    "address": "1100 Cornerstone Blvd  Daytona Beach, FL 32117",
    "location": "Hamilton"
  },
  {
    "name": "J.Crew Factory",
    "description": "Clothing Stores",
    "phone": "(386) 274-4051",
    "address": "1100 Cornerstone Blvd Ste 690  Daytona Beach, FL 32117",
    "location": "Hamilton"
  },
  {
    "name": "American Eagle & Aerie",
    "description": "Clothing Stores",
    "phone": "(386) 281-4178",
    "address": "1100 Cornerstone Blvd Ste 250  Daytona Beach, FL 32117",
    "location": "Hamilton"
  },
  {
    "name": "Express Factory Outlet",
    "description": "Clothing Stores",
    "phone": "(386) 233-9078",
    "address": "1100 Cornerstone Blvd  Daytona Beach, FL 32117",
    "location": "Hamilton"
  },
  {
    "name": "Gap Factory",
    "description": "Clothing Stores",
    "phone": "(386) 274-2970",
    "address": "1100 Cornerstone Blvd Ste 400  Daytona Beach, FL 32117",
    "location": "Hamilton"
  },
  {
    "name": "J. Crew Factory Store",
    "description": "Clothing Stores",
    "phone": "(386) 274-4051",
    "address": "1100 Cornerstone Blvd  Daytona Beach, FL 32117",
    "location": "Hamilton"
  },
  {
    "name": "Columbia Factory Store",
    "description": "Clothing Stores",
    "phone": "(386) 682-3985",
    "address": "1100 Cornerstone Blvd Ste 105  Daytona Beach, FL 32117",
    "location": "Hamilton"
  },
  {
    "name": "Hollister",
    "description": "Clothing Stores",
    "phone": "(386) 888-3682",
    "address": "1100 Cornerstone Blvd  Daytona Beach, FL 32117",
    "location": "Hamilton"
  },
  {
    "name": "Hanesbrands",
    "description": "Clothing Stores",
    "phone": "(386) 274-4457",
    "address": "1100 Cornerstone Blvd  Daytona Beach, FL 32117",
    "location": "Hamilton"
  },
  {
    "name": "Ralph Lauren",
    "description": "Clothing Stores",
    "phone": "(386) 274-1304",
    "address": "1100 Cornerstone Blvd  Daytona Beach, FL 32117",
    "location": "Hamilton"
  },
  {
    "name": "GUESS Factory",
    "description": "Clothing Stores",
    "phone": "(386) 506-8086",
    "address": "1100 Cornerstone Blvd Ste 990  Daytona Beach, FL 32117",
    "location": "Hamilton"
  },
  {
    "name": "Old Navy",
    "description": "Clothing Stores",
    "phone": "(386) 274-4971",
    "address": "1100 Cornerstone Blvd  Daytona Beach, FL 32117",
    "location": "Hamilton"
  },
  {
    "name": "Salt Life",
    "description": "Clothing Stores",
    "phone": "(904) 595-5375",
    "address": "1100 Cornerstone Blvd  Daytona Beach, FL 32117",
    "location": "Hamilton"
  },
  {
    "name": "Tommy Bahama",
    "description": "Clothing Stores",
    "phone": "(386) 350-6668",
    "address": "1100 Cornerstone Blvd  Daytona Beach, FL 32117",
    "location": "Hamilton"
  },
  {
    "name": "BB’S Boutique",
    "description": "Clothing Stores",
    "phone": "(386) 999-0480",
    "address": "1100 Cornerstone Blvd Ste #850  Daytona Beach, FL 32117",
    "location": "Hamilton"
  },
  {
    "name": "Banana Republic",
    "description": "Clothing Stores",
    "phone": "(386) 274-1804",
    "address": "1473 Cornerstone Blvd  Daytona Beach, FL 32117",
    "location": "Hamilton"
  },
  {
    "name": "First Uniform Inc",
    "description": "Clothing Stores",
    "phone": "(386) 425-0196",
    "address": "303 N Clyde Morris Blvd  Daytona Beach, FL 32114",
    "location": "Hamilton"
  },
  {
    "name": "NSB Clothing Co",
    "description": "Clothing Stores",
    "phone": "(386) 523-2858",
    "address": "944 W International Speedway Blvd  Daytona Beach, FL 32114",
    "location": "Hamilton"
  },
  {
    "name": "Cotton On",
    "description": "Clothing Stores",
    "phone": "(386) 258-2262",
    "address": "1700 W International Speedway Blvd  Daytona Beach, FL 32114",
    "location": "Hamilton"
  },
  {
    "name": "Avon Independant Sales Rep",
    "description": "Clothing Stores",
    "phone": "(352) 318-2179",
    "address": "140 W International Speedway Blvd  Daytona Beach, FL 32114",
    "location": "Hamilton"
  },
  {
    "name": "Bealls",
    "description": "Clothing Stores",
    "phone": "(386) 428-5974",
    "address": "1998 State Road 44 Ste 1  New Smyrna Beach, FL 32168",
    "location": "Hamilton"
  },
  {
    "name": "Bealls Outlet Stores",
    "description": "Clothing Stores",
    "phone": "(386) 428-5974",
    "address": "1998 State Road 44 Ste 1  New Smyrna Beach, FL 32168",
    "location": "Hamilton"
  },
  {
    "name": "Deep Sea...",
    "description": "Clothing Stores",
    "phone": "(386) 402-8487",
    "address": "501 N Causeway  New Smyrna Beach, FL 32169",
    "location": "Hamilton"
  },
  {
    "name": "American Eagle Outfitters",
    "description": "Clothing Stores",
    "phone": "(386) 253-7859",
    "address": "1700 W International Speedway Blvd  Daytona Beach, FL 32114",
    "location": "Hamilton"
  },
  {
    "name": "Wild Side Beachwear",
    "description": "Clothing Stores",
    "phone": "(386) 427-1664",
    "address": "521 Flagler Ave  New Smyrna Beach, FL 32169",
    "location": "Hamilton"
  },
  {
    "name": "Lolo's Boutique",
    "description": "Clothing Stores",
    "phone": "(386) 478-0442",
    "address": "384 Flagler Ave  New Smyrna Beach, FL 32169",
    "location": "Hamilton"
  },
  {
    "name": "Firestore Online",
    "description": "Clothing Stores",
    "phone": "(866) 699-8084",
    "address": "205 Parktowne Blvd Ste 1  Edgewater, FL 32132",
    "location": "Hamilton"
  },
  {
    "name": "Skid Row Customs",
    "description": "Clothing Stores",
    "phone": "(386) 402-8998",
    "address": "101 S Ridgewood Ave  Edgewater, FL 32132",
    "location": "Hamilton"
  },
  {
    "name": "Healthy Souls Apparel",
    "description": "Clothing Stores",
    "phone": "(386) 316-6760",
    "address": "6823 Stoneheath Ln  Port Orange, FL 32128",
    "location": "Hamilton"
  },
  {
    "name": "SEPHORA at Kohl's",
    "description": "Clothing Stores",
    "phone": "(386) 761-5085",
    "address": "1682 Taylor Rd  Port Orange, FL 32128",
    "location": "Hamilton"
  },
  {
    "name": "Lighthouse Treasures Thrift Store& More",
    "description": "Clothing Stores",
    "phone": "(386) 405-6488",
    "address": "5346 s ridgewood ave  Port Orange, FL 32127",
    "location": "Hamilton"
  },
  {
    "name": "Worldwide Sportswear",
    "description": "Clothing Stores",
    "phone": "(386) 761-2688",
    "address": "4471 Eastport Park Way  Port Orange, FL 32127",
    "location": "Hamilton"
  },
  {
    "name": "Maurices",
    "description": "Clothing Stores",
    "phone": "(386) 304-9409",
    "address": "5509 S Williamson Blvd Ste 115  Port Orange, FL 32128",
    "location": "Hamilton"
  },
  {
    "name": "Marshalls & HomeGoods",
    "description": "Clothing Stores",
    "phone": "(386) 763-4681",
    "address": "5505 S Williamson Blvd  Port Orange, FL 32128",
    "location": "Hamilton"
  },
  {
    "name": "Five Below",
    "description": "Clothing Stores",
    "phone": "(386) 356-2264",
    "address": "5503 S Williamson Blvd  Port Orange, FL 32128",
    "location": "Hamilton"
  },
  {
    "name": "Ross Dress for Less",
    "description": "Clothing Stores",
    "phone": "(386) 304-2763",
    "address": "3803 S Nova Rd  Port Orange, FL 32129",
    "location": "Hamilton"
  },
  {
    "name": "Nana and Me Kid's Exchange",
    "description": "Clothing Stores",
    "phone": "(386) 212-7367",
    "address": "2250 S Nova Rd  South Daytona, FL 32119",
    "location": "Hamilton"
  },
  {
    "name": "Lacey's Manufac Turing",
    "description": "Clothing Stores",
    "phone": "(386) 767-0932",
    "address": "503 Herbert St  Port Orange, FL 32129",
    "location": "Hamilton"
  },
  {
    "name": "Dance Depot",
    "description": "Clothing Stores",
    "phone": "(386) 760-4858",
    "address": "2644 S Ridgewood Ave  South Daytona, FL 32119",
    "location": "Hamilton"
  },
  {
    "name": "T-Shirt Madness",
    "description": "Clothing Stores",
    "phone": "(386) 265-1987",
    "address": "2335 S Ridgewood Ave  South Daytona, FL 32119",
    "location": "Hamilton"
  },
  {
    "name": "Catherines Plus Sizes",
    "description": "Clothing Stores",
    "phone": "(386) 233-3212",
    "address": "2455 W International Speedway Blvd  Daytona Beach, FL 32114",
    "location": "Hamilton"
  },
  {
    "name": "Art Reflections",
    "description": "Clothing Stores",
    "phone": "(386) 424-0150",
    "address": "4395 Lake Ashby Rd  New Smyrna Beach, FL 32168",
    "location": "Hamilton"
  },
  {
    "name": "Volusia Mall",
    "description": "Clothing Stores",
    "phone": "(386) 253-6783",
    "address": "1700 W International Speedway Blvd  Daytona Beach, FL 32114",
    "location": "Hamilton"
  },
  {
    "name": "JCPenney",
    "description": "Clothing Stores",
    "phone": "(386) 255-0971",
    "address": "1700 W International Speedway Blvd  Daytona Beach, FL 32114",
    "location": "Hamilton"
  },
  {
    "name": "Journeys",
    "description": "Clothing Stores",
    "phone": "(386) 253-3533",
    "address": "1700 W International Speedway Blvd  Daytona Beach, FL 32114",
    "location": "Hamilton"
  },
  {
    "name": "Plato's Closet",
    "description": "Clothing Stores",
    "phone": "(386) 258-5000",
    "address": "1808 W International Speedway Blvd  Daytona Beach, FL 32114",
    "location": "Hamilton"
  },
  {
    "name": "Apollo-n Beachwear",
    "description": "Clothing Stores",
    "phone": "(386) 258-7836",
    "address": "2412 S Atlantic Ave  Daytona Beach, FL 32118",
    "location": "Hamilton"
  },
  {
    "name": "Sears",
    "description": "Clothing Stores",
    "phone": "(386) 888-1420",
    "address": "1415 S Nova Rd  Daytona Beach, FL 32114",
    "location": "Hamilton"
  },
  {
    "name": "Ross",
    "description": "Clothing Stores",
    "phone": "(386) 226-0141",
    "address": "814 S Nova Rd  Daytona Beach, FL 32114",
    "location": "Hamilton"
  },
  {
    "name": "Marshalls",
    "description": "Clothing Stores",
    "phone": "(386) 676-3970",
    "address": "2461n Atlantic Ave  Daytona Beach, FL 32118",
    "location": "Hamilton"
  },
  {
    "name": "danny daytona",
    "description": "Clothing Stores",
    "phone": "(386) 275-1319",
    "address": "509 E Int Speedway Blvd  Daytona Beach, FL 32118",
    "location": "Hamilton"
  },
  {
    "name": "Skips Shoea & Western Boots",
    "description": "Clothing Stores",
    "phone": "(386) 255-0455",
    "address": "2990 W International Speedway Blvd  Daytona Beach, FL 32124",
    "location": "Hamilton"
  },
  {
    "name": "Daytona Shirt Shop",
    "description": "Clothing Stores",
    "phone": "(386) 252-5699",
    "address": "827 E International Speedway B  Daytona Beach, FL 32114",
    "location": "Hamilton"
  },
  {
    "name": "Beach Street Impressions",
    "description": "Clothing Stores",
    "phone": "(386) 947-1919",
    "address": "134 S Beach St  Daytona Beach, FL 32114",
    "location": "Hamilton"
  },
  {
    "name": "Macy's",
    "description": "Clothing Stores",
    "phone": "(386) 254-3300",
    "address": "1700 W International Speedway Blvd  Daytona Beach, FL 32114",
    "location": "Hamilton"
  },
  {
    "name": "Torrid",
    "description": "Clothing Stores",
    "phone": "(386) 323-9732",
    "address": "1700 W International Speedway Blvd  Daytona Beach, FL 32114",
    "location": "Hamilton"
  },
  {
    "name": "Justice",
    "description": "Clothing Stores",
    "phone": "(386) 258-1249",
    "address": "1700 W International Speedway Blvd  Daytona Beach, FL 32114",
    "location": "Hamilton"
  },
  {
    "name": "The Children's Place",
    "description": "Clothing Stores",
    "phone": "(386) 253-5316",
    "address": "1700 W International Speedway Blvd  Daytona Beach, FL 32114",
    "location": "Hamilton"
  },
  {
    "name": "5.7.9",
    "description": "Clothing Stores",
    "phone": "(386) 254-7020",
    "address": "1700 W International Speedway Blvd  Daytona Beach, FL 32114",
    "location": "Hamilton"
  },
  {
    "name": "Styles",
    "description": "Clothing Stores",
    "phone": "(386) 258-5048",
    "address": "1700 W International Speedway Blvd  Daytona Beach, FL 32114",
    "location": "Hamilton"
  },
  {
    "name": "S.A. Elite",
    "description": "Clothing Stores",
    "phone": "(386) 254-5190",
    "address": "1910 W International Speedway Blvd  Daytona Beach, FL 32114",
    "location": "Hamilton"
  },
  {
    "name": "Looking Good Menswear",
    "description": "Clothing Stores",
    "phone": "(386) 255-8285",
    "address": "840 N Nova Rd  Daytona Beach, FL 32117",
    "location": "Hamilton"
  },
  {
    "name": "Oshkosh B'Gosh",
    "description": "Clothing Stores",
    "phone": "(386) 274-1991",
    "address": "1100 Cornerstone Blvd Ste 1045  Daytona Beach, FL 32117",
    "location": "Hamilton"
  },
  {
    "name": "Urban Planet",
    "description": "Clothing Stores",
    "phone": "(386) 274-4571",
    "address": "1100 Cornerstone Blvd Ste 490  Daytona Beach, FL 32117",
    "location": "Hamilton"
  },
  {
    "name": "Lee Wrangler",
    "description": "Clothing Stores",
    "phone": "(386) 274-4423",
    "address": "1100 Cornerstone Blvd  Daytona Beach, FL 32117",
    "location": "Hamilton"
  },
  {
    "name": "LOFT Outlet",
    "description": "Clothing Stores",
    "phone": "(386) 274-2291",
    "address": "1100 Cornerstone Blvd  Daytona Beach, FL 32117",
    "location": "Hamilton"
  },
  {
    "name": "Michael Kors Outlet",
    "description": "Clothing Stores",
    "phone": "(386) 281-6822",
    "address": "1100 Cornerstone Blvd Ste 1090  Daytona Beach, FL 32117",
    "location": "Hamilton"
  },
  {
    "name": "Old Navy Outlet",
    "description": "Clothing Stores",
    "phone": "(386) 274-4971",
    "address": "1100 Cornerstone Blvd  Daytona Beach, FL 32117",
    "location": "Hamilton"
  },
  {
    "name": "Polo Ralph Lauren Factory Store",
    "description": "Clothing Stores",
    "phone": "(386) 274-1304",
    "address": "1100 Cornerstone Blvd Ste 600  Daytona Beach, FL 32117",
    "location": "Hamilton"
  },
  {
    "name": "COACH Outlet",
    "description": "Clothing Stores",
    "phone": "(386) 274-1630",
    "address": "1100 Cornerstone Blvd Ste 660  Daytona Beach, FL 32117",
    "location": "Hamilton"
  },
  {
    "name": "Van Heusen",
    "description": "Clothing Stores",
    "phone": "(386) 274-1593",
    "address": "1100 Cornerstone Blvd Ste 830  Daytona Beach, FL 32117",
    "location": "Hamilton"
  },
  {
    "name": "Brooks Brothers",
    "description": "Clothing Stores",
    "phone": "(386) 239-1141",
    "address": "1100 Cornerstone Blvd Ste 660  Daytona Beach, FL 32117",
    "location": "Hamilton"
  },
  {
    "name": "Palmetto Moon",
    "description": "Clothing Stores",
    "phone": "(386) 256-3589",
    "address": "1100 Cornerstone Blvd  Daytona Beach, FL 32117",
    "location": "Hamilton"
  },
  {
    "name": "Levi's",
    "description": "Clothing Stores",
    "phone": "(386) 274-6195",
    "address": "1100 Cornerstone Blvd Ste 1010  Daytona Beach, FL 32117",
    "location": "Hamilton"
  },
  {
    "name": "Papaya Clothing",
    "description": "Clothing Stores",
    "phone": "(386) 256-7149",
    "address": "1100 Cornerstone Blvd  Daytona Beach, FL 32117",
    "location": "Hamilton"
  },
  {
    "name": "vineyard vines Outlet",
    "description": "Clothing Stores",
    "phone": "(386) 233-9644",
    "address": "1100 Cornerstone Blvd  Daytona Beach, FL 32117",
    "location": "Hamilton"
  },
  {
    "name": "Zumiez",
    "description": "Clothing Stores",
    "phone": "(386) 877-0175",
    "address": "1100 Cornerstone Blvd  Daytona Beach, FL 32117",
    "location": "Hamilton"
  },
  {
    "name": "Uniforms & More",
    "description": "Clothing Stores",
    "phone": "(386) 274-3200",
    "address": "1400 Mason Ave Ste 140  Daytona Beach, FL 32117",
    "location": "Hamilton"
  },
  {
    "name": "New York & Company",
    "description": "Clothing Stores",
    "phone": "(386) 258-1844",
    "address": "1700 W International Speedway Blvd  Daytona Beach, FL 32114",
    "location": "Hamilton"
  },
  {
    "name": "The Ann Anne Market",
    "description": "Women's Fashion Accessories",
    "phone": "(386) 530-5266",
    "address": "700 Canal St  New Smyrna Beach, FL 32168",
    "location": "Hamilton"
  },
  {
    "name": "Wal-Mart 1079",
    "description": "General Merchandise",
    "phone": "(386) 427-5767",
    "address": "1996 State Road 44  New Smyrna Beach, FL 32168",
    "location": "Hamilton"
  },
  {
    "name": "Sears Hometown Stores",
    "description": "Department Stores",
    "phone": "(386) 423-8001",
    "address": "1441 S Dixie Fwy  New Smyrna Beach, FL 32168",
    "location": "Hamilton"
  },
  {
    "name": "Sel Swim & Boutique",
    "description": "Women's Clothing",
    "phone": "(386) 428-5433",
    "address": "300 Flagler Ave  New Smyrna Beach, FL 32169",
    "location": "Hamilton"
  },
  {
    "name": "Sue Who",
    "description": "Women's Clothing",
    "phone": "(386) 428-9002",
    "address": "504 Flagler Ave  New Smyrna Beach, FL 32169",
    "location": "Hamilton"
  },
  {
    "name": "Island Soul",
    "description": "Women's Clothing",
    "phone": "(386) 410-3774",
    "address": "311 Flagler Ave Unit 105  New Smyrna Beach, FL 32169",
    "location": "Hamilton"
  },
  {
    "name": "Look Charmed",
    "description": "Women's Clothing",
    "phone": "(386) 957-4262",
    "address": "311 Flagler Ave  New Smyrna Beach, FL 32169",
    "location": "Hamilton"
  },
  {
    "name": "Angels By The Sea",
    "description": "Women's Clothing",
    "phone": "(386) 427-1977",
    "address": "308 Flagler Ave  New Smyrna Beach, FL 32169",
    "location": "Hamilton"
  },
  {
    "name": "Sea Fox",
    "description": "Women's Clothing",
    "phone": "(386) 428-3577",
    "address": "501 Flagler Ave  New Smyrna Beach, FL 32169",
    "location": "Hamilton"
  },
  {
    "name": "Hello Gorgeous BBW",
    "description": "Consignment Service",
    "phone": "(386) 478-6696",
    "address": "414 N Ridgewood Ave Lot 20  Edgewater, FL 32132",
    "location": "Hamilton"
  },
  {
    "name": "Hot Bodz Clothing Company",
    "description": "Men's Clothing",
    "phone": "(386) 423-8844",
    "address": "341 Skyway Dr  Edgewater, FL 32132",
    "location": "Hamilton"
  },
  {
    "name": "Walmart Supercenter",
    "description": "General Merchandise",
    "phone": "(386) 427-5767",
    "address": "3155 State Road 44  New Smyrna Beach, FL 32168",
    "location": "Hamilton"
  },
  {
    "name": "Bonnie's Boutique",
    "description": "Boutique Items",
    "phone": "(386) 673-6983",
    "address": "489 Venetian Villa Dr  New Smyrna Beach, FL 32168",
    "location": "Hamilton"
  },
  {
    "name": "Needful Things General Store",
    "description": "Variety Stores",
    "phone": "(386) 957-4837",
    "address": "6495 Turtlemound Rd  New Smyrna Beach, FL 32169",
    "location": "Hamilton"
  },
  {
    "name": "Bike One",
    "description": "Bicycle Racks & Security Systems",
    "phone": "(386) 304-8777",
    "address": "3840 S Nova Rd  Port Orange, FL 32127",
    "location": "Hamilton"
  },
  {
    "name": "Whims and Waves",
    "description": "Women's Clothing",
    "phone": "(404) 210-5283",
    "address": "3843 South Atlantic Ave  Daytona Beach Shores, FL 32118",
    "location": "Hamilton"
  },
  {
    "name": "Target",
    "description": "General Merchandise",
    "phone": "(386) 322-1348",
    "address": "1771 Dunlawton Ave  Port Orange, FL 32127",
    "location": "Hamilton"
  },
  {
    "name": "Loraines Fashion Jewelry & Accessories",
    "description": "Handbags",
    "phone": "(386) 756-9535",
    "address": "5523 S Williamson Blvd  Port Orange, FL 32128",
    "location": "Hamilton"
  },
  {
    "name": "Adornments",
    "description": "Women's Clothing",
    "phone": "(386) 788-8802",
    "address": "5521 S Williamson Blvd Ste 440  Port Orange, FL 32128",
    "location": "Hamilton"
  },
  {
    "name": "Bealls Florida",
    "description": "Home Furnishings",
    "phone": "(386) 756-0106",
    "address": "3771 S Nova Rd  Port Orange, FL 32129",
    "location": "Hamilton"
  },
  {
    "name": "Belk",
    "description": "Department Stores",
    "phone": "(386) 304-3901",
    "address": "5519 S Williamson Blvd  Port Orange, FL 32128",
    "location": "Hamilton"
  },
  {
    "name": "Rack Room Shoes",
    "description": "Shoe Stores",
    "phone": "(386) 760-6440",
    "address": "5517 S Williamson Blvd  Port Orange, FL 32128",
    "location": "Hamilton"
  },
  {
    "name": "National Sportswear & Emblem",
    "description": "Sportswear",
    "phone": "(407) 294-0032",
    "address": "4191 Dairy Ct Ste A  Port Orange, FL 32127",
    "location": "Hamilton"
  },
  {
    "name": "4Crowns Boutique",
    "description": "Boutique Items",
    "phone": "(386) 256-4306",
    "address": "5515 S Williamson Blvd Ste 212  Port Orange, FL 32128",
    "location": "Hamilton"
  },
  {
    "name": "Hibbett Sports",
    "description": "Sporting Goods",
    "phone": "(386) 760-5822",
    "address": "5509 S Williamson Blvd Ste 110  Port Orange, FL 32128",
    "location": "Hamilton"
  },
  {
    "name": "Crystailor.com - Custom Rhinestone Apparel and Gifts",
    "description": "Women's Clothing",
    "phone": "(772) 405-7557",
    "address": "3621 S Atlantic Ave  Daytona Beach, FL 32118",
    "location": "Hamilton"
  },
  {
    "name": "The Fashion Safari",
    "description": "Consignment Service",
    "phone": "(386) 760-3600",
    "address": "4649 Clyde Morris Blvd  Port Orange, FL 32129",
    "location": "Hamilton"
  },
  {
    "name": "Bon Worth Inc",
    "description": "Women's Clothing",
    "phone": "(386) 760-4794",
    "address": "2400 S Ridgewood Ave  South Daytona, FL 32119",
    "location": "Hamilton"
  },
  {
    "name": "Men's Wearhouse",
    "description": "Men's Clothing",
    "phone": "(386) 252-3160",
    "address": "2500 W International Speedway Blvd  Daytona Beach, FL 32114",
    "location": "Hamilton"
  },
  {
    "name": "Walmart Garden Center",
    "description": "General Merchandise",
    "phone": "(386) 760-7880",
    "address": "1101 Beville Rd  Daytona Beach, FL 32119",
    "location": "Hamilton"
  },
  {
    "name": "Mid-Florida Sportswear",
    "description": "Screen Printing",
    "phone": "(386) 258-5632",
    "address": "2415 Bellevue Ave  Daytona Beach, FL 32114",
    "location": "Hamilton"
  },
  {
    "name": "Champs Sports",
    "description": "Sportswear",
    "phone": "(386) 255-6002",
    "address": "1700 W International Speedway Blvd  Daytona Beach, FL 32114",
    "location": "Hamilton"
  },
  {
    "name": "Dick's Sporting Goods",
    "description": "Sporting Goods",
    "phone": "(386) 255-5533",
    "address": "2500 W International Speedway Blvd  Daytona Beach, FL 32114",
    "location": "Hamilton"
  },
  {
    "name": "Myuna Cay",
    "description": "Men's Clothing",
    "phone": "(321) 961-4070",
    "address": "1897 Magnolia Ave  South Daytona, FL 32119",
    "location": "Hamilton"
  },
  {
    "name": "Sassey Style Clothing",
    "description": "Women's Clothing",
    "phone": "(386) 315-1075",
    "address": "124 Westwood Dr  Daytona Beach, FL 32119",
    "location": "Hamilton"
  },
  {
    "name": "American Freight - Appliance, Furniture, Mattress",
    "description": "Discount Stores",
    "phone": "(386) 255-2048",
    "address": "1415 S Nova Rd  Daytona Beach, FL 32114",
    "location": "Hamilton"
  },
  {
    "name": "Sears Outlet",
    "description": "Discount Stores",
    "phone": "(386) 255-2048",
    "address": "1415 S Nova Rd  Daytona Beach, FL 32114",
    "location": "Hamilton"
  },
  {
    "name": "Gucci",
    "description": "Women's Clothing",
    "phone": "(561) 776-6351",
    "address": "3101 N Florida Pga Ln  Daytona Beach, FL 32114",
    "location": "Hamilton"
  },
  {
    "name": "PPi Sports",
    "description": "Sportswear",
    "phone": "(612) 386-3952",
    "address": "2441 Bellevue Ave  Daytona Beach, FL 32114",
    "location": "Hamilton"
  },
  {
    "name": "Pro's Choice",
    "description": "Sportswear",
    "phone": "(386) 258-6110",
    "address": "1425 Tomoka Farms Rd  Daytona Beach, FL 32124",
    "location": "Hamilton"
  },
  {
    "name": "Fashion Fair Inc",
    "description": "Women's Clothing",
    "phone": "(386) 214-3790",
    "address": "1425 Tomoka Farms Rd  Daytona Beach, FL 32124",
    "location": "Hamilton"
  },
  {
    "name": "Sports Fanatics Pluss",
    "description": "Sports Cards & Memorabilia",
    "phone": "(407) 473-5826",
    "address": "2987 Bellevue Ave  Daytona Beach, FL 32124",
    "location": "Hamilton"
  },
  {
    "name": "Victoria's Secret",
    "description": "Lingerie",
    "phone": "(386) 257-3007",
    "address": "1700 Volusia Ave  Daytona Beach, FL 32114",
    "location": "Hamilton"
  },
  {
    "name": "Alexander's",
    "description": "Department Stores",
    "phone": "(386) 675-6029",
    "address": "222 S Beach St  Daytona Beach, FL 32114",
    "location": "Hamilton"
  },
  {
    "name": "B J Retail Corp",
    "description": "Women's Clothing",
    "phone": "(386) 252-8707",
    "address": "2591 W International Speedway Blvd  Daytona Beach, FL 32114",
    "location": "Hamilton"
  },
  {
    "name": "Blue Island Company",
    "description": "Men's Clothing",
    "phone": "(321) 328-7767",
    "address": "Po Box 2144  Daytona Beach, FL 32121",
    "location": "Hamilton"
  },
  {
    "name": "Lane Bryant",
    "description": "Women's Clothing",
    "phone": "(386) 253-2739",
    "address": "230 W International Speedway Blvd  Daytona Beach, FL 32114",
    "location": "Hamilton"
  },
  {
    "name": "Styles for Less",
    "description": "Women's Clothing",
    "phone": "(386) 258-5048",
    "address": "116 W International Speedway Blvd  Daytona Beach, FL 32114",
    "location": "Hamilton"
  },
  {
    "name": "Famous Footwear",
    "description": "Shoe Stores",
    "phone": "(386) 238-5004",
    "address": "2455 W International Speedway Blvd  Daytona Beach, FL 32114",
    "location": "Hamilton"
  },
  {
    "name": "Motherhood Maternity",
    "description": "Maternity Clothes",
    "phone": "(386) 248-2135",
    "address": "2500 W International Speedway Blvd  Daytona Beach, FL 32114",
    "location": "Hamilton"
  },
  {
    "name": "Charming Charlie",
    "description": "Women's Clothing",
    "phone": "(386) 226-3011",
    "address": "2500 W International Speedway Blvd Ste 550  Daytona Beach, FL 32114",
    "location": "Hamilton"
  },
  {
    "name": "West Marine",
    "description": "Boat Equipment & Supplies",
    "phone": "(386) 255-2013",
    "address": "1300 W International Speedway Blvd  Daytona Beach, FL 32114",
    "location": "Hamilton"
  },
  {
    "name": "Simply Fashion",
    "description": "Women's Clothing",
    "phone": "(386) 258-8155",
    "address": "132 N Nova Rd  Daytona Beach, FL 32114",
    "location": "Hamilton"
  },
  {
    "name": "Body Shop",
    "description": "Women's Clothing",
    "phone": "(386) 947-4595",
    "address": "1700 W International Speedway Blvd  Daytona Beach, FL 32114",
    "location": "Hamilton"
  },
  {
    "name": "JoS. A. Bank",
    "description": "Men's Clothing",
    "phone": "(386) 671-0455",
    "address": "266 N Nova Rd  Daytona Beach, FL 32114",
    "location": "Hamilton"
  },
  {
    "name": "Dillard's",
    "description": "Department Stores",
    "phone": "(386) 255-8161",
    "address": "1700 W International Speedway Blvd  Daytona Beach, FL 32114",
    "location": "Hamilton"
  },
  {
    "name": "Windsor",
    "description": "Women's Clothing",
    "phone": "(888) 495-4957",
    "address": "1700 W International Speedway Blvd Ste 228  Daytona Beach, FL 32114",
    "location": "Hamilton"
  },
  {
    "name": "Foot Locker",
    "description": "Shoe Stores",
    "phone": "(386) 254-2860",
    "address": "1700 W International Speedway Blvd Ste 528  Daytona Beach, FL 32114",
    "location": "Hamilton"
  },
  {
    "name": "Victoria's Secret & PINK by Victoria's Secret",
    "description": "Lingerie",
    "phone": "(386) 257-3007",
    "address": "1700 W International Speedway Blvd Ste 508  Daytona Beach, FL 32114",
    "location": "Hamilton"
  },
  {
    "name": "Vans",
    "description": "Shoe Stores",
    "phone": "(386) 257-0196",
    "address": "1700 W International Speedway Blvd Ste 558  Daytona Beach, FL 32114",
    "location": "Hamilton"
  },
  {
    "name": "Finish Line",
    "description": "Shoe Stores",
    "phone": "(386) 323-1778",
    "address": "1700 W International Speedway Blvd  Daytona Beach, FL 32114",
    "location": "Hamilton"
  },
  {
    "name": "BCBGMAXAZRIA",
    "description": "Women's Clothing",
    "phone": "(386) 257-2056",
    "address": "1700 W International Speedway Blvd  Daytona Beach, FL 32114",
    "location": "Hamilton"
  },
  {
    "name": "Artsy Abode at Daytona Beach",
    "description": "Women's Clothing",
    "phone": "(386) 238-0509",
    "address": "1700 W International Speedway Blvd Ste 570  Daytona Beach, FL 32114",
    "location": "Hamilton"
  },
  {
    "name": "Body Central",
    "description": "Women's Clothing",
    "phone": "(386) 947-4857",
    "address": "1700 W International Speedway Blvd  Daytona Beach, FL 32114",
    "location": "Hamilton"
  },
  {
    "name": "Rainbow",
    "description": "Women's Clothing",
    "phone": "(386) 888-4216",
    "address": "1700 W International Speedway Blvd  Daytona Beach, FL 32114",
    "location": "Hamilton"
  },
  {
    "name": "Lids",
    "description": "Hat Shops",
    "phone": "(386) 258-8907",
    "address": "1700 W International Speedway Blvd  Daytona Beach, FL 32114",
    "location": "Hamilton"
  },
  {
    "name": "Play It Again Sports",
    "description": "Sporting Goods",
    "phone": "(386) 238-6949",
    "address": "1808 W International Speedway Blvd  Daytona Beach, FL 32114",
    "location": "Hamilton"
  },
  {
    "name": "Casual Male XL",
    "description": "Men's Clothing",
    "phone": "(386) 258-3766",
    "address": "2110 W International Speedway Blvd  Daytona Beach, FL 32114",
    "location": "Hamilton"
  },
  {
    "name": "Pricemasters",
    "description": "Department Stores",
    "phone": "(850) 299-2002",
    "address": "1700 W. International Speedway Blvd  Daytona Beach, FL 32114",
    "location": "Hamilton"
  },
  {
    "name": "What A Deal We Got",
    "description": "Department Stores",
    "phone": "(386) 492-7280",
    "address": "337 Bill France Blvd  Daytona Beach, FL 32114",
    "location": "Hamilton"
  },
  {
    "name": "Ladies High Fashions",
    "description": "Consumer Electronics",
    "phone": "(386) 453-3597",
    "address": "535 Colfax Dr  Daytona Beach, FL 32114",
    "location": "Hamilton"
  },
  {
    "name": "Eye Candy Pigments",
    "description": "Department Stores",
    "phone": "(386) 281-3463",
    "address": "480 Fentress Blvd  Daytona Beach, FL 32114",
    "location": "Hamilton"
  },
  {
    "name": "DTLR",
    "description": "Shoe Stores",
    "phone": "(386) 254-8387",
    "address": "816 N Nova Rd  Daytona Beach, FL 32117",
    "location": "Hamilton"
  },
  {
    "name": "pOpshelf",
    "description": "Variety Stores",
    "phone": "(786) 681-1825",
    "address": "1115 Cornerstone Blvd  Daytona Beach, FL 32117",
    "location": "Hamilton"
  },
  {
    "name": "Francesca's",
    "description": "Women's Clothing",
    "phone": "(386) 944-1179",
    "address": "1100 Cornerstone Blvd  Daytona Beach, FL 32117",
    "location": "Hamilton"
  },
  {
    "name": "ASICS Outlet",
    "description": "Shoe Stores",
    "phone": "(386) 274-1080",
    "address": "1100 Cornerstone Blvd  Daytona Beach, FL 32117",
    "location": "Hamilton"
  },
  {
    "name": "DressBarn",
    "description": "Women's Clothing",
    "phone": "(386) 274-4844",
    "address": "1100 Cornerstone Blvd  Daytona Beach, FL 32117",
    "location": "Hamilton"
  },
  {
    "name": "Crocs at Tanger Outlets Daytona",
    "description": "Shoe Stores",
    "phone": "(386) 233-9431",
    "address": "1100 Cornerstone Blvd Ste 925  Daytona Beach, FL 32117",
    "location": "Hamilton"
  },
  {
    "name": "SKECHERS Factory Outlet",
    "description": "Shoe Stores",
    "phone": "(386) 265-4730",
    "address": "1100 Cornerstone Blvd  Daytona Beach, FL 32117",
    "location": "Hamilton"
  },
  {
    "name": "Kate Spade Outlet",
    "description": "Women's Clothing",
    "phone": "(386) 274-4428",
    "address": "1100 Cornerstone Blvd Ste 640  Daytona Beach, FL 32117",
    "location": "Hamilton"
  },
  {
    "name": "Lane Bryant Outlet",
    "description": "Shoe Stores",
    "phone": "(386) 274-1402",
    "address": "1100 Cornerstone Blvd Ste 840  Daytona Beach, FL 32117",
    "location": "Hamilton"
  },
  {
    "name": "Under Armour Factory House",
    "description": "Sportswear",
    "phone": "(386) 274-2461",
    "address": "1100 Cornerstone Blvd  Daytona Beach, FL 32117",
    "location": "Hamilton"
  },
  {
    "name": "The PUMA Store",
    "description": "Shoe Stores",
    "phone": "(386) 206-7340",
    "address": "1100 Cornerstone Blvd Ste 420  Daytona Beach, FL 32117",
    "location": "Hamilton"
  },
  {
    "name": "Reebok",
    "description": "Shoe Stores",
    "phone": "(386) 310-0365",
    "address": "1100 Cornerstone Blvd Ste 930  Daytona Beach, FL 32117",
    "location": "Hamilton"
  },
  {
    "name": "Columbia Sportswear",
    "description": "Sportswear",
    "phone": "(386) 682-3985",
    "address": "1100 Cornerstone Blvd. Suite 105 Tanger Outlets  Daytona Beach, FL 32117",
    "location": "Hamilton"
  },
  {
    "name": "Christine Mooney Retail",
    "description": "Department Stores",
    "phone": "(386) 956-0404",
    "address": "2545 Derby Dr  Deltona, FL 32738",
    "location": "Hamilton"
  },
  {
    "name": "Christopher & Banks",
    "description": "Women's Clothing",
    "phone": "(386) 323-0670",
    "address": "1700 W International Speedway Blvd Ste 414  Daytona Beach, FL 32114",
    "location": "Hamilton"
  }
]