[
  {
    "name": "Rainbow Shops",
    "description": "Clothing Stores",
    "phone": "(904) 696-3339",
    "address": "1012 Dunn Ave  Jacksonville, FL 32218",
    "location": "Highlands"
  },
  {
    "name": "Gloria's Garments",
    "description": "Clothing Stores",
    "phone": "(904) 768-6126",
    "address": "10535 Lem Turner Rd  Jacksonville, FL 32218",
    "location": "Highlands"
  },
  {
    "name": "DD's Discounts",
    "description": "Clothing Stores",
    "phone": "(904) 751-5226",
    "address": "934 Dunn Ave  Jacksonville, FL 32218",
    "location": "Highlands"
  },
  {
    "name": "Bealls Outlet Stores",
    "description": "Clothing Stores",
    "phone": "(904) 714-3564",
    "address": "1100 Dunn Ave  Jacksonville, FL 32218",
    "location": "Highlands"
  },
  {
    "name": "DTLR",
    "description": "Shoe Stores",
    "phone": "(904) 751-1467",
    "address": "1010 Dunn Ave  Jacksonville, FL 32218",
    "location": "Highlands"
  },
  {
    "name": "AVON",
    "description": "Health & Wellness Products",
    "phone": "(904) 764-0901",
    "address": "1000 Broward Rd  Jacksonville, FL 32218",
    "location": "Highlands"
  },
  {
    "name": "Zahide's Gold Boutique",
    "description": "Clothing Stores",
    "phone": "(904) 626-7933",
    "address": "1601 Dunn Ave Apt 707  Jacksonville, FL 32218",
    "location": "Highlands"
  },
  {
    "name": "Urban Fashions",
    "description": "Clothing Stores",
    "phone": "(904) 997-6900",
    "address": "1440 Dunn Ave Ste 19  Jacksonville, FL 32218",
    "location": "Highlands"
  },
  {
    "name": "Citi Trends - Closed",
    "description": "Clothing Stores",
    "phone": "(904) 750-6276",
    "address": "3000 Dunn Ave Ste 2A  Jacksonville, FL 32218",
    "location": "Highlands"
  },
  {
    "name": "It's Fashion",
    "description": "Clothing Stores",
    "phone": "(904) 768-2101",
    "address": "3000 Dunn Ave  Jacksonville, FL 32218",
    "location": "Highlands"
  },
  {
    "name": "Looks",
    "description": "Clothing Stores",
    "phone": "(904) 768-6307",
    "address": "3000 Dunn Ave Ste 33  Jacksonville, FL 32218",
    "location": "Highlands"
  },
  {
    "name": "Dots And Co",
    "description": "Clothing Stores",
    "phone": "(904) 982-0101",
    "address": "Jkvl  Jacksonville, FL 32244",
    "location": "Highlands"
  },
  {
    "name": "Cotton On",
    "description": "Clothing Stores",
    "phone": "(904) 538-0561",
    "address": "Suite 1460B 10300 Southside Boulevard  Jacksonville, FL 32256",
    "location": "Highlands"
  },
  {
    "name": "2 Faces 1 Tear",
    "description": "Clothing Stores",
    "phone": "(904) 580-8177",
    "address": "11105 Apple Blossom Trl W  Jacksonville, FL 32218",
    "location": "Highlands"
  },
  {
    "name": "Old Navy",
    "description": "Clothing Stores",
    "phone": "(904) 717-8311",
    "address": "13221 City Station Dr Ste 101  Jacksonville, FL 32218",
    "location": "Highlands"
  },
  {
    "name": "Burlington Coat Factory",
    "description": "Clothing Stores",
    "phone": "(904) 984-8843",
    "address": "5258 Norwood Ave  Jacksonville, FL 32208",
    "location": "Highlands"
  },
  {
    "name": "Soul Train Stop Fashions",
    "description": "Clothing Stores",
    "phone": "(904) 768-9446",
    "address": "5000 Norwood Ave  Jacksonville, FL 32208",
    "location": "Highlands"
  },
  {
    "name": "La Biotique",
    "description": "Clothing Stores",
    "phone": "(904) 696-8989",
    "address": "13227 City Square Dr  Jacksonville, FL 32218",
    "location": "Highlands"
  },
  {
    "name": "56 Fashion Inc",
    "description": "Clothing Stores",
    "phone": "(904) 766-7142",
    "address": "5430 Soutel Dr  Jacksonville, FL 32219",
    "location": "Highlands"
  },
  {
    "name": "Rue21",
    "description": "Clothing Stores",
    "phone": "(904) 696-3073",
    "address": "13221 City Station Dr Ste 105  Jacksonville, FL 32218",
    "location": "Highlands"
  },
  {
    "name": "CAMPBELLS WAREHOUSE",
    "description": "Clothing Stores",
    "phone": "(904) 508-3395",
    "address": "731 Duval Station Rd  Jacksonville, FL 32218",
    "location": "Highlands"
  },
  {
    "name": "Sanmar Corp",
    "description": "Clothing Stores",
    "phone": "(904) 765-7303",
    "address": "10940 New Kings Rd  Jacksonville, FL 32219",
    "location": "Highlands"
  },
  {
    "name": "Styets Alure",
    "description": "Clothing Stores",
    "phone": "(904) 339-8762",
    "address": "PO Box 43216  Jacksonville, FL 32203",
    "location": "Highlands"
  },
  {
    "name": "Dyvine Lady",
    "description": "Clothing Stores",
    "phone": "(904) 228-6080",
    "address": "533 Alice Cove Ct  Jacksonville, FL 32218",
    "location": "Highlands"
  },
  {
    "name": "My Dollar Shop",
    "description": "Clothing Stores",
    "phone": "(904) 703-4025",
    "address": "1025 W 17th St  Jacksonville, FL 32209",
    "location": "Highlands"
  },
  {
    "name": "Kara Bazma - custom dress",
    "description": "Clothing Stores",
    "phone": "(904) 685-8807",
    "address": "2 Independent Dr  Jacksonville, FL 32202",
    "location": "Highlands"
  },
  {
    "name": "K S Fashion",
    "description": "Clothing Stores",
    "phone": "(904) 384-4222",
    "address": "734 Edgewood Ave N  Jacksonville, FL 32254",
    "location": "Highlands"
  },
  {
    "name": "Gap",
    "description": "Clothing Stores",
    "phone": "(904) 683-4967",
    "address": "15411 N Main St  Jacksonville, FL 32218",
    "location": "Highlands"
  },
  {
    "name": "Romaine's Apparel and Accessories",
    "description": "Clothing Stores",
    "phone": "(904) 647-7986",
    "address": "1037 Edgewood Ave N  Jacksonville, FL 32254",
    "location": "Highlands"
  },
  {
    "name": "Natural Life",
    "description": "Clothing Stores",
    "phone": "(904) 330-0313",
    "address": "7780 Westside Industrial Dr  Jacksonville, FL 32219",
    "location": "Highlands"
  },
  {
    "name": "4 EveryGirl",
    "description": "Clothing Stores",
    "phone": "(800) 654-2277",
    "address": "50 N Laura St Ste 2500  Jacksonville, FL 32202",
    "location": "Highlands"
  },
  {
    "name": "Wodwide Apparel",
    "description": "Clothing Stores",
    "phone": "(787) 404-2401",
    "address": "12323 Sand Pine Ct  Jacksonville, FL 32226",
    "location": "Highlands"
  },
  {
    "name": "All About U Fashion",
    "description": "Clothing Stores",
    "phone": "(904) 647-9174",
    "address": "3218 Lenox Ave  Jacksonville, FL 32254",
    "location": "Highlands"
  },
  {
    "name": "Stein Mart",
    "description": "Clothing Stores",
    "phone": "(888) 783-4662",
    "address": "1200 Riverplace Blvd  Jacksonville, FL 32207",
    "location": "Highlands"
  },
  {
    "name": "Strata Clothing",
    "description": "Clothing Stores",
    "phone": "(904) 677-9505",
    "address": "240 Talleyrand Ave  Jacksonville, FL 32202",
    "location": "Highlands"
  },
  {
    "name": "Ebony Fashion",
    "description": "Clothing Stores",
    "phone": "(904) 329-3301",
    "address": "3955 Marsh Bluff Dr  Jacksonville, FL 32226",
    "location": "Highlands"
  },
  {
    "name": "Mommie Dearest",
    "description": "Clothing Stores",
    "phone": "(904) 607-7700",
    "address": "859 Willow Branch Ave  Jacksonville, FL 32205",
    "location": "Highlands"
  },
  {
    "name": "Meows and Barks Boutique",
    "description": "Clothing Stores",
    "phone": "(904) 438-5621",
    "address": "1537 San Marco Blvd  Jacksonville, FL 32207",
    "location": "Highlands"
  },
  {
    "name": "Flyy Fro",
    "description": "Clothing Stores",
    "phone": "(855) 254-4433",
    "address": "7920 Merrill Rd Unit 1609  Jacksonville, FL 32277",
    "location": "Highlands"
  },
  {
    "name": "Grease Rags Clothing Company",
    "description": "Clothing Stores",
    "phone": "(904) 559-2150",
    "address": "1670 San Marco Blvd  Jacksonville, FL 32207",
    "location": "Highlands"
  },
  {
    "name": "Dainty Treasures",
    "description": "Clothing Stores",
    "phone": "(407) 780-2988",
    "address": "6870 Arlington Expy  Jacksonville, FL 32211",
    "location": "Highlands"
  },
  {
    "name": "Citi Trends",
    "description": "Clothing Stores",
    "phone": "(904) 389-1447",
    "address": "770 Edgewood Ave S  Jacksonville, FL 32205",
    "location": "Highlands"
  },
  {
    "name": "Wardroom Ltd",
    "description": "Clothing Stores",
    "phone": "(904) 396-1091",
    "address": "1969 San Marco Blvd  Jacksonville, FL 32207",
    "location": "Highlands"
  },
  {
    "name": "Strght and Nrrw",
    "description": "Clothing Stores",
    "phone": "(904) 551-0657",
    "address": "205 N Laura St  Jacksonville, FL 32202",
    "location": "Highlands"
  },
  {
    "name": "Pecan Park Flea & Farmers' Market",
    "description": "Clothing Stores",
    "phone": "(904) 751-6770",
    "address": "614 Pecan Park Rd  Jacksonville, FL 32218",
    "location": "Highlands"
  },
  {
    "name": "Expert Ts of Jacksonville",
    "description": "Clothing Stores",
    "phone": "(904) 387-2500",
    "address": "711 Cassat Ave  Jacksonville, FL 32205",
    "location": "Highlands"
  },
  {
    "name": "K & G Fashion Superstore",
    "description": "Clothing Stores",
    "phone": "(904) 724-7244",
    "address": "9340 Arlington Expy  Jacksonville, FL 32225",
    "location": "Highlands"
  },
  {
    "name": "Express",
    "description": "Clothing Stores",
    "phone": "(904) 722-1024",
    "address": "9501 Arlington Expy  Jacksonville, FL 32225",
    "location": "Highlands"
  },
  {
    "name": "Jimmy Jazz",
    "description": "Clothing Stores",
    "phone": "(904) 895-5707",
    "address": "9501 Arlington Expy  Jacksonville, FL 32225",
    "location": "Highlands"
  },
  {
    "name": "The Local Artist",
    "description": "Clothing Stores",
    "phone": "(904) 389-7600",
    "address": "1046 Ellis Rd S  Jacksonville, FL 32205",
    "location": "Highlands"
  },
  {
    "name": "Emory Clothing",
    "description": "Clothing Stores",
    "phone": "(904) 903-7915",
    "address": "3573 Saint Johns Ave  Jacksonville, FL 32205",
    "location": "Highlands"
  },
  {
    "name": "Accessories Indigo Apparel",
    "description": "Clothing Stores",
    "phone": "(904) 250-5192",
    "address": "3643 Saint Johns Ave  Jacksonville, FL 32205",
    "location": "Highlands"
  },
  {
    "name": "Pink Passion Fashions",
    "description": "Clothing Stores",
    "phone": "(904) 235-4134",
    "address": "7059 Ramona Blvd  Jacksonville, FL 32205",
    "location": "Highlands"
  },
  {
    "name": "Ambitious Clothing",
    "description": "Clothing Stores",
    "phone": "(904) 651-8283",
    "address": "850 Le Brun Dr  Jacksonville, FL 32205",
    "location": "Highlands"
  },
  {
    "name": "Envy Fashion",
    "description": "Clothing Stores",
    "phone": "(904) 379-8645",
    "address": "202 Century 21 Dr  Jacksonville, FL 32216",
    "location": "Highlands"
  },
  {
    "name": "Free People",
    "description": "Clothing Stores",
    "phone": "(904) 642-8563",
    "address": "4818 Saint Johns Ave # 107  Jacksonville, FL 32210",
    "location": "Highlands"
  },
  {
    "name": "Man Alive",
    "description": "Clothing Stores",
    "phone": "(904) 722-9016",
    "address": "9501 Arlington Expy Ste 236  Jacksonville, FL 32225",
    "location": "Highlands"
  },
  {
    "name": "Fashion Ks",
    "description": "Clothing Stores",
    "phone": "(904) 855-0303",
    "address": "9501 Arlington Expy  Jacksonville, FL 32225",
    "location": "Highlands"
  },
  {
    "name": "Dress Code",
    "description": "Clothing Stores",
    "phone": "(904) 513-4287",
    "address": "9501 Arlington Expy  Jacksonville, FL 32225",
    "location": "Highlands"
  },
  {
    "name": "Undergound by Journeys",
    "description": "Clothing Stores",
    "phone": "(904) 721-1377",
    "address": "9501 Arlington Expy  Jacksonville, FL 32225",
    "location": "Highlands"
  },
  {
    "name": "William Boston Apparel",
    "description": "Clothing Stores",
    "phone": "(904) 566-5752",
    "address": "9601 Arlington Expy  Jacksonville, FL 32225",
    "location": "Highlands"
  },
  {
    "name": "Honey's House of Fashions Inc",
    "description": "Clothing Stores",
    "phone": "(904) 251-3380",
    "address": "6866 Ramoth Dr  Jacksonville, FL 32226",
    "location": "Highlands"
  },
  {
    "name": "Snipes",
    "description": "Clothing Stores",
    "phone": "(904) 944-3435",
    "address": "9768 Atlantic Blvd  Jacksonville, FL 32225",
    "location": "Highlands"
  },
  {
    "name": "Rock Luxury LLC",
    "description": "Clothing Stores",
    "phone": "(904) 955-2943",
    "address": "9951 Atlantic Boulevard Suite # 244  Jacksonville, FL 32246",
    "location": "Highlands"
  },
  {
    "name": "Ziffs",
    "description": "Clothing Stores",
    "phone": "(904) 379-7003",
    "address": "9951 Atlantic Blvd  Jacksonville, FL 32225",
    "location": "Highlands"
  },
  {
    "name": "No Tyme 2 Waist Shapewear",
    "description": "Clothing Stores",
    "phone": "(904) 503-1963",
    "address": "9951 Atlantic Blvd  Jacksonville, FL 32225",
    "location": "Highlands"
  },
  {
    "name": "Super Tall Leggings",
    "description": "Clothing Stores",
    "phone": "(904) 446-6923",
    "address": "730 Saint Johns Bluff Rd N  Jacksonville, FL 32225",
    "location": "Highlands"
  },
  {
    "name": "Du North Designs Ltd. - Kristin Pickett",
    "description": "Clothing Stores",
    "phone": "(904) 438-1140",
    "address": "43010 Double Time Ln  Callahan, FL 32011",
    "location": "Highlands"
  },
  {
    "name": "American Eagle Outfitters",
    "description": "Clothing Stores",
    "phone": "(904) 721-1405",
    "address": "9501 Arlington Expy  Jacksonville, FL 32225",
    "location": "Highlands"
  },
  {
    "name": "S & K",
    "description": "Clothing Stores",
    "phone": "(904) 725-0959",
    "address": "9501 Arlington Expy  Jacksonville, FL 32225",
    "location": "Highlands"
  },
  {
    "name": "rue21 - Closed",
    "description": "Clothing Stores",
    "phone": "(904) 223-1665",
    "address": "13500 Beach Blvd Ste 9  Jacksonville, FL 32224",
    "location": "Highlands"
  },
  {
    "name": "Beach Mart",
    "description": "Clothing Stores",
    "phone": "(888) 975-6555",
    "address": "1390 Southpoint Pkwy  Jacksonville, FL 32216",
    "location": "Highlands"
  },
  {
    "name": "Young Loud & Snotty",
    "description": "Clothing Stores",
    "phone": "(904) 247-4140",
    "address": "79 Sailfish Dr E  Atlantic Beach, FL 32233",
    "location": "Highlands"
  },
  {
    "name": "Baker's Sports",
    "description": "Clothing Stores",
    "phone": "(904) 388-8126",
    "address": "3600 Beachwood Ct  Jacksonville, FL 32224",
    "location": "Highlands"
  },
  {
    "name": "Bella Vision Custom Print and Gift",
    "description": "Clothing Stores",
    "phone": "(904) 258-0813",
    "address": "8595 Beach Boulevard  Jacksonville, FL 32216",
    "location": "Highlands"
  },
  {
    "name": "Stitches & Screens",
    "description": "Clothing Stores",
    "phone": "(904) 789-3406",
    "address": "1939 Mayport Rd  Atlantic Beach, FL 32233",
    "location": "Highlands"
  },
  {
    "name": "Buckle",
    "description": "Clothing Stores",
    "phone": "(904) 642-9673",
    "address": "10281 Midtown Pkwy  Jacksonville, FL 32246",
    "location": "Highlands"
  },
  {
    "name": "Lacoste",
    "description": "Clothing Stores",
    "phone": "(904) 641-9710",
    "address": "4663 River City Dr  Jacksonville, FL 32246",
    "location": "Highlands"
  },
  {
    "name": "Clothes Mentor",
    "description": "Clothing Stores",
    "phone": "(904) 329-9138",
    "address": "9940 Old Baymeadows Rd  Jacksonville, FL 32256",
    "location": "Highlands"
  },
  {
    "name": "HalfPipe",
    "description": "Clothing Stores",
    "phone": "(904) 288-0286",
    "address": "9766 Old Saint Augustine Rd  Jacksonville, FL 32257",
    "location": "Highlands"
  },
  {
    "name": "Over Under Clothing",
    "description": "Clothing Stores",
    "phone": "(904) 619-0577",
    "address": "4849 Dawin Rd Ste 1  Jacksonville, FL 32207",
    "location": "Highlands"
  },
  {
    "name": "Dots",
    "description": "Clothing Stores",
    "phone": "(904) 779-6787",
    "address": "3606 Blanding Blvd  Jacksonville, FL 32210",
    "location": "Highlands"
  },
  {
    "name": "Monarch",
    "description": "Clothing Stores",
    "phone": "(904) 772-1307",
    "address": "3764 Blanding Blvd  Jacksonville, FL 32210",
    "location": "Highlands"
  },
  {
    "name": "Rave Reviews",
    "description": "Clothing Stores",
    "phone": "(904) 379-5523",
    "address": "3811 University Blvd W  Jacksonville, FL 32217",
    "location": "Highlands"
  },
  {
    "name": "T.J. Maxx",
    "description": "Clothing Stores",
    "phone": "(904) 448-4603",
    "address": "3550 University Blvd W  Jacksonville, FL 32217",
    "location": "Highlands"
  },
  {
    "name": "Men's Closet",
    "description": "Clothing Stores",
    "phone": "(904) 503-4374",
    "address": "5140 Blanding Blvd  Jacksonville, FL 32210",
    "location": "Highlands"
  },
  {
    "name": "Tatum Fashion",
    "description": "Clothing Stores",
    "phone": "(904) 380-1828",
    "address": "7161 Balboa Rd  Jacksonville, FL 32217",
    "location": "Highlands"
  },
  {
    "name": "Vineyard Vines",
    "description": "Clothing Stores",
    "phone": "(904) 646-1053",
    "address": "4813 River City Drive Suite 125 St Johns Town Center  Jacksonville, FL 32246",
    "location": "Highlands"
  },
  {
    "name": "Banana Republic",
    "description": "Clothing Stores",
    "phone": "(904) 996-8190",
    "address": "1 St John's Town Center  Jacksonville, FL 32246",
    "location": "Highlands"
  },
  {
    "name": "Jam Clothing Co",
    "description": "Clothing Stores",
    "phone": "(904) 580-3526",
    "address": "2100 Brighton Bay Trl W  Jacksonville, FL 32246",
    "location": "Highlands"
  },
  {
    "name": "Fashion Junkeez",
    "description": "Clothing Stores",
    "phone": "(904) 600-1448",
    "address": "7862 Praver Dr W  Jacksonville, FL 32217",
    "location": "Highlands"
  },
  {
    "name": "Plus Please Clothing",
    "description": "Clothing Stores",
    "phone": "(904) 607-9482",
    "address": "8080 Village Gate Ct  Jacksonville, FL 32217",
    "location": "Highlands"
  },
  {
    "name": "5.11 Tactical",
    "description": "Clothing Stores",
    "phone": "(904) 559-1842",
    "address": "4600 Tropea Way Ste 101  Jacksonville, FL 32246",
    "location": "Highlands"
  },
  {
    "name": "Sockshh",
    "description": "Clothing Stores",
    "phone": "(904) 894-4103",
    "address": "4456 Capital Dome Dr  Jacksonville, FL 32246",
    "location": "Highlands"
  },
  {
    "name": "AÃ©ropostale",
    "description": "Clothing Stores",
    "phone": "(904) 646-2815",
    "address": "10281 Midtown Pkwy  Jacksonville, FL 32246",
    "location": "Highlands"
  },
  {
    "name": "Aeropostale",
    "description": "Clothing Stores",
    "phone": "(904) 646-2815",
    "address": "10281 Midtown Pkwy  Jacksonville, FL 32246",
    "location": "Highlands"
  },
  {
    "name": "Apparelyn",
    "description": "Clothing Stores",
    "phone": "(904) 601-9427",
    "address": "4585 Capital Dome Dr  Jacksonville, FL 32246",
    "location": "Highlands"
  },
  {
    "name": "Hollister",
    "description": "Clothing Stores",
    "phone": "(904) 646-3367",
    "address": "4663 River City Dr Ste 101  Jacksonville, FL 32246",
    "location": "Highlands"
  },
  {
    "name": "Hourglass Crew",
    "description": "Clothing Stores",
    "phone": "(704) 402-4655",
    "address": "5638 Village Pond Cir  Jacksonville, FL 32222",
    "location": "Highlands"
  },
  {
    "name": "UNTUCKit",
    "description": "Clothing Stores",
    "phone": "(904) 516-7277",
    "address": "4711 River City Dr Ste 101  Jacksonville, FL 32246",
    "location": "Highlands"
  },
  {
    "name": "Abercrombie & Fitch",
    "description": "Clothing Stores",
    "phone": "(904) 646-9325",
    "address": "4712 River City Dr Ste 131  Jacksonville, FL 32246",
    "location": "Highlands"
  },
  {
    "name": "The Copper Closet",
    "description": "Clothing Stores",
    "phone": "(904) 516-7001",
    "address": "4712 River City Dr  Jacksonville, FL 32246",
    "location": "Highlands"
  },
  {
    "name": "J.Crew Factory",
    "description": "Clothing Stores",
    "phone": "(904) 865-5479",
    "address": "4866 Big Island Dr Ste 9  Jacksonville, FL 32246",
    "location": "Highlands"
  },
  {
    "name": "Charlotte Russe",
    "description": "Clothing Stores",
    "phone": "(904) 807-9217",
    "address": "4870 Big Island Dr  Jacksonville, FL 32246",
    "location": "Highlands"
  },
  {
    "name": "Fabrik",
    "description": "Clothing Stores",
    "phone": "(904) 642-9888",
    "address": "10274 Buckhead Branch Dr  Jacksonville, FL 32246",
    "location": "Highlands"
  },
  {
    "name": "Alo",
    "description": "Clothing Stores",
    "phone": "(904) 853-1517",
    "address": "4813 River City Dr Ste 119  Jacksonville, FL 32246",
    "location": "Highlands"
  },
  {
    "name": "Lacoste Use",
    "description": "Clothing Stores",
    "phone": "(904) 641-9710",
    "address": "4813 River City Dr  Jacksonville, FL 32246",
    "location": "Highlands"
  },
  {
    "name": "Lacoste *Closed*",
    "description": "Clothing Stores",
    "phone": "(904) 641-9710",
    "address": "4813 River City Dr Ste V13  Jacksonville, FL 32246",
    "location": "Highlands"
  },
  {
    "name": "Tommy Bahama",
    "description": "Clothing Stores",
    "phone": "(904) 620-8868",
    "address": "4813 River City Dr  Jacksonville, FL 32246",
    "location": "Highlands"
  },
  {
    "name": "Bealls Department Store",
    "description": "Clothing Stores",
    "phone": "(904) 992-6990",
    "address": "13500 Beach Blvd  Jacksonville, FL 32224",
    "location": "Highlands"
  },
  {
    "name": "Supabaddchic Clothing",
    "description": "Clothing Stores",
    "phone": "(904) 467-0070",
    "address": "7643 Gate Pkwy  Jacksonville, FL 32256",
    "location": "Highlands"
  },
  {
    "name": "Ogunra",
    "description": "Clothing Stores",
    "phone": "(323) 743-3263",
    "address": "7643 Gate Pkwy  Jacksonville, FL 32256",
    "location": "Highlands"
  },
  {
    "name": "Tapmedic",
    "description": "Clothing Stores",
    "phone": "(904) 351-0244",
    "address": "9424 Baymeadows Rd  Jacksonville, FL 32256",
    "location": "Highlands"
  },
  {
    "name": "Ultama Swimwear",
    "description": "Clothing Stores",
    "phone": "(904) 268-0300",
    "address": "9600 Sunbeam Center Dr  Jacksonville, FL 32257",
    "location": "Highlands"
  },
  {
    "name": "Chrly",
    "description": "Clothing Stores",
    "phone": "(904) 442-4883",
    "address": "8500 Argyle Business Loop Apt 413  Jacksonville, FL 32244",
    "location": "Highlands"
  },
  {
    "name": "Uptown Cheapskate",
    "description": "Clothing Stores",
    "phone": "(904) 438-5258",
    "address": "10601 San Jose Blvd  Jacksonville, FL 32257",
    "location": "Highlands"
  },
  {
    "name": "Rue 21",
    "description": "Clothing Stores",
    "phone": "(904) 292-0085",
    "address": "3030 Hartley Rd  Jacksonville, FL 32257",
    "location": "Highlands"
  },
  {
    "name": "Snatched Fitness",
    "description": "Clothing Stores",
    "phone": "(904) 697-9591",
    "address": "10336 Walnut Bnd N  Jacksonville, FL 32257",
    "location": "Highlands"
  },
  {
    "name": "T-Shirt Express",
    "description": "Clothing Stores",
    "phone": "(904) 448-3761",
    "address": "3811 University Blvd W Ste 20  Jacksonville, FL 32217",
    "location": "Highlands"
  },
  {
    "name": "Orvis",
    "description": "Clothing Stores",
    "phone": "(904) 997-2220",
    "address": "11702 Beach Blvd Ste 109  Jacksonville, FL 32246",
    "location": "Highlands"
  },
  {
    "name": "Inland Ocean Surf",
    "description": "Clothing Stores",
    "phone": "(904) 807-9986",
    "address": "4720 Town Crossing Dr  Jacksonville, FL 32246",
    "location": "Highlands"
  },
  {
    "name": "Jay's Fashions",
    "description": "Clothing Stores",
    "phone": "(904) 771-5291",
    "address": "3644 Blanding Blvd  Jacksonville, FL 32210",
    "location": "Highlands"
  },
  {
    "name": "American Eagle",
    "description": "Clothing Stores",
    "phone": "(904) 645-0749",
    "address": "10281 Midtown Pkwy Ste 161  Jacksonville, FL 32246",
    "location": "Highlands"
  },
  {
    "name": "American Apparel",
    "description": "Clothing Stores",
    "phone": "(904) 292-4035",
    "address": "3740 Kori Rd Ste 4  Jacksonville, FL 32257",
    "location": "Highlands"
  },
  {
    "name": "Scott's Threads",
    "description": "Clothing Stores",
    "phone": "(904) 220-2348",
    "address": "2243 The Woods Dr E  Jacksonville, FL 32246",
    "location": "Highlands"
  },
  {
    "name": "J.Crew",
    "description": "Clothing Stores",
    "phone": "(904) 646-1409",
    "address": "4751 River City Dr Ste 101  Jacksonville, FL 32246",
    "location": "Highlands"
  },
  {
    "name": "blue88drive.com",
    "description": "Clothing Stores",
    "phone": "(904) 524-2232",
    "address": "4090 Hodges Blvd  Jacksonville, FL 32224",
    "location": "Highlands"
  },
  {
    "name": "Tommy Bahama Marlin Bar & Store",
    "description": "Clothing Stores",
    "phone": "(904) 620-8868",
    "address": "4812 River City Dr Ste 137  Jacksonville, FL 32246",
    "location": "Highlands"
  },
  {
    "name": "Urban Outfitters",
    "description": "Clothing Stores",
    "phone": "(904) 564-4226",
    "address": "4791 River City Dr Ste 101  Jacksonville, FL 32246",
    "location": "Highlands"
  },
  {
    "name": "Team Sports Fan",
    "description": "Clothing Stores",
    "phone": "(904) 638-2455",
    "address": "7235 Bonneval Rd  Jacksonville, FL 32256",
    "location": "Highlands"
  },
  {
    "name": "PacSun",
    "description": "Clothing Stores",
    "phone": "(904) 363-9010",
    "address": "10300 Southside Blvd  Jacksonville, FL 32256",
    "location": "Highlands"
  },
  {
    "name": "Underground Station",
    "description": "Clothing Stores",
    "phone": "(904) 363-1575",
    "address": "10300 Southside Blvd  Jacksonville, FL 32256",
    "location": "Highlands"
  },
  {
    "name": "H&M",
    "description": "Clothing Stores",
    "phone": "(855) 466-7467",
    "address": "10300 Southside Blvd  Jacksonville, FL 32256",
    "location": "Highlands"
  },
  {
    "name": "Cheekadees",
    "description": "Clothing Stores",
    "phone": "(904) 371-5717",
    "address": "11345 Landing Estates Dr  Jacksonville, FL 32257",
    "location": "Highlands"
  },
  {
    "name": "Stylo Clothing and Shoes for Women",
    "description": "Clothing Stores",
    "phone": "(904) 725-0660",
    "address": "11917 Remsen Rd  Jacksonville, FL 32223",
    "location": "Highlands"
  },
  {
    "name": "Apparel Prodigy Cheer",
    "description": "Clothing Stores",
    "phone": "(904) 438-5195",
    "address": "13444 Gran Bay Pkwy  Jacksonville, FL 32258",
    "location": "Highlands"
  },
  {
    "name": "My Clothing",
    "description": "Clothing Stores",
    "phone": "(904) 422-5881",
    "address": "25 Arrowwood Dr  Jacksonville, FL 32259",
    "location": "Highlands"
  },
  {
    "name": "Hot Topic",
    "description": "Clothing Stores",
    "phone": "(904) 538-9677",
    "address": "10300 Southside Blvd  Jacksonville, FL 32256",
    "location": "Highlands"
  },
  {
    "name": "Bealls",
    "description": "Clothing Stores",
    "phone": "(904) 714-3564",
    "address": "1100 Dunn Ave  Jacksonville, FL 32218",
    "location": "Highlands"
  },
  {
    "name": "JCPenney",
    "description": "Clothing Stores",
    "phone": "(904) 768-0541",
    "address": "3000 Dunn Ave  Jacksonville, FL 32218",
    "location": "Highlands"
  },
  {
    "name": "Menz Closet",
    "description": "Clothing Stores",
    "phone": "(904) 619-2385",
    "address": "12123 Lem Turner Rd Ste 8  Jacksonville, FL 32218",
    "location": "Highlands"
  },
  {
    "name": "Urban Lyfe Style",
    "description": "Clothing Stores",
    "phone": "(904) 379-7321",
    "address": "4750 Soutel Dr  Jacksonville, FL 32208",
    "location": "Highlands"
  },
  {
    "name": "GARAGE",
    "description": "Clothing Stores",
    "phone": "(904) 404-1196",
    "address": "1553 W 45th St  Jacksonville, FL 32208",
    "location": "Highlands"
  },
  {
    "name": "NIA Company",
    "description": "Clothing Stores",
    "phone": "(904) 751-2005",
    "address": "909 Rock Bay Dr  Jacksonville, FL 32218",
    "location": "Highlands"
  },
  {
    "name": "Five Below",
    "description": "Clothing Stores",
    "phone": "(904) 441-8076",
    "address": "5258-12 Norwood Ave  Jacksonville, FL 32208",
    "location": "Highlands"
  },
  {
    "name": "Kyongs",
    "description": "Clothing Stores",
    "phone": "(904) 683-2806",
    "address": "5301 Norwood Ave  Jacksonville, FL 32208",
    "location": "Highlands"
  },
  {
    "name": "Duluth Trading Company",
    "description": "Clothing Stores",
    "phone": "(904) 903-2350",
    "address": "13000 City Station Dr  Jacksonville, FL 32218",
    "location": "Highlands"
  },
  {
    "name": "One Stop Clothing Store",
    "description": "Clothing Stores",
    "phone": "(904) 766-2067",
    "address": "5422 Soutel Dr  Jacksonville, FL 32219",
    "location": "Highlands"
  },
  {
    "name": "Torrid",
    "description": "Clothing Stores",
    "phone": "(904) 490-7951",
    "address": "13221 City Station Dr  Jacksonville, FL 32218",
    "location": "Highlands"
  },
  {
    "name": "Catherines Plus Sizes",
    "description": "Clothing Stores",
    "phone": "(904) 423-4190",
    "address": "13221 City Station Dr  Jacksonville, FL 32218",
    "location": "Highlands"
  },
  {
    "name": "Maurices",
    "description": "Clothing Stores",
    "phone": "(904) 714-0077",
    "address": "13221 City Station Dr Ste 129  Jacksonville, FL 32218",
    "location": "Highlands"
  },
  {
    "name": "Distinctions",
    "description": "Clothing Stores",
    "phone": "(904) 764-7747",
    "address": "5002 Norwood Ave  Jacksonville, FL 32208",
    "location": "Highlands"
  },
  {
    "name": "Gabrisa Shoe Fashion",
    "description": "Clothing Stores",
    "phone": "(904) 374-9341",
    "address": "11209 Silver Key Dr  Jacksonville, FL 32218",
    "location": "Highlands"
  },
  {
    "name": "Marshalls",
    "description": "Clothing Stores",
    "phone": "(904) 751-1183",
    "address": "14964 Duval Rd  Jacksonville, FL 32218",
    "location": "Highlands"
  },
  {
    "name": "Ross Dress for Less",
    "description": "Clothing Stores",
    "phone": "(904) 751-1249",
    "address": "13291 City Station Dr  Jacksonville, FL 32218",
    "location": "Highlands"
  },
  {
    "name": "Brooks Brothers",
    "description": "Clothing Stores",
    "phone": "(904) 741-0452",
    "address": "2400 Yankee Clipper Dr  Jacksonville, FL 32218",
    "location": "Highlands"
  },
  {
    "name": "Iron Donut Inc",
    "description": "Clothing Stores",
    "phone": "(904) 619-8432",
    "address": "332 E 10th St  Jacksonville, FL 32206",
    "location": "Highlands"
  },
  {
    "name": "T-Shirt Engineers",
    "description": "Clothing Stores",
    "phone": "(800) 288-7447",
    "address": "311 W 4th St  Jacksonville, FL 32206",
    "location": "Highlands"
  },
  {
    "name": "DPF Solutions Group",
    "description": "Clothing Stores",
    "phone": "(904) 537-7927",
    "address": "1333 Haines St Ste 2  Jacksonville, FL 32206",
    "location": "Highlands"
  },
  {
    "name": "Consignment Cottage Inc",
    "description": "Clothing Stores",
    "phone": "(904) 744-9707",
    "address": "2037 University Blvd N  Jacksonville, FL 32211",
    "location": "Highlands"
  },
  {
    "name": "Saint Paul United Methodist Church",
    "description": "Clothing Stores",
    "phone": "(904) 724-0023",
    "address": "8264 Lone Star Rd  Jacksonville, FL 32211",
    "location": "Highlands"
  },
  {
    "name": "Sears",
    "description": "Clothing Stores",
    "phone": "(904) 757-9959",
    "address": "3850 Port Jacksonville Pkwy  Jacksonville, FL 32226",
    "location": "Highlands"
  },
  {
    "name": "Male Ego Menswear",
    "description": "Clothing Stores",
    "phone": "(904) 388-4525",
    "address": "740 Edgewood Ave N  Jacksonville, FL 32254",
    "location": "Highlands"
  },
  {
    "name": "Miracle Tax Services",
    "description": "Clothing Stores",
    "phone": "(904) 374-7043",
    "address": "742 Edgewood Ave N  Jacksonville, FL 32254",
    "location": "Highlands"
  },
  {
    "name": "Mover & Shaker Co",
    "description": "Clothing Stores",
    "phone": "(904) 503-2068",
    "address": "757 King St  Jacksonville, FL 32204",
    "location": "Highlands"
  },
  {
    "name": "Jacksonville Team Sports",
    "description": "Clothing Stores",
    "phone": "(904) 683-4938",
    "address": "1433 Romney St Ste 2  Jacksonville, FL 32211",
    "location": "Highlands"
  },
  {
    "name": "Fitz Pullins Inventory Room",
    "description": "Clothing Stores",
    "phone": "(904) 322-3469",
    "address": "1037 Park St  Jacksonville, FL 32204",
    "location": "Highlands"
  },
  {
    "name": "Scout & Molly's San Marco",
    "description": "Clothing Stores",
    "phone": "(904) 240-0370",
    "address": "1960 San Marco Blvd  Jacksonville, FL 32207",
    "location": "Highlands"
  },
  {
    "name": "Beau Outfitters",
    "description": "Clothing Stores",
    "phone": "(904) 551-3904",
    "address": "1972 San Marco Blvd  Jacksonville, FL 32207",
    "location": "Highlands"
  },
  {
    "name": "Lace Up",
    "description": "Clothing Stores",
    "phone": "(904) 503-7912",
    "address": "5144 Normandy Blvd  Jacksonville, FL 32205",
    "location": "Highlands"
  },
  {
    "name": "Airbrush By Host",
    "description": "Clothing Stores",
    "phone": "(904) 693-3261",
    "address": "5047 College St  Jacksonville, FL 32205",
    "location": "Highlands"
  },
  {
    "name": "Ramona Flea Market",
    "description": "Clothing Stores",
    "phone": "(904) 786-3532",
    "address": "7059 Ramona Blvd  Jacksonville, FL 32205",
    "location": "Highlands"
  },
  {
    "name": "Hair Bar",
    "description": "Clothing Stores",
    "phone": "(904) 513-4311",
    "address": "9501 Arlington Expy Ste 160  Jacksonville, FL 32225",
    "location": "Highlands"
  },
  {
    "name": "T's and More",
    "description": "Clothing Stores",
    "phone": "(904) 378-0040",
    "address": "5535 Normandy Blvd  Jacksonville, FL 32205",
    "location": "Highlands"
  },
  {
    "name": "Three Chicks",
    "description": "Clothing Stores",
    "phone": "(904) 384-0728",
    "address": "3575 Saint Johns Ave  Jacksonville, FL 32205",
    "location": "Highlands"
  },
  {
    "name": "Ellie Bing Avondale",
    "description": "Clothing Stores",
    "phone": "(904) 232-8866",
    "address": "3639 Saint Johns Ave  Jacksonville, FL 32205",
    "location": "Highlands"
  },
  {
    "name": "Synsha Fashions",
    "description": "Clothing Stores",
    "phone": "(904) 475-2173",
    "address": "5808 Normandy Blvd  Jacksonville, FL 32205",
    "location": "Highlands"
  },
  {
    "name": "Poindexters Uniform Company",
    "description": "Clothing Stores",
    "phone": "(904) 661-1120",
    "address": "3730 Beach Blvd  Jacksonville, FL 32207",
    "location": "Highlands"
  },
  {
    "name": "Unique World of Fashion",
    "description": "Clothing Stores",
    "phone": "(904) 513-3808",
    "address": "101 Century 21 Dr  Jacksonville, FL 32216",
    "location": "Highlands"
  },
  {
    "name": "I Heart Fashion",
    "description": "Clothing Stores",
    "phone": "(904) 381-0881",
    "address": "4555 Shirley Ave  Jacksonville, FL 32210",
    "location": "Highlands"
  },
  {
    "name": "Bealls Outlet",
    "description": "Clothing Stores",
    "phone": "(904) 722-0780",
    "address": "9400 Atlantic Blvd  Jacksonville, FL 32225",
    "location": "Highlands"
  },
  {
    "name": "A Army Navy Depot",
    "description": "Clothing Stores",
    "phone": "(904) 388-7113",
    "address": "4721 San Juan Ave  Jacksonville, FL 32210",
    "location": "Highlands"
  },
  {
    "name": "Hunt Life",
    "description": "Clothing Stores",
    "phone": "(855) 691-1176",
    "address": "703 Monte Carlo Rd  Jacksonville, FL 32216",
    "location": "Highlands"
  },
  {
    "name": "The Children's Place",
    "description": "Clothing Stores",
    "phone": "(904) 388-8802",
    "address": "5154 San Juan Ave  Jacksonville, FL 32210",
    "location": "Highlands"
  },
  {
    "name": "Figueroa Enterprise",
    "description": "Clothing Stores",
    "phone": "(904) 725-6788",
    "address": "8880 Corporate Square Ct  Jacksonville, FL 32216",
    "location": "Highlands"
  },
  {
    "name": "Ufm",
    "description": "Clothing Stores",
    "phone": "(866) 521-1118",
    "address": "4344 Philips Hwy  Jacksonville, FL 32207",
    "location": "Highlands"
  },
  {
    "name": "Kmart",
    "description": "Clothing Stores",
    "phone": "(904) 783-2008",
    "address": "1501 Normandy Village Pkwy  Jacksonville, FL 32221",
    "location": "Highlands"
  },
  {
    "name": "Gunnerstees",
    "description": "Clothing Stores",
    "phone": "(904) 513-4370",
    "address": "962 Saint Johns Bluff Rd N  Jacksonville, FL 32225",
    "location": "Highlands"
  },
  {
    "name": "APS Promotional Solutions, Inc.",
    "description": "Clothing Stores",
    "phone": "(904) 721-4977",
    "address": "7121 Beach Blvd  Jacksonville, FL 32216",
    "location": "Highlands"
  },
  {
    "name": "Chico's",
    "description": "Clothing Stores",
    "phone": "(904) 384-5880",
    "address": "3600 Saint Johns Ave  Jacksonville, FL 32205",
    "location": "Highlands"
  },
  {
    "name": "Wet Seal",
    "description": "Clothing Stores",
    "phone": "(904) 721-2476",
    "address": "9501 Arlington Expy Ste 140  Jacksonville, FL 32225",
    "location": "Highlands"
  },
  {
    "name": "Justice",
    "description": "Clothing Stores",
    "phone": "(904) 807-9279",
    "address": "4712 River City Dr Ste 103  Jacksonville, FL 32246",
    "location": "Highlands"
  },
  {
    "name": "Once Upon A Child Orange Park/Jacksonville, FL",
    "description": "Clothing Stores",
    "phone": "(904) 573-0760",
    "address": "6000 Lake Gray Blvd  Jacksonville, FL 32244",
    "location": "Highlands"
  },
  {
    "name": "1st Place Sports",
    "description": "Clothing Stores",
    "phone": "(904) 731-3676",
    "address": "3931 Baymeadows Rd  Jacksonville, FL 32217",
    "location": "Highlands"
  },
  {
    "name": "Bridals & More",
    "description": "Clothing Stores",
    "phone": "(904) 434-6627",
    "address": "12226 Beach Blvd Ste 6  Jacksonville, FL 32246",
    "location": "Highlands"
  },
  {
    "name": "First Coast T-Shirt Co",
    "description": "Clothing Stores",
    "phone": "(904) 737-1985",
    "address": "5971 Powers Ave, STE 4  Jacksonville, FL 32217",
    "location": "Highlands"
  },
  {
    "name": "America's Heart Vet Aide Inc.",
    "description": "Clothing Stores",
    "phone": "(904) 625-0080",
    "address": "11041 Beach Blvd  Jacksonville, FL 32246",
    "location": "Highlands"
  },
  {
    "name": "Adornapparel.us",
    "description": "Clothing Stores",
    "phone": "(904) 402-4421",
    "address": "8493 Baymeadows Way  Jacksonville, FL 32256",
    "location": "Highlands"
  },
  {
    "name": "City Gear",
    "description": "Clothing Stores",
    "phone": "(904) 891-6039",
    "address": "5867 University Blvd W Spc 5867  Jacksonville, FL 32216",
    "location": "Highlands"
  },
  {
    "name": "Southern Fox",
    "description": "Clothing Stores",
    "phone": "(904) 446-6205",
    "address": "4604 Westfield Rd  Jacksonville, FL 32210",
    "location": "Highlands"
  },
  {
    "name": "Rosenblum's",
    "description": "Clothing Stores",
    "phone": "(904) 733-8633",
    "address": "5500 San Jose Blvd  Jacksonville, FL 32207",
    "location": "Highlands"
  },
  {
    "name": "Yourself Expression",
    "description": "Clothing Stores",
    "phone": "(904) 518-4538",
    "address": "2159 Saint Johns Bluff Rd S Unit 4  Jacksonville, FL 32246",
    "location": "Highlands"
  },
  {
    "name": "Mover & Shaker Co.",
    "description": "Clothing Stores",
    "phone": "(904) 503-2068",
    "address": "10850 Grayson St  Jacksonville, FL 32220",
    "location": "Highlands"
  },
  {
    "name": "Fine and Flashy Boutique",
    "description": "Clothing Stores",
    "phone": "(904) 444-4458",
    "address": "2464 Spring Vale Rd  Jacksonville, FL 32246",
    "location": "Highlands"
  },
  {
    "name": "SEPHORA at Kohl's",
    "description": "Clothing Stores",
    "phone": "(904) 646-1813",
    "address": "11824 Atlantic Blvd  Jacksonville, FL 32225",
    "location": "Highlands"
  },
  {
    "name": "Costume Mens Clothing Store",
    "description": "Clothing Stores",
    "phone": "(904) 374-2170",
    "address": "7900 103rd St Ste 15  Jacksonville, FL 32210",
    "location": "Highlands"
  },
  {
    "name": "Christian Apparel Shop",
    "description": "Clothing Stores",
    "phone": "(904) 503-1927",
    "address": "2210 Mossbrook Ct  Jacksonville, FL 32221",
    "location": "Highlands"
  },
  {
    "name": "Modelcitizen",
    "description": "Clothing Stores",
    "phone": "(904) 674-2420",
    "address": "4413 Town Center Pkwy  Jacksonville, FL 32246",
    "location": "Highlands"
  },
  {
    "name": "Oshkosh B'Gosh",
    "description": "Clothing Stores",
    "phone": "(904) 997-6769",
    "address": "10261 River Marsh Dr Ste 183  Jacksonville, FL 32246",
    "location": "Highlands"
  },
  {
    "name": "DXL Big + Tall",
    "description": "Clothing Stores",
    "phone": "(904) 641-7851",
    "address": "4871 Town Center Pkwy Ste 1  Jacksonville, FL 32246",
    "location": "Highlands"
  },
  {
    "name": "Forever 21",
    "description": "Clothing Stores",
    "phone": "(904) 646-4571",
    "address": "4663 River City Dr  Jacksonville, FL 32246",
    "location": "Highlands"
  },
  {
    "name": "True Religion Jeans",
    "description": "Clothing Stores",
    "phone": "(904) 928-4031",
    "address": "4663 River City Dr Ste 143  Jacksonville, FL 32246",
    "location": "Highlands"
  },
  {
    "name": "Offline",
    "description": "Clothing Stores",
    "phone": "(904) 701-5555",
    "address": "4711 River City Dr Ste 125  Jacksonville, FL 32246",
    "location": "Highlands"
  },
  {
    "name": "Clelia's Party Dresses",
    "description": "Clothing Stores",
    "phone": "(904) 723-1144",
    "address": "4711 River City Dr Ste 125  Jacksonville, FL 32246",
    "location": "Highlands"
  },
  {
    "name": "White House | Black Market",
    "description": "Clothing Stores",
    "phone": "(904) 645-5005",
    "address": "4751 River City Dr Ste 107  Jacksonville, FL 32246",
    "location": "Highlands"
  },
  {
    "name": "Oakley Store",
    "description": "Clothing Stores",
    "phone": "(904) 642-8803",
    "address": "4751 River City Dr Ste P01-A  Jacksonville, FL 32246",
    "location": "Highlands"
  },
  {
    "name": "Loft",
    "description": "Clothing Stores",
    "phone": "(904) 564-1926",
    "address": "4751 River City Dr  Jacksonville, FL 32246",
    "location": "Highlands"
  },
  {
    "name": "Fabletics",
    "description": "Clothing Stores",
    "phone": "(904) 539-9715",
    "address": "4751 River City Dr  Jacksonville, FL 32246",
    "location": "Highlands"
  },
  {
    "name": "Levi's",
    "description": "Clothing Stores",
    "phone": "(904) 932-9501",
    "address": "4751 River City Dr Ste 107  Jacksonville, FL 32246",
    "location": "Highlands"
  },
  {
    "name": "Arula",
    "description": "Clothing Stores",
    "phone": "(904) 549-7676",
    "address": "4751 River City Dr  Jacksonville, FL 32246",
    "location": "Highlands"
  },
  {
    "name": "Lucky Brand",
    "description": "Clothing Stores",
    "phone": "(904) 642-3571",
    "address": "4712 River City Dr Ste 111  Jacksonville, FL 32246",
    "location": "Highlands"
  },
  {
    "name": "Altar'd State St Johns Town Center",
    "description": "Clothing Stores",
    "phone": "(904) 549-7676",
    "address": "4712 River City Dr Ste 131  Jacksonville, FL 32246",
    "location": "Highlands"
  },
  {
    "name": "abercrombie kids",
    "description": "Clothing Stores",
    "phone": "(904) 646-9325",
    "address": "4712 River City Dr Ste 131  Jacksonville, FL 32246",
    "location": "Highlands"
  },
  {
    "name": "Cache",
    "description": "Clothing Stores",
    "phone": "(904) 642-0676",
    "address": "4742 River City Dr Ste 113  Jacksonville, FL 32246",
    "location": "Highlands"
  },
  {
    "name": "Athleta",
    "description": "Clothing Stores",
    "phone": "(904) 641-3331",
    "address": "4791 River City Dr  Jacksonville, FL 32246",
    "location": "Highlands"
  },
  {
    "name": "FP Movement",
    "description": "Clothing Stores",
    "phone": "(904) 736-2357",
    "address": "4791 River City Dr Ste 131  Jacksonville, FL 32246",
    "location": "Highlands"
  },
  {
    "name": "Nordstrom Rack The Markets at Town Center",
    "description": "Clothing Stores",
    "phone": "(904) 328-2340",
    "address": "4924 Big Island Dr  Jacksonville, FL 32246",
    "location": "Highlands"
  },
  {
    "name": "Lilly Pulitzer",
    "description": "Clothing Stores",
    "phone": "(904) 645-8460",
    "address": "4812 River City Dr Ste 101  Jacksonville, FL 32246",
    "location": "Highlands"
  },
  {
    "name": "Evereve",
    "description": "Clothing Stores",
    "phone": "(904) 870-9601",
    "address": "4812 River City Dr Ste 113  Jacksonville, FL 32246",
    "location": "Highlands"
  },
  {
    "name": "True Religion Brand Jeans",
    "description": "Clothing Stores",
    "phone": "(904) 928-4031",
    "address": "4813 River City Dr  Jacksonville, FL 32246",
    "location": "Highlands"
  },
  {
    "name": "Nordstrom St. Johns Town Center",
    "description": "Clothing Stores",
    "phone": "(904) 672-2200",
    "address": "4835 Town Crossing Dr  Jacksonville, FL 32246",
    "location": "Highlands"
  },
  {
    "name": "Alterations at Nordstrom",
    "description": "Clothing Stores",
    "phone": "(904) 672-2125",
    "address": "4835 Town Crossing Dr Ste A  Jacksonville, FL 32246",
    "location": "Highlands"
  },
  {
    "name": "Tory Burch",
    "description": "Clothing Stores",
    "phone": "(904) 565-9587",
    "address": "4835 River City Dr Ste 101  Jacksonville, FL 32246",
    "location": "Highlands"
  },
  {
    "name": "Stage Lighting Store",
    "description": "Clothing Stores",
    "phone": "(904) 688-0382",
    "address": "8535 Baymeadows Rd Ste 59  Jacksonville, FL 32256",
    "location": "Highlands"
  },
  {
    "name": "dmaDesigns",
    "description": "Clothing Stores",
    "phone": "(904) 629-9640",
    "address": "10961 Burnt Mill Rd  Jacksonville, FL 32256",
    "location": "Highlands"
  },
  {
    "name": "Tom James Company",
    "description": "Clothing Stores",
    "phone": "(904) 737-3301",
    "address": "9432 Baymeadows Rd Ste 150  Jacksonville, FL 32256",
    "location": "Highlands"
  },
  {
    "name": "More Than Ink",
    "description": "Clothing Stores",
    "phone": "(904) 215-1086",
    "address": "4850 Collins Rd  Jacksonville, FL 32244",
    "location": "Highlands"
  },
  {
    "name": "TAG CUSTOM BRIDAL",
    "description": "Clothing Stores",
    "phone": "(904) 998-9978",
    "address": "10010 Belle Rive Blvd Apt 1808  Jacksonville, FL 32256",
    "location": "Highlands"
  },
  {
    "name": "Organic Style Unveiled",
    "description": "Clothing Stores",
    "phone": "(904) 998-9978",
    "address": "10010 Belle Rive Blvd  Jacksonville, FL 32256",
    "location": "Highlands"
  },
  {
    "name": "Buy Buy Baby",
    "description": "Clothing Stores",
    "phone": "(904) 363-6014",
    "address": "8801 Southside Blvd Ste 10  Jacksonville, FL 32256",
    "location": "Highlands"
  },
  {
    "name": "Courtneys Closet",
    "description": "Clothing Stores",
    "phone": "(904) 379-8497",
    "address": "10308 Marble Egret Dr  Jacksonville, FL 32257",
    "location": "Highlands"
  },
  {
    "name": "Velocity Athletics",
    "description": "Clothing Stores",
    "phone": "(904) 880-4226",
    "address": "2950 Halcyon Ln Ste 503  Jacksonville, FL 32223",
    "location": "Highlands"
  },
  {
    "name": "Low Deuce",
    "description": "Clothing Stores",
    "phone": "(904) 372-0292",
    "address": "2158 Mayport Rd  Jacksonville, FL 32233",
    "location": "Highlands"
  },
  {
    "name": "Small Town Rags Boutique & Gifts",
    "description": "Clothing Stores",
    "phone": "(904) 910-0695",
    "address": "450028 State Road 200  Callahan, FL 32011",
    "location": "Highlands"
  },
  {
    "name": "Localized Co Inc",
    "description": "Clothing Stores",
    "phone": "(904) 207-3485",
    "address": "101 Levy Rd  Atlantic Beach, FL 32233",
    "location": "Highlands"
  },
  {
    "name": "Male Menswear",
    "description": "Clothing Stores",
    "phone": "(904) 900-1699",
    "address": "6677 103rd St  Jacksonville, FL 32210",
    "location": "Highlands"
  },
  {
    "name": "Crown Trophy",
    "description": "Clothing Stores",
    "phone": "(904) 260-4871",
    "address": "11792 San Jose Blvd  Jacksonville, FL 32223",
    "location": "Highlands"
  },
  {
    "name": "Avenue",
    "description": "Clothing Stores",
    "phone": "(904) 268-0899",
    "address": "11111 San Jose Blvd  Jacksonville, FL 32223",
    "location": "Highlands"
  },
  {
    "name": "Subculture Corsets & Clothing",
    "description": "Clothing Stores",
    "phone": "(904) 379-7809",
    "address": "10300 Southside Blvd  Jacksonville, FL 32256",
    "location": "Highlands"
  },
  {
    "name": "Earthbound Trading Co.",
    "description": "Clothing Stores",
    "phone": "(904) 902-7362",
    "address": "10300 Southside Blvd Ste 2600  Jacksonville, FL 32256",
    "location": "Highlands"
  },
  {
    "name": "Mischief",
    "description": "Clothing Stores",
    "phone": "(904) 363-0075",
    "address": "10300 Southside Blvd  Jacksonville, FL 32256",
    "location": "Highlands"
  },
  {
    "name": "Natural Life Collections",
    "description": "Clothing Stores",
    "phone": "(904) 363-1189",
    "address": "10300 Southside Blvd  Jacksonville, FL 32256",
    "location": "Highlands"
  },
  {
    "name": "Zumiez",
    "description": "Clothing Stores",
    "phone": "(904) 464-0271",
    "address": "10300 Southside Blvd  Jacksonville, FL 32256",
    "location": "Highlands"
  },
  {
    "name": "Copper Closet",
    "description": "Clothing Stores",
    "phone": "(904) 300-3800",
    "address": "10300 Southside Blvd  Jacksonville, FL 32256",
    "location": "Highlands"
  },
  {
    "name": "Papaya Clothing",
    "description": "Clothing Stores",
    "phone": "(904) 538-0800",
    "address": "10300 Southside Blvd Ste 1615a  Jacksonville, FL 32256",
    "location": "Highlands"
  },
  {
    "name": "J & J Design",
    "description": "Clothing Stores",
    "phone": "(904) 739-8202",
    "address": "11620 Columbia Park Dr E  Jacksonville, FL 32258",
    "location": "Highlands"
  },
  {
    "name": "SEPHORA at Kohl's Jacksonville SE",
    "description": "Clothing Stores",
    "phone": "(904) 260-2024",
    "address": "13760 Old Saint Augustine Rd  Jacksonville, FL 32258",
    "location": "Highlands"
  },
  {
    "name": "Pride of the Sunshine Printing",
    "description": "Clothing Stores",
    "phone": "(855) 507-8077",
    "address": "12808 Gran Bay Pkwy W  Jacksonville, FL 32258",
    "location": "Highlands"
  },
  {
    "name": "New York & Company",
    "description": "Clothing Stores",
    "phone": "(734) 525-8380",
    "address": "10300 Southside Blvd Ste 164  Jacksonville, FL 32256",
    "location": "Highlands"
  },
  {
    "name": "Hibbett Sports",
    "description": "Sporting Goods",
    "phone": "(904) 477-4832",
    "address": "936 Dunn Ave Spc 934B  Jacksonville, FL 32218",
    "location": "Highlands"
  },
  {
    "name": "Alpha & Omega Dry Cleaners & Clothing Store",
    "description": "Women's Clothing",
    "phone": "(904) 765-1371",
    "address": "2945 Broward Rd  Jacksonville, FL 32218",
    "location": "Highlands"
  },
  {
    "name": "Foot Locker",
    "description": "Shoe Stores",
    "phone": "(904) 768-3350",
    "address": "9268 Lem Turner Rd  Jacksonville, FL 32208",
    "location": "Highlands"
  },
  {
    "name": "904 Fashions Jax Inc",
    "description": "Women's Clothing",
    "phone": "(904) 765-4448",
    "address": "9268 Lem Turner Rd  Jacksonville, FL 32208",
    "location": "Highlands"
  },
  {
    "name": "Brownings Bargains",
    "description": "Home Furnishings",
    "phone": "(904) 764-3788",
    "address": "2402 Trout River Blvd  Jacksonville, FL 32208",
    "location": "Highlands"
  },
  {
    "name": "Lots of Chances",
    "description": "Department Stores",
    "phone": "(904) 379-0316",
    "address": "2952 Dunn Ave  Jacksonville, FL 32218",
    "location": "Highlands"
  },
  {
    "name": "Cato Fashions",
    "description": "Women's Clothing",
    "phone": "(904) 766-1578",
    "address": "3000 Dunn Ave  Jacksonville, FL 32218",
    "location": "Highlands"
  },
  {
    "name": "Simply Fashion",
    "description": "Women's Clothing",
    "phone": "(904) 764-7900",
    "address": "3000 Dunn Ave  Jacksonville, FL 32218",
    "location": "Highlands"
  },
  {
    "name": "Venusfashion",
    "description": "Women's Clothing",
    "phone": "(904) 337-0757",
    "address": "1 Imeson Park Blvd  Jacksonville, FL 32218",
    "location": "Highlands"
  },
  {
    "name": "A & B This & That",
    "description": "Department Stores",
    "phone": "(904) 240-1063",
    "address": "8138 Lem Turner Rd  Jacksonville, FL 32208",
    "location": "Highlands"
  },
  {
    "name": "DressBarn",
    "description": "Women's Clothing",
    "phone": "(904) 724-5586",
    "address": "REGENCY Commons  Jacksonville, FL 32225",
    "location": "Highlands"
  },
  {
    "name": "Wal-Mart SuperCenter",
    "description": "General Merchandise",
    "phone": "(904) 764-2855",
    "address": "12100 Lem Turner Rd  Jacksonville, FL 32218",
    "location": "Highlands"
  },
  {
    "name": "Heritage Sportswear",
    "description": "Sportswear",
    "phone": "(904) 723-4936",
    "address": "7660 Gainesville Ave  Jacksonville, FL 32208",
    "location": "Highlands"
  },
  {
    "name": "Come Smell Me",
    "description": "Department Stores",
    "phone": "(904) 554-8762",
    "address": "2081 Edgewood Ave W  Jacksonville, FL 32208",
    "location": "Highlands"
  },
  {
    "name": "Yours & Mine Cloth",
    "description": "Women's Clothing",
    "phone": "(904) 764-2667",
    "address": "9013 Castle Blvd  Jacksonville, FL 32208",
    "location": "Highlands"
  },
  {
    "name": "Maxway",
    "description": "General Merchandise",
    "phone": "(904) 765-1668",
    "address": "203 W 48th St Ste 8  Jacksonville, FL 32208",
    "location": "Highlands"
  },
  {
    "name": "U-Sneakapeek",
    "description": "Sportswear",
    "phone": "(631) 520-8249",
    "address": "5190 Johnson Lake Ct  Jacksonville, FL 32218",
    "location": "Highlands"
  },
  {
    "name": "Ashley Stewart",
    "description": "Women's Clothing",
    "phone": "(904) 766-7916",
    "address": "5238 Norwood Ave  Jacksonville, FL 32208",
    "location": "Highlands"
  },
  {
    "name": "Made Men Inc",
    "description": "Men's Clothing",
    "phone": "(904) 559-9999",
    "address": "5301 Norwood Ave  Jacksonville, FL 32208",
    "location": "Highlands"
  },
  {
    "name": "Alpha Male Menswear",
    "description": "Men's Clothing",
    "phone": "(904) 924-3933",
    "address": "5301 Norwood Ave  Jacksonville, FL 32208",
    "location": "Highlands"
  },
  {
    "name": "New York Fashions",
    "description": "Women's Clothing",
    "phone": "(904) 356-3973",
    "address": "5751 N Main St  Jacksonville, FL 32208",
    "location": "Highlands"
  },
  {
    "name": "Roses Express",
    "description": "Variety Stores",
    "phone": "(904) 765-1668",
    "address": "203 E 48th St  Jacksonville, FL 32208",
    "location": "Highlands"
  },
  {
    "name": "Kim's Fashions",
    "description": "Women's Clothing",
    "phone": "(904) 766-2213",
    "address": "5000 Norwood Ave  Jacksonville, FL 32208",
    "location": "Highlands"
  },
  {
    "name": "Men's Wearhouse",
    "description": "Men's Clothing",
    "phone": "(904) 696-6162",
    "address": "13141 City Station Dr  Jacksonville, FL 32218",
    "location": "Highlands"
  },
  {
    "name": "Rack Room Shoes",
    "description": "Shoe Stores",
    "phone": "(904) 714-4184",
    "address": "13221 City Station Dr Ste 121  Jacksonville, FL 32218",
    "location": "Highlands"
  },
  {
    "name": "Lane Bryant",
    "description": "Women's Clothing",
    "phone": "(904) 271-3200",
    "address": "13221 City Station Dr  Jacksonville, FL 32218",
    "location": "Highlands"
  },
  {
    "name": "TDJ's Boutique",
    "description": "Women's Clothing",
    "phone": "(904) 537-6015",
    "address": "1565 W 30th St  Jacksonville, FL 32209",
    "location": "Highlands"
  },
  {
    "name": "Walmart Supercenter",
    "description": "General Merchandise",
    "phone": "(904) 751-5552",
    "address": "13227 City Square Dr  Jacksonville, FL 32218",
    "location": "Highlands"
  },
  {
    "name": "Body Central",
    "description": "Women's Clothing",
    "phone": "(904) 696-6954",
    "address": "13271 City Station Dr Ste 101  Jacksonville, FL 32218",
    "location": "Highlands"
  },
  {
    "name": "Shoppes at River City",
    "description": "Department Stores",
    "phone": "(904) 751-0140",
    "address": "510 Airport Center Dr Ste 101  Jacksonville, FL 32218",
    "location": "Highlands"
  },
  {
    "name": "Dick's Sporting Goods",
    "description": "Sporting Goods",
    "phone": "(904) 757-9602",
    "address": "14964 Max Leggett Pkwy  Jacksonville, FL 32218",
    "location": "Highlands"
  },
  {
    "name": "TJX Companies, Inc",
    "description": "Department Stores",
    "phone": "(904) 751-1183",
    "address": "14964 Max Leggett Pkwy  Jacksonville, FL 32218",
    "location": "Highlands"
  },
  {
    "name": "A1a Marketing Solutions",
    "description": "Women's Clothing",
    "phone": "(904) 294-4771",
    "address": "1299 Brighton Ridge Ct  Jacksonville, FL 32218",
    "location": "Highlands"
  },
  {
    "name": "Ysyntricity",
    "description": "Women's Clothing",
    "phone": "(904) 214-5983",
    "address": "14 West 8th Street  Jacksonville, FL 32206",
    "location": "Highlands"
  },
  {
    "name": "Goddess",
    "description": "Women's Clothing",
    "phone": "(904) 422-8176",
    "address": "1961 W 2nd St  Jacksonville, FL 32209",
    "location": "Highlands"
  },
  {
    "name": "Teez Me Print Shop",
    "description": "Party & Event Planners",
    "phone": "(904) 239-6872",
    "address": "3140 Caribbean Dr  Jacksonville, FL 32277",
    "location": "Highlands"
  },
  {
    "name": "Fifi Fine Resale Apparel of San Marco",
    "description": "Consignment Service",
    "phone": "(904) 398-0069",
    "address": "1068 Hendricks Ave  Jacksonville, FL 32207",
    "location": "Highlands"
  },
  {
    "name": "Mariano's Custom Tailor",
    "description": "Tailors",
    "phone": "(904) 398-0743",
    "address": "3104 Beach Blvd  Jacksonville, FL 32207",
    "location": "Highlands"
  },
  {
    "name": "KeeCatori Chakwaina Closet",
    "description": "Consignment Service",
    "phone": "(904) 479-5669",
    "address": "28642 Post St Office Box  Jacksonville, FL 32204",
    "location": "Highlands"
  },
  {
    "name": "Aviator Gear",
    "description": "Department Stores",
    "phone": "(904) 530-5548",
    "address": "221 N Hogan St  Jacksonville, FL 32202",
    "location": "Highlands"
  },
  {
    "name": "K Anthony",
    "description": "Boutique Items",
    "phone": "(904) 619-7954",
    "address": "209 N Laura St  Jacksonville, FL 32202",
    "location": "Highlands"
  },
  {
    "name": "Dress for Success Northeast Florida",
    "description": "Department Stores",
    "phone": "(904) 798-4303",
    "address": "215 N Market St Ste 280  Jacksonville, FL 32202",
    "location": "Highlands"
  },
  {
    "name": "DBDAF",
    "description": "T-Shirts",
    "phone": "(904) 352-5833",
    "address": "614 Pecan Park Rd # C-15  Jacksonville, FL 32218",
    "location": "Highlands"
  },
  {
    "name": "Addix",
    "description": "Sportswear",
    "phone": "(616) 987-3364",
    "address": "1708 Marshall St  Jacksonville, FL 32206",
    "location": "Highlands"
  },
  {
    "name": "Frugal Diva Boutique",
    "description": "Lingerie",
    "phone": "(904) 379-7809",
    "address": "2 Independent Dr Ste 119  Jacksonville, FL 32202",
    "location": "Highlands"
  },
  {
    "name": "Nine West Outlet",
    "description": "Shoe Stores",
    "phone": "(904) 353-6371",
    "address": "2 Independent Dr  Jacksonville, FL 32202",
    "location": "Highlands"
  },
  {
    "name": "Cache Co",
    "description": "Women's Clothing",
    "phone": "(904) 887-7663",
    "address": "3616 Warrington St  Jacksonville, FL 32254",
    "location": "Highlands"
  },
  {
    "name": "Fanatics Inc",
    "description": "Sportswear",
    "phone": "(904) 786-2217",
    "address": "4300 Bulls Bay Hwy  Jacksonville, FL 32219",
    "location": "Highlands"
  },
  {
    "name": "Bags & Britchez Boutique",
    "description": "Boutique Items",
    "phone": "(904) 476-9339",
    "address": "1545 University Blvd N  Jacksonville, FL 32211",
    "location": "Highlands"
  },
  {
    "name": "Edge City",
    "description": "Women's Clothing",
    "phone": "(904) 353-9423",
    "address": "1017 Park St  Jacksonville, FL 32204",
    "location": "Highlands"
  },
  {
    "name": "Wolfgang",
    "description": "Women's Clothing",
    "phone": "(904) 358-7288",
    "address": "1036 Park St  Jacksonville, FL 32204",
    "location": "Highlands"
  },
  {
    "name": "Mega Liquidation",
    "description": "Liquidators",
    "phone": "(904) 551-1117",
    "address": "7293 Merrill Rd  Jacksonville, FL 32277",
    "location": "Highlands"
  },
  {
    "name": "tenley dietrich",
    "description": "Boutique Items",
    "phone": "(904) 570-9101",
    "address": "2251 Oak St  Jacksonville, FL 32204",
    "location": "Highlands"
  },
  {
    "name": "AVON Independent Sales Representative",
    "description": "Skin Care",
    "phone": "(904) 497-9160",
    "address": "2032 Reed Ave  Jacksonville, FL 32207",
    "location": "Highlands"
  },
  {
    "name": "Body of A Goddess",
    "description": "Women's Clothing",
    "phone": "(904) 374-5226",
    "address": "622 Cassat Ave  Jacksonville, FL 32205",
    "location": "Highlands"
  },
  {
    "name": "Edgewood Shoe Repair",
    "description": "Orthopedic Shoe Dealers",
    "phone": "(904) 389-6211",
    "address": "1022 Edgewood Ave S  Jacksonville, FL 32205",
    "location": "Highlands"
  },
  {
    "name": "Momni Boutique & Alterations",
    "description": "Boutique Items",
    "phone": "(904) 438-5533",
    "address": "1132 Edgewood Ave S  Jacksonville, FL 32205",
    "location": "Highlands"
  },
  {
    "name": "Rainbow Apparel Company",
    "description": "Women's Clothing",
    "phone": "(904) 725-0588",
    "address": "968 Arlington Rd N  Jacksonville, FL 32211",
    "location": "Highlands"
  },
  {
    "name": "Stylo",
    "description": "Boutique Items",
    "phone": "(904) 725-0660",
    "address": "968 Arlington Rd N  Jacksonville, FL 32211",
    "location": "Highlands"
  },
  {
    "name": "Leila's",
    "description": "Women's Clothing",
    "phone": "(904) 398-4999",
    "address": "1981 San Marco Blvd  Jacksonville, FL 32207",
    "location": "Highlands"
  },
  {
    "name": "Reve",
    "description": "Women's Clothing",
    "phone": "(904) 396-9399",
    "address": "1958 San Marco Blvd  Jacksonville, FL 32207",
    "location": "Highlands"
  },
  {
    "name": "Over Under Clothiers",
    "description": "Men's Clothing",
    "phone": "(904) 236-3777",
    "address": "2133 Belote Pl  Jacksonville, FL 32207",
    "location": "Highlands"
  },
  {
    "name": "Addy Blue",
    "description": "Women's Clothing",
    "phone": "(904) 503-3884",
    "address": "2006 San Marco Blvd  Jacksonville, FL 32207",
    "location": "Highlands"
  },
  {
    "name": "Merchandisers Unlimited",
    "description": "Merchandising Service",
    "phone": "(904) 346-0960",
    "address": "4868 River Basin Dr S  Jacksonville, FL 32207",
    "location": "Highlands"
  },
  {
    "name": "Rainbow",
    "description": "Women's Clothing",
    "phone": "(904) 724-6542",
    "address": "976 Arlington Rd N  Jacksonville, FL 32211",
    "location": "Highlands"
  },
  {
    "name": "Rosie True",
    "description": "Boutique Items",
    "phone": "(904) 396-7463",
    "address": "1949 San Marco Blvd  Jacksonville, FL 32207",
    "location": "Highlands"
  },
  {
    "name": "Jane Doe Boutique",
    "description": "Boutique Items",
    "phone": "(904) 356-0027",
    "address": "1027 Park St  Jacksonville, FL 32204",
    "location": "Highlands"
  },
  {
    "name": "Image Fashions Inc",
    "description": "Men's Clothing",
    "phone": "(904) 855-0581",
    "address": "9368 Arlington Expy  Jacksonville, FL 32225",
    "location": "Highlands"
  },
  {
    "name": "Bullseye Gun & Indoor Range",
    "description": "Gun Safety & Marksmanship Instruction",
    "phone": "(904) 725-1227",
    "address": "6041 Atlantic Blvd  Jacksonville, FL 32211",
    "location": "Highlands"
  },
  {
    "name": "Plush Boutique",
    "description": "Boutique Items",
    "phone": "(904) 339-8408",
    "address": "3122 Beach Blvd  Jacksonville, FL 32207",
    "location": "Highlands"
  },
  {
    "name": "Belk",
    "description": "Department Stores",
    "phone": "(904) 725-7744",
    "address": "9501 Arlington Expy  Jacksonville, FL 32225",
    "location": "Highlands"
  },
  {
    "name": "Juliann S Boutique",
    "description": "Women's Clothing",
    "phone": "(904) 387-4999",
    "address": "3568 Saint Johns Ave  Jacksonville, FL 32205",
    "location": "Highlands"
  },
  {
    "name": "Petal",
    "description": "Women's Clothing",
    "phone": "(904) 619-8469",
    "address": "3650 Saint Johns Ave  Jacksonville, FL 32205",
    "location": "Highlands"
  },
  {
    "name": "Fashion and Shoe Warehouse",
    "description": "Women's Clothing",
    "phone": "(904) 695-2008",
    "address": "5934 Normandy Blvd  Jacksonville, FL 32205",
    "location": "Highlands"
  },
  {
    "name": "Famous Footwear",
    "description": "Shoe Stores",
    "phone": "(904) 721-6660",
    "address": "651 Commerce Center Dr  Jacksonville, FL 32225",
    "location": "Highlands"
  },
  {
    "name": "Joyce's Dream",
    "description": "Department Stores",
    "phone": "(904) 619-5326",
    "address": "1329 Lane Ave S  Jacksonville, FL 32205",
    "location": "Highlands"
  },
  {
    "name": "Target",
    "description": "General Merchandise",
    "phone": "(904) 721-4909",
    "address": "444 Monument Rd  Jacksonville, FL 32225",
    "location": "Highlands"
  },
  {
    "name": "Belle-V Fashions Inc",
    "description": "Women's Clothing",
    "phone": "(888) 801-7679",
    "address": "355 Monument Rd  Jacksonville, FL 32225",
    "location": "Highlands"
  },
  {
    "name": "Champs Sports",
    "description": "Sportswear",
    "phone": "(904) 721-1560",
    "address": "9402 Arlington Expy # 9406  Jacksonville, FL 32225",
    "location": "Highlands"
  },
  {
    "name": "Footaction USA",
    "description": "Shoe Stores",
    "phone": "(904) 724-8777",
    "address": "9501 Arlington Expy  Jacksonville, FL 32225",
    "location": "Highlands"
  },
  {
    "name": "Finish Line",
    "description": "Shoe Stores",
    "phone": "(904) 805-8795",
    "address": "9501 Arlington Expy Ste 107  Jacksonville, FL 32225",
    "location": "Highlands"
  },
  {
    "name": "Regency Square Merchants Association",
    "description": "Department Stores",
    "phone": "(904) 725-3834",
    "address": "9501 Arlington Expy  Jacksonville, FL 32225",
    "location": "Highlands"
  },
  {
    "name": "Lids",
    "description": "Hat Shops",
    "phone": "(904) 725-7930",
    "address": "9501 Arlington Expy  Jacksonville, FL 32225",
    "location": "Highlands"
  },
  {
    "name": "Victoria's Secret",
    "description": "Lingerie",
    "phone": "(904) 721-2161",
    "address": "9501 Arlington Expy  Jacksonville, FL 32225",
    "location": "Highlands"
  },
  {
    "name": "SKECHERS Warehouse Outlet",
    "description": "Shoe Stores",
    "phone": "(904) 721-6002",
    "address": "9450 Arlington Expy  Jacksonville, FL 32225",
    "location": "Highlands"
  },
  {
    "name": "West Marine",
    "description": "Boat Equipment & Supplies",
    "phone": "(904) 388-7510",
    "address": "4415 Roosevelt Blvd  Jacksonville, FL 32210",
    "location": "Highlands"
  },
  {
    "name": "Cato",
    "description": "Women's Clothing",
    "phone": "(904) 554-8510",
    "address": "4495 Roosevelt Blvd  Jacksonville, FL 32210",
    "location": "Highlands"
  },
  {
    "name": "Grey Ram Designs",
    "description": "Screen Printing",
    "phone": "(904) 221-4900",
    "address": "9951 Atlantic Blvd  Jacksonville, FL 32225",
    "location": "Highlands"
  },
  {
    "name": "Shep's Discount",
    "description": "Discount Stores",
    "phone": "(904) 781-8244",
    "address": "7890 Normandy Blvd  Jacksonville, FL 32221",
    "location": "Highlands"
  },
  {
    "name": "Dillard's",
    "description": "Department Stores",
    "phone": "(904) 721-9166",
    "address": "9501 Arlington Expy Ste 700  Jacksonville, FL 32225",
    "location": "Highlands"
  },
  {
    "name": "Jaguar Power Sports",
    "description": "Motor Scooters",
    "phone": "(904) 693-1663",
    "address": "4680 Blanding Blvd  Jacksonville, FL 32210",
    "location": "Highlands"
  },
  {
    "name": "The Bridal Shop At The Avenues",
    "description": "Bridal Shops",
    "phone": "(904) 519-9900",
    "address": "9365 Philips Hwy  Jacksonville, FL 32256",
    "location": "Highlands"
  },
  {
    "name": "HAT CITY (SPORT CAPS AND HATS)",
    "description": "Hat Shops",
    "phone": "(904) 683-9791",
    "address": "6733 103rd St # 27  Jacksonville, FL 32210",
    "location": "Highlands"
  },
  {
    "name": "French Novelty",
    "description": "Bridal Shops",
    "phone": "(904) 779-9000",
    "address": "3520 Blanding Blvd  Jacksonville, FL 32210",
    "location": "Highlands"
  },
  {
    "name": "My Favorite Store",
    "description": "General Merchandise",
    "phone": "(904) 677-4992",
    "address": "5917 Roosevelt Blvd  Jacksonville, FL 32244",
    "location": "Highlands"
  },
  {
    "name": "Academy Sports + Outdoors",
    "description": "Sporting Goods",
    "phone": "(904) 564-5010",
    "address": "11901 Atlantic Blvd  Jacksonville, FL 32225",
    "location": "Highlands"
  },
  {
    "name": "SynSha' Fashions Beauty Studio",
    "description": "Fashion Consultants",
    "phone": "(904) 413-1055",
    "address": "Jacksonville 32210  Jacksonville, FL 32210",
    "location": "Highlands"
  },
  {
    "name": "DICK'S Sporting Goods",
    "description": "Exercise & Fitness Equipment",
    "phone": "(904) 642-4299",
    "address": "10390 Midtown Pkwy  Jacksonville, FL 32246",
    "location": "Highlands"
  },
  {
    "name": "Rei",
    "description": "Sporting Goods",
    "phone": "(904) 996-1613",
    "address": "4862 Big Island Dr  Jacksonville, FL 32246",
    "location": "Highlands"
  },
  {
    "name": "Artsy Abode",
    "description": "Women's Clothing",
    "phone": "(904) 807-9277",
    "address": "4764 River City Dr Ste 107  Jacksonville, FL 32246",
    "location": "Highlands"
  },
  {
    "name": "Ridgefield Corp",
    "description": "Women's Clothing",
    "phone": "(904) 779-1001",
    "address": "3520 Blanding Blvd  Jacksonville, FL 32210",
    "location": "Highlands"
  },
  {
    "name": "KEVINSJLEE LLC",
    "description": "Closets & Accessories",
    "phone": "(904) 345-5116",
    "address": "5800 University Blvd W Apt 549  Jacksonville, FL 32216",
    "location": "Highlands"
  },
  {
    "name": "Echo",
    "description": "Women's Clothing",
    "phone": "(904) 396-2340",
    "address": "5137 San Jose Blvd  Jacksonville, FL 32207",
    "location": "Highlands"
  },
  {
    "name": "Echo Repeat Fashions",
    "description": "Consignment Service",
    "phone": "(904) 396-2340",
    "address": "5137 San Jose Blvd  Jacksonville, FL 32207",
    "location": "Highlands"
  },
  {
    "name": "Simply Ten",
    "description": "Women's Clothing",
    "phone": "(904) 619-2785",
    "address": "3606 Blanding Blvd  Jacksonville, FL 32210",
    "location": "Highlands"
  },
  {
    "name": "Naddaf Wholesale Inc",
    "description": "General Merchandise-Wholesale",
    "phone": "(904) 448-8800",
    "address": "5030 Spring Park Rd  Jacksonville, FL 32207",
    "location": "Highlands"
  },
  {
    "name": "Gretchen's Hmk & Lucy's Gift Boutique",
    "description": "Women's Clothing",
    "phone": "(904) 448-3176",
    "address": "1541 University Blvd W  Jacksonville, FL 32217",
    "location": "Highlands"
  },
  {
    "name": "James Combs",
    "description": "Department Stores",
    "phone": "(904) 732-5563",
    "address": "6593 Powers Ave  Jacksonville, FL 32217",
    "location": "Highlands"
  },
  {
    "name": "Val's AVONness",
    "description": "Skin Care",
    "phone": "(904) 772-5245",
    "address": "6890 Mother Goose Rd  Jacksonville, FL 32210",
    "location": "Highlands"
  },
  {
    "name": "Scrub Central",
    "description": "Department Stores",
    "phone": "(904) 551-5037",
    "address": "5150 Timuquana Rd  Jacksonville, FL 32210",
    "location": "Highlands"
  },
  {
    "name": "Eternal Tafari",
    "description": "Shoe Stores",
    "phone": "(904) 503-7747",
    "address": "5209 Timuquana Rd Ste 14  Jacksonville, FL 32210",
    "location": "Highlands"
  },
  {
    "name": "Oceans Bargains",
    "description": "Discount Stores",
    "phone": "(904) 503-4673",
    "address": "11000 Beach Blvd  Jacksonville, FL 32246",
    "location": "Highlands"
  },
  {
    "name": "Shear Ellegance Unisex Salon",
    "description": "Beauty Salons",
    "phone": "(904) 662-7785",
    "address": "5564 Timuquana Rd  Jacksonville, FL 32210",
    "location": "Highlands"
  },
  {
    "name": "Sears Outlet",
    "description": "Discount Stores",
    "phone": "(904) 928-2063",
    "address": "3555 Saint Johns Bluff Rd S  Jacksonville, FL 32224",
    "location": "Highlands"
  },
  {
    "name": "Hot Epic Designs",
    "description": "Women's Clothing",
    "phone": "(904) 437-2665",
    "address": "7854 Melvin Rd  Jacksonville, FL 32210",
    "location": "Highlands"
  },
  {
    "name": "T 5 Sportswear",
    "description": "Screen Printing",
    "phone": "(904) 739-2550",
    "address": "11221 Saint Johns Industrial Pkwy S  Jacksonville, FL 32246",
    "location": "Highlands"
  },
  {
    "name": "Gambeta Sport",
    "description": "Sportswear",
    "phone": "(954) 305-0206",
    "address": "12250 Atlantic Blvd Apt 1107  Jacksonville, FL 32225",
    "location": "Highlands"
  },
  {
    "name": "Edwin Watts Golf",
    "description": "Golf Equipment & Supplies",
    "phone": "(904) 425-4653",
    "address": "7111 Bentley Rd  Jacksonville, FL 32256",
    "location": "Highlands"
  },
  {
    "name": "TheInterPages.com",
    "description": "Automobile Parts & Supplies",
    "phone": "(904) 361-3072",
    "address": "8055 Mc Glothlin St  Jacksonville, FL 32210",
    "location": "Highlands"
  },
  {
    "name": "Venus Fashion, Inc",
    "description": "Swimwear & Accessories",
    "phone": "(904) 997-4000",
    "address": "11711 Marco Beach Dr  Jacksonville, FL 32224",
    "location": "Highlands"
  },
  {
    "name": "Lascana",
    "description": "Lingerie",
    "phone": "(888) 772-3160",
    "address": "11711 Marco Beach Dr  Jacksonville, FL 32224",
    "location": "Highlands"
  },
  {
    "name": "Fanatics, Inc",
    "description": "Sportswear",
    "phone": "(904) 421-1897",
    "address": "8100 Nations Way  Jacksonville, FL 32256",
    "location": "Highlands"
  },
  {
    "name": "1st Place Sports Town Center",
    "description": "Sporting Goods",
    "phone": "(904) 620-9991",
    "address": "9823 Tapestry Park Cir  Jacksonville, FL 32246",
    "location": "Highlands"
  },
  {
    "name": "Jolly C Mart",
    "description": "Department Stores",
    "phone": "(904) 779-7410",
    "address": "6405 Blanding Blvd  Jacksonville, FL 32244",
    "location": "Highlands"
  },
  {
    "name": "RideNow Powersports Jacksonville",
    "description": "Motorcycle Dealers",
    "phone": "(904) 771-8244",
    "address": "6407 Blanding Blvd  Jacksonville, FL 32244",
    "location": "Highlands"
  },
  {
    "name": "Blended Designs",
    "description": "Online & Mail Order Shopping",
    "phone": "(904) 379-0960",
    "address": "8182 Baymeadows Way W  Jacksonville, FL 32256",
    "location": "Highlands"
  },
  {
    "name": "2nd & Charles",
    "description": "Department Stores",
    "phone": "(904) 642-1342",
    "address": "4972 Town Center Pkwy  Jacksonville, FL 32246",
    "location": "Highlands"
  },
  {
    "name": "Black Creek Outfitters",
    "description": "Camping Equipment",
    "phone": "(904) 645-7003",
    "address": "10051 Skinner Lake Dr  Jacksonville, FL 32246",
    "location": "Highlands"
  },
  {
    "name": "Lululemon",
    "description": "Sportswear",
    "phone": "(904) 645-7904",
    "address": "4663 River City Dr  Jacksonville, FL 32246",
    "location": "Highlands"
  },
  {
    "name": "Ann Taylor",
    "description": "Women's Clothing",
    "phone": "(904) 807-9980",
    "address": "4663 River City Dr  Jacksonville, FL 32246",
    "location": "Highlands"
  },
  {
    "name": "Jelsma Graphics",
    "description": "Men's Clothing",
    "phone": "(904) 716-0476",
    "address": "2238 Winding Creek Ln  Jacksonville, FL 32246",
    "location": "Highlands"
  },
  {
    "name": "J. Jill",
    "description": "Women's Clothing",
    "phone": "(904) 564-2747",
    "address": "4711 River City Dr  Jacksonville, FL 32246",
    "location": "Highlands"
  },
  {
    "name": "Anthropologie",
    "description": "Women's Clothing",
    "phone": "(904) 620-8111",
    "address": "4751 River City Dr  Jacksonville, FL 32246",
    "location": "Highlands"
  },
  {
    "name": "Soma Intimates",
    "description": "Lingerie",
    "phone": "(904) 997-0700",
    "address": "4751 River City Dr Ste 113  Jacksonville, FL 32246",
    "location": "Highlands"
  },
  {
    "name": "AS Revival",
    "description": "Sportswear",
    "phone": "(904) 549-7676",
    "address": "4751 River City Dr  Jacksonville, FL 32246",
    "location": "Highlands"
  },
  {
    "name": "Johnston & Murphy",
    "description": "Shoe Stores",
    "phone": "(904) 620-9445",
    "address": "4751 River City Dr  Jacksonville, FL 32246",
    "location": "Highlands"
  },
  {
    "name": "Michael Kors",
    "description": "Women's Clothing",
    "phone": "(904) 807-9910",
    "address": "4791 River City Dr  Jacksonville, FL 32246",
    "location": "Highlands"
  },
  {
    "name": "Francesca's",
    "description": "Women's Clothing",
    "phone": "(904) 760-3580",
    "address": "4712 River City Dr Ste 113  Jacksonville, FL 32246",
    "location": "Highlands"
  },
  {
    "name": "JoS. A. Bank",
    "description": "Men's Clothing",
    "phone": "(904) 641-7232",
    "address": "4720 Town Crossing Dr  Jacksonville, FL 32246",
    "location": "Highlands"
  },
  {
    "name": "BCBGMAXAZRIA",
    "description": "Women's Clothing",
    "phone": "(904) 641-8876",
    "address": "4755 Town Crossing Dr  Jacksonville, FL 32246",
    "location": "Highlands"
  },
  {
    "name": "Versona",
    "description": "Women's Clothing",
    "phone": "(904) 641-5511",
    "address": "4866 Big Island Dr  Jacksonville, FL 32246",
    "location": "Highlands"
  },
  {
    "name": "Aerie",
    "description": "Women's Clothing",
    "phone": "(904) 641-3341",
    "address": "4790 River City Dr Ste 131  Jacksonville, FL 32246",
    "location": "Highlands"
  },
  {
    "name": "Soft Surroundings",
    "description": "Women's Clothing",
    "phone": "(904) 450-4344",
    "address": "4790 River City Dr  Jacksonville, FL 32246",
    "location": "Highlands"
  },
  {
    "name": "Vans",
    "description": "Shoe Stores",
    "phone": "(904) 233-0418",
    "address": "4791 River City Dr Ste 133  Jacksonville, FL 32246",
    "location": "Highlands"
  },
  {
    "name": "The PUMA Store",
    "description": "Shoe Stores",
    "phone": "(904) 998-9969",
    "address": "4791 River City Dr Ste 107  Jacksonville, FL 32246",
    "location": "Highlands"
  },
  {
    "name": "PINK by Victoria's Secret",
    "description": "Lingerie",
    "phone": "(904) 642-6159",
    "address": "4790 River City Dr  Jacksonville, FL 32246",
    "location": "Highlands"
  },
  {
    "name": "Madewell",
    "description": "Women's Clothing",
    "phone": "(904) 642-5215",
    "address": "4813 River City Dr Ste 131  Jacksonville, FL 32246",
    "location": "Highlands"
  },
  {
    "name": "Talbots",
    "description": "Women's Clothing",
    "phone": "(904) 996-9494",
    "address": "4812 River City Dr  Jacksonville, FL 32246",
    "location": "Highlands"
  },
  {
    "name": "Scout & Molly's",
    "description": "Women's Clothing",
    "phone": "(904) 300-3131",
    "address": "4818 River City Dr  Jacksonville, FL 32246",
    "location": "Highlands"
  },
  {
    "name": "Lilly Pulitzer St John's",
    "description": "Department Stores",
    "phone": "(904) 645-8460",
    "address": "4828 River City Dr  Jacksonville, FL 32246",
    "location": "Highlands"
  },
  {
    "name": "Pink Diamond Boutique",
    "description": "Boutique Items",
    "phone": "(904) 662-8903",
    "address": "11670 Carson Lake Dr  Jacksonville, FL 32221",
    "location": "Highlands"
  },
  {
    "name": "Baseline",
    "description": "Sportswear",
    "phone": "(904) 739-0441",
    "address": "9116 Cypress Green Dr  Jacksonville, FL 32256",
    "location": "Highlands"
  },
  {
    "name": "Bealls Florida",
    "description": "Home Furnishings",
    "phone": "(904) 992-6990",
    "address": "13500 Beach Blvd  Jacksonville, FL 32224",
    "location": "Highlands"
  },
  {
    "name": "YORK Brand",
    "description": "Men's Clothing",
    "phone": "(904) 881-6323",
    "address": "7643 Gate Pkwy Ste 104-75  Jacksonville, FL 32256",
    "location": "Highlands"
  },
  {
    "name": "Sahill's",
    "description": "Women's Clothing",
    "phone": "(904) 683-0487",
    "address": "9551 Baymeadows Rd  Jacksonville, FL 32256",
    "location": "Highlands"
  },
  {
    "name": "Spence, Jan M",
    "description": "Women's Clothing",
    "phone": "(904) 821-0079",
    "address": "14001 Cashon Falls Ct  Jacksonville, FL 32224",
    "location": "Highlands"
  },
  {
    "name": "Dancer Depot",
    "description": "Women's Clothing",
    "phone": "(904) 334-3985",
    "address": "8382 Baymeadows Road 4  Jacksonville, FL 32256",
    "location": "Highlands"
  },
  {
    "name": "BlackWaters",
    "description": "Men's Clothing",
    "phone": "(877) 540-4192",
    "address": "Po Box 2708  Jacksonville, FL 32203",
    "location": "Highlands"
  },
  {
    "name": "Natures Life",
    "description": "Women's Clothing",
    "phone": "(904) 241-0370",
    "address": "10475 Fortune Parkwaybuil  Jacksonville, FL 32256",
    "location": "Highlands"
  },
  {
    "name": "Rhinestonedressrentals.com",
    "description": "Women's Clothing",
    "phone": "(904) 210-5477",
    "address": "4370 Hanover Park Dr  Jacksonville, FL 32224",
    "location": "Highlands"
  },
  {
    "name": "Jax Bargain Center",
    "description": "Department Stores",
    "phone": "(904) 647-6357",
    "address": "5285 Shad Rd  Jacksonville, FL 32257",
    "location": "Highlands"
  },
  {
    "name": "Motherhood Maternity",
    "description": "Maternity Clothes",
    "phone": "(215) 555-1212",
    "address": "8801 Southside Blvd  Jacksonville, FL 32256",
    "location": "Highlands"
  },
  {
    "name": "Tony Pepperoni",
    "description": "Department Stores",
    "phone": "(904) 372-0771",
    "address": "2158 Mayport Rd  Jacksonville, FL 32233",
    "location": "Highlands"
  },
  {
    "name": "Gators Discount Outlet",
    "description": "Liquidators",
    "phone": "(904) 320-5130",
    "address": "542220 Us Highway 1  Callahan, FL 32011",
    "location": "Highlands"
  },
  {
    "name": "Lillys Unique",
    "description": "Women's Clothing",
    "phone": "(904) 293-2227",
    "address": "1577 Atlantic Blvd  Neptune Beach, FL 32266",
    "location": "Highlands"
  },
  {
    "name": "On Gossamer Wings Boutique",
    "description": "Women's Clothing",
    "phone": "(904) 249-0069",
    "address": "363 Atlantic Blvd  Atlantic Beach, FL 32233",
    "location": "Highlands"
  },
  {
    "name": "bebe",
    "description": "Women's Clothing",
    "phone": "(904) 996-1661",
    "address": "4711 River City Dr Ste 107  Jacksonville, FL 32246",
    "location": "Highlands"
  },
  {
    "name": "Fifi's Fine Resale Apparel of Mandarin",
    "description": "Consignment Service",
    "phone": "(904) 288-0035",
    "address": "10400 San Jose Blvd  Jacksonville, FL 32257",
    "location": "Highlands"
  },
  {
    "name": "Cycling and Fitness Centeinc",
    "description": "Sporting Goods",
    "phone": "(904) 277-3227",
    "address": "11 S 8th St  Fernandina Beach, FL 32034",
    "location": "Highlands"
  },
  {
    "name": "American Freight - Appliance, Furniture, Mattress",
    "description": "Discount Stores",
    "phone": "(904) 262-2203",
    "address": "11111 San Jose Blvd Ste 1  Jacksonville, FL 32223",
    "location": "Highlands"
  },
  {
    "name": "Homesense",
    "description": "Housewares",
    "phone": "(904) 880-1845",
    "address": "11111 San Jose Blvd  Jacksonville, FL 32223",
    "location": "Highlands"
  },
  {
    "name": "Victoria's Secret & PINK by Victoria's Secret",
    "description": "Lingerie",
    "phone": "(904) 519-7741",
    "address": "10300 Southside Blvd  Jacksonville, FL 32256",
    "location": "Highlands"
  },
  {
    "name": "Skechers USA",
    "description": "Shoe Stores",
    "phone": "(904) 363-2838",
    "address": "10300 Southside Blvd # 1090A  Jacksonville, FL 32256",
    "location": "Highlands"
  },
  {
    "name": "Original Piece",
    "description": "Women's Clothing",
    "phone": "(904) 423-0515",
    "address": "10300 Southside Blvd  Jacksonville, FL 32256",
    "location": "Highlands"
  },
  {
    "name": "An Avon Representative",
    "description": "Hair Supplies & Accessories",
    "phone": "(904) 504-4200",
    "address": "11570 N Ride Cir W  Jacksonville, FL 32223",
    "location": "Highlands"
  },
  {
    "name": "Play It Again Sports",
    "description": "Sporting Goods",
    "phone": "(904) 292-1717",
    "address": "11701 San Jose Blvd Ste 30  Jacksonville, FL 32223",
    "location": "Highlands"
  },
  {
    "name": "Jnsb Fashion",
    "description": "Women's Clothing",
    "phone": "(904) 990-7772",
    "address": "7701 Covewood Dr  Jacksonville, FL 32256",
    "location": "Highlands"
  },
  {
    "name": "Let's Inspire",
    "description": "Department Stores",
    "phone": "(904) 551-7532",
    "address": "12200 San Jose Blvd  Jacksonville, FL 32223",
    "location": "Highlands"
  },
  {
    "name": "Up N Atom Closet Design",
    "description": "Closets & Accessories",
    "phone": "(904) 288-9799",
    "address": "12108 Weatherwood Estates Dr W  Jacksonville, FL 32223",
    "location": "Highlands"
  },
  {
    "name": "Board the Earth",
    "description": "Sportswear",
    "phone": "(904) 513-9820",
    "address": "6767 Philips Industrial Blvd  Jacksonville, FL 32256",
    "location": "Highlands"
  },
  {
    "name": "Jacksonville Running Comp",
    "description": "Sportswear",
    "phone": "(904) 268-0608",
    "address": "13820 Old Saint Augustine Rd  Jacksonville, FL 32258",
    "location": "Highlands"
  },
  {
    "name": "Ukulele",
    "description": "Women's Clothing",
    "phone": "(904) 246-1077",
    "address": "38 Ocean Blvd  Atlantic Beach, FL 32233",
    "location": "Highlands"
  },
  {
    "name": "Jaffi's",
    "description": "Department Stores",
    "phone": "(904) 249-4030",
    "address": "200 1st St  Neptune Beach, FL 32266",
    "location": "Highlands"
  },
  {
    "name": "Kyds",
    "description": "Department Stores",
    "phone": "(904) 645-0712",
    "address": "201 Lemon St  Neptune Beach, FL 32266",
    "location": "Highlands"
  },
  {
    "name": "Windsor",
    "description": "Women's Clothing",
    "phone": "(888) 495-4957",
    "address": "10300 Southside Blvd # 1230A  Jacksonville, FL 32256",
    "location": "Highlands"
  }
]