[
  {
    "name": "With the Shirts",
    "description": "Clothing Stores",
    "phone": "(321) 215-5034",
    "address": "27 Circle Ave  Melbourne, FL 32935",
    "location": "Indian_River"
  },
  {
    "name": "Glitter Alley",
    "description": "Clothing Stores",
    "phone": "(321) 676-8900",
    "address": "821 E New Haven Ave  Melbourne, FL 32901",
    "location": "Indian_River"
  },
  {
    "name": "The Princess Shop",
    "description": "Clothing Stores",
    "phone": "(321) 960-1381",
    "address": "909 E New Haven Ave # 12-13  Melbourne, FL 32901",
    "location": "Indian_River"
  },
  {
    "name": "GBA Industries",
    "description": "Clothing Stores",
    "phone": "(321) 265-9106",
    "address": "1020 Hidden Harbour Dr  Melbourne, FL 32935",
    "location": "Indian_River"
  },
  {
    "name": "Charlotte Russe",
    "description": "Clothing Stores",
    "phone": "(321) 726-0098",
    "address": "W 1700 New Haven Avenue  Melbourne, FL 32904",
    "location": "Indian_River"
  },
  {
    "name": "Your Logo by Geiger",
    "description": "Clothing Stores",
    "phone": "(321) 259-4266",
    "address": "720 Saint Clair St  Melbourne, FL 32935",
    "location": "Indian_River"
  },
  {
    "name": "Elda's Bridal Boutique",
    "description": "Clothing Stores",
    "phone": "(321) 984-7192",
    "address": "1100 W New Haven Ave  Melbourne, FL 32904",
    "location": "Indian_River"
  },
  {
    "name": "H&M",
    "description": "Clothing Stores",
    "phone": "(855) 466-7467",
    "address": "1700 W New Haven Ave  Melbourne, FL 32904",
    "location": "Indian_River"
  },
  {
    "name": "Rue21",
    "description": "Clothing Stores",
    "phone": "(321) 953-7271",
    "address": "1700 W New Haven Ave Ste 929A  Melbourne, FL 32904",
    "location": "Indian_River"
  },
  {
    "name": "Tommy Hilfiger",
    "description": "Clothing Stores",
    "phone": "(321) 213-0193",
    "address": "1700 W New Haven Ave  Melbourne, FL 32904",
    "location": "Indian_River"
  },
  {
    "name": "Jimmy Jazz",
    "description": "Clothing Stores",
    "phone": "(321) 727-9845",
    "address": "1700 W New Haven Ave Ste 723  Melbourne, FL 32904",
    "location": "Indian_River"
  },
  {
    "name": "Dixie Heritage",
    "description": "Clothing Stores",
    "phone": "(321) 373-2843",
    "address": "1700 W New Haven Ave  Melbourne, FL 32904",
    "location": "Indian_River"
  },
  {
    "name": "Copper Closet",
    "description": "Clothing Stores",
    "phone": "(321) 373-2600",
    "address": "1700 W New Haven Ave  Melbourne, FL 32904",
    "location": "Indian_River"
  },
  {
    "name": "Style Encore",
    "description": "Clothing Stores",
    "phone": "(321) 345-4647",
    "address": "1871 W New Haven Ave  Melbourne, FL 32904",
    "location": "Indian_River"
  },
  {
    "name": "Paul Horschel & Son Inc",
    "description": "Clothing Stores",
    "phone": "(321) 259-6462",
    "address": "1834 Aurora Rd  Melbourne, FL 32935",
    "location": "Indian_River"
  },
  {
    "name": "American Eagle",
    "description": "Clothing Stores",
    "phone": "(321) 676-6450",
    "address": "1700 W New Haven Ave Ste 881  Melbourne, FL 32904",
    "location": "Indian_River"
  },
  {
    "name": "Tillys",
    "description": "Clothing Stores",
    "phone": "(321) 951-9282",
    "address": "1700 W New Haven Ave  Melbourne, FL 32904",
    "location": "Indian_River"
  },
  {
    "name": "Hollister",
    "description": "Clothing Stores",
    "phone": "(321) 984-2420",
    "address": "1700 W New Haven Ave Ste 833  Melbourne, FL 32904",
    "location": "Indian_River"
  },
  {
    "name": "Hot Topic",
    "description": "Clothing Stores",
    "phone": "(321) 409-1770",
    "address": "1700 W New Haven Ave Ste 223  Melbourne, FL 32904",
    "location": "Indian_River"
  },
  {
    "name": "PacSun",
    "description": "Clothing Stores",
    "phone": "(321) 727-1343",
    "address": "1700 W New Haven Ave  Melbourne, FL 32904",
    "location": "Indian_River"
  },
  {
    "name": "Express Factory Outlet",
    "description": "Clothing Stores",
    "phone": "(321) 369-9057",
    "address": "1700 W New Haven Ave  Melbourne, FL 32904",
    "location": "Indian_River"
  },
  {
    "name": "A & M Auto Salvage",
    "description": "Clothing Stores",
    "phone": "(321) 419-0093",
    "address": "2617 Aurora Road  Melbourne, FL 32935",
    "location": "Indian_River"
  },
  {
    "name": "Hiddenglitz",
    "description": "Clothing Stores",
    "phone": "(954) 214-0147",
    "address": "123 S Wickham Rd  Melbourne, FL 32904",
    "location": "Indian_River"
  },
  {
    "name": "Ding Dong Avon Calling in Melborne Fla",
    "description": "Clothing Stores",
    "phone": "(321) 900-3553",
    "address": "522 N Wickham Rd Apt 135  Melbourne, FL 32935",
    "location": "Indian_River"
  },
  {
    "name": "Iron Rose Tattoo Company 2",
    "description": "Clothing Stores",
    "phone": "(941) 600-6500",
    "address": "1090 E Eau Gallie Blvd  Indian Harbour Beach, FL 32937",
    "location": "Indian_River"
  },
  {
    "name": "Love Notes Thrift Store",
    "description": "Clothing Stores",
    "phone": "(321) 473-4352",
    "address": "910 Pinetree Dr  Indian Harbour Beach, FL 32937",
    "location": "Indian_River"
  },
  {
    "name": "AVON Independent Sales Representative",
    "description": "Clothing Stores",
    "phone": "(847) 553-5809",
    "address": "Crystal Lake Road  Melbourne, FL 32901",
    "location": "Indian_River"
  },
  {
    "name": "Stein Mart",
    "description": "Clothing Stores",
    "phone": "(321) 259-5775",
    "address": "4100 N Wickham Rd  Melbourne, FL 32935",
    "location": "Indian_River"
  },
  {
    "name": "Citi Trends",
    "description": "Clothing Stores",
    "phone": "(321) 448-2633",
    "address": "4700 Babcock St NE Ste 28  Palm Bay, FL 32905",
    "location": "Indian_River"
  },
  {
    "name": "Indian River Antique Mall",
    "description": "Clothing Stores",
    "phone": "(321) 759-6255",
    "address": "1433 S Patrick Dr  Satellite Beach, FL 32937",
    "location": "Indian_River"
  },
  {
    "name": "Unashamed Supply",
    "description": "Clothing Stores",
    "phone": "(321) 710-7558",
    "address": "3200 Lake Washington Rd  Melbourne, FL 32934",
    "location": "Indian_River"
  },
  {
    "name": "Beach Bum Boutique",
    "description": "Clothing Stores",
    "phone": "(212) 489-4060",
    "address": "4835 W Eau Gallie Blvd  Melbourne, FL 32934",
    "location": "Indian_River"
  },
  {
    "name": "My Black Is Beautiful Boutique",
    "description": "Clothing Stores",
    "phone": "(321) 614-8513",
    "address": "4690 Lipscomb St NE  Palm Bay, FL 32905",
    "location": "Indian_River"
  },
  {
    "name": "Healthcare Unity Group Inc",
    "description": "Clothing Stores",
    "phone": "(321) 339-3424",
    "address": "4690 Lipscomb St NE  Palm Bay, FL 32905",
    "location": "Indian_River"
  },
  {
    "name": "Rainbow Shops",
    "description": "Clothing Stores",
    "phone": "(321) 674-9099",
    "address": "4711 Babcock St NE  Palm Bay, FL 32905",
    "location": "Indian_River"
  },
  {
    "name": "The Yellow Gecko",
    "description": "Clothing Stores",
    "phone": "(321) 745-8903",
    "address": "599 Sherwood Avenue #207  Satellite Beach, FL 32937",
    "location": "Indian_River"
  },
  {
    "name": "Burkes Outlet",
    "description": "Clothing Stores",
    "phone": "(321) 428-9149",
    "address": "1024 Highway A1a  Satellite Beach, FL 32937",
    "location": "Indian_River"
  },
  {
    "name": "K K Fashions",
    "description": "Clothing Stores",
    "phone": "(321) 723-9796",
    "address": "5275 Babcock St NE  Palm Bay, FL 32905",
    "location": "Indian_River"
  },
  {
    "name": "Freestyle Clothing",
    "description": "Clothing Stores",
    "phone": "(321) 984-7311",
    "address": "855 Palm Bay Rd NE  Melbourne, FL 32904",
    "location": "Indian_River"
  },
  {
    "name": "Ocean Promotion",
    "description": "Clothing Stores",
    "phone": "(321) 724-1878",
    "address": "1605 Atlantic St  Melbourne Beach, FL 32951",
    "location": "Indian_River"
  },
  {
    "name": "Knitting Closet",
    "description": "Clothing Stores",
    "phone": "(866) 463-8810",
    "address": "1153 Malabar Rd NE  Palm Bay, FL 32907",
    "location": "Indian_River"
  },
  {
    "name": "Street Style Me",
    "description": "Clothing Stores",
    "phone": "(321) 877-8192",
    "address": "1050 Glencove AVE NW  Palm Bay, FL 32907",
    "location": "Indian_River"
  },
  {
    "name": "Bartman Enterprises Inc",
    "description": "Clothing Stores",
    "phone": "(321) 259-4898",
    "address": "2735 Center Pl  Melbourne, FL 32940",
    "location": "Indian_River"
  },
  {
    "name": "Jan of All Trade Etc",
    "description": "Clothing Stores",
    "phone": "(321) 223-3505",
    "address": "281 Abello Rd SE  Palm Bay, FL 32909",
    "location": "Indian_River"
  },
  {
    "name": "J Grace and Co",
    "description": "Clothing Stores",
    "phone": "(321) 369-9157",
    "address": "2270 Town Center Ave Ste 109  Melbourne, FL 32940",
    "location": "Indian_River"
  },
  {
    "name": "T.J. Maxx & HomeGoods",
    "description": "Clothing Stores",
    "phone": "(321) 433-3256",
    "address": "2314 N Remi Dr  Melbourne, FL 32940",
    "location": "Indian_River"
  },
  {
    "name": "Old Navy",
    "description": "Clothing Stores",
    "phone": "(321) 338-1078",
    "address": "2281 Town Center Ave Ste 113  Viera, FL 32940",
    "location": "Indian_River"
  },
  {
    "name": "Bealls Outlet Stores",
    "description": "Clothing Stores",
    "phone": "(321) 956-9066",
    "address": "1401 S Babcock St  Melbourne, FL 32901",
    "location": "Indian_River"
  },
  {
    "name": "5.7.9",
    "description": "Clothing Stores",
    "phone": "(321) 727-2672",
    "address": "407 E New Haven Ave  Melbourne, FL 32901",
    "location": "Indian_River"
  },
  {
    "name": "Fancy Flamingo",
    "description": "Clothing Stores",
    "phone": "(321) 724-9335",
    "address": "824 E New Haven Ave  Melbourne, FL 32901",
    "location": "Indian_River"
  },
  {
    "name": "All Uniform Wear Melbourne",
    "description": "Clothing Stores",
    "phone": "(321) 608-3845",
    "address": "433 W New Haven Ave  Melbourne, FL 32901",
    "location": "Indian_River"
  },
  {
    "name": "Peace and Daisies",
    "description": "Clothing Stores",
    "phone": "(321) 802-6764",
    "address": "909 E New Haven Ave Ste 12  Melbourne, FL 32901",
    "location": "Indian_River"
  },
  {
    "name": "Spencers",
    "description": "Clothing Stores",
    "phone": "(833) 543-0751",
    "address": "775 E Melbourne Ave Spc 775  Melbourne, FL 32901",
    "location": "Indian_River"
  },
  {
    "name": "Journeys",
    "description": "Clothing Stores",
    "phone": "(321) 773-5101",
    "address": "SAT Bch  Satellite Beach, FL 32937",
    "location": "Indian_River"
  },
  {
    "name": "Re Creations",
    "description": "Clothing Stores",
    "phone": "(321) 327-5962",
    "address": "901 E New Haven Ave  Melbourne, FL 32901",
    "location": "Indian_River"
  },
  {
    "name": "Uniform Mart",
    "description": "Clothing Stores",
    "phone": "(321) 676-0000",
    "address": "1387 S Babcock St  Melbourne, FL 32901",
    "location": "Indian_River"
  },
  {
    "name": "Plato's Closet Melbourne",
    "description": "Clothing Stores",
    "phone": "(321) 726-0076",
    "address": "1885 W New Haven Ave  Melbourne, FL 32904",
    "location": "Indian_River"
  },
  {
    "name": "Ross Dress for Less",
    "description": "Clothing Stores",
    "phone": "(321) 724-2977",
    "address": "1850 Evans Rd  Melbourne, FL 32904",
    "location": "Indian_River"
  },
  {
    "name": "Five Below",
    "description": "Clothing Stores",
    "phone": "(321) 984-4148",
    "address": "1551 W New Haven Ave  Melbourne, FL 32904",
    "location": "Indian_River"
  },
  {
    "name": "Zumiez",
    "description": "Clothing Stores",
    "phone": "(321) 726-9428",
    "address": "1700 W New Haven Ave Ste 747a  Melbourne, FL 32904",
    "location": "Indian_River"
  },
  {
    "name": "The Children's Place",
    "description": "Clothing Stores",
    "phone": "(321) 722-9025",
    "address": "1700 W New Haven Ave Ste 463A  Melbourne, FL 32904",
    "location": "Indian_River"
  },
  {
    "name": "JCPenney",
    "description": "Clothing Stores",
    "phone": "(321) 727-0923",
    "address": "1700 W New Haven Ave  Melbourne, FL 32904",
    "location": "Indian_River"
  },
  {
    "name": "Torrid",
    "description": "Clothing Stores",
    "phone": "(321) 674-3911",
    "address": "1700 W New Haven Ave  Melbourne, FL 32904",
    "location": "Indian_River"
  },
  {
    "name": "Windsor",
    "description": "Clothing Stores",
    "phone": "(888) 495-4957",
    "address": "1700 W New Haven Ave  Melbourne, FL 32904",
    "location": "Indian_River"
  },
  {
    "name": "Cory",
    "description": "Clothing Stores",
    "phone": "(321) 914-0891",
    "address": "1700 W New Haven Ave  Melbourne, FL 32904",
    "location": "Indian_River"
  },
  {
    "name": "Avenue",
    "description": "Clothing Stores",
    "phone": "(321) 722-2526",
    "address": "1700 W New Haven Ave  Melbourne, FL 32904",
    "location": "Indian_River"
  },
  {
    "name": "Snipes",
    "description": "Clothing Stores",
    "phone": "(321) 727-9952",
    "address": "1700 W New Haven Ave Ste 723  Melbourne, FL 32904",
    "location": "Indian_River"
  },
  {
    "name": "S.A. Elite",
    "description": "Clothing Stores",
    "phone": "(321) 722-0150",
    "address": "1750 Evans Rd  Melbourne, FL 32904",
    "location": "Indian_River"
  },
  {
    "name": "Sears",
    "description": "Clothing Stores",
    "phone": "(321) 728-8258",
    "address": "601 Atlantis Rd  Melbourne, FL 32904",
    "location": "Indian_River"
  },
  {
    "name": "Bealls Department Store",
    "description": "Clothing Stores",
    "phone": "(321) 773-8560",
    "address": "204 E Eau Gallie Blvd  Indian Harbour Beach, FL 32937",
    "location": "Indian_River"
  },
  {
    "name": "Bealls",
    "description": "Clothing Stores",
    "phone": "(321) 773-0477",
    "address": "287 E Eau Gallie Blvd  Indian Harbour Beach, FL 32937",
    "location": "Indian_River"
  },
  {
    "name": "Your CBD Store - Indialantic, FL",
    "description": "Clothing Stores",
    "phone": "(321) 327-3741",
    "address": "429 5th Ave  Indialantic, FL 32903",
    "location": "Indian_River"
  },
  {
    "name": "White House | Black Market",
    "description": "Clothing Stores",
    "phone": "(321) 409-8926",
    "address": "1700 W New Haven Ave  Melbourne, FL 32904",
    "location": "Indian_River"
  },
  {
    "name": "Macy's",
    "description": "Clothing Stores",
    "phone": "(321) 837-5300",
    "address": "1700 W New Haven Ave Ste 101  Melbourne, FL 32904",
    "location": "Indian_River"
  },
  {
    "name": "La Boutique de Bridal & Tuxes",
    "description": "Clothing Stores",
    "phone": "(321) 725-2727",
    "address": "2565 West New Haven Ave.  West Melbourne, FL 32904",
    "location": "Indian_River"
  },
  {
    "name": "Surf Style 106: Surf, Swimwear, Sporting Goods in Indialantic",
    "description": "Clothing Stores",
    "phone": "(954) 924-9779",
    "address": "100 4th Ave  Indialantic, FL 32903",
    "location": "Indian_River"
  },
  {
    "name": "Aurora Unique Bridal Boutique",
    "description": "Clothing Stores",
    "phone": "(321) 254-3880",
    "address": "1697 N Wickham Rd  Melbourne, FL 32935",
    "location": "Indian_River"
  },
  {
    "name": "Catherines Plus Sizes",
    "description": "Clothing Stores",
    "phone": "(321) 426-9198",
    "address": "4100 N Wickham Rd  Melbourne, FL 32935",
    "location": "Indian_River"
  },
  {
    "name": "SEPHORA at Kohl's West Melbourne",
    "description": "Clothing Stores",
    "phone": "(321) 952-8480",
    "address": "205 Palm Bay Rd NE  West Melbourne, FL 32904",
    "location": "Indian_River"
  },
  {
    "name": "Running Zone",
    "description": "Clothing Stores",
    "phone": "(321) 751-8890",
    "address": "3696 N Wickham Rd  Melbourne, FL 32935",
    "location": "Indian_River"
  },
  {
    "name": "Maurices",
    "description": "Clothing Stores",
    "phone": "(321) 676-4877",
    "address": "205 Palm Bay Rd NE Ste 105  Melbourne, FL 32904",
    "location": "Indian_River"
  },
  {
    "name": "Byrd's Western Store",
    "description": "Clothing Stores",
    "phone": "(321) 768-2345",
    "address": "4855 US Highway 192  Melbourne, FL 32904",
    "location": "Indian_River"
  },
  {
    "name": "Marshalls",
    "description": "Clothing Stores",
    "phone": "(321) 956-8678",
    "address": "205 Palm Bay Rd NE  West Melbourne, FL 32904",
    "location": "Indian_River"
  },
  {
    "name": "Al's Trophy Shop",
    "description": "Clothing Stores",
    "phone": "(321) 724-6973",
    "address": "2790 Palm Bay Rd NE  Palm Bay, FL 32905",
    "location": "Indian_River"
  },
  {
    "name": "L & H Silkscreen",
    "description": "Clothing Stores",
    "phone": "(321) 773-0910",
    "address": "517 Sheridan Ave  Satellite Beach, FL 32937",
    "location": "Indian_River"
  },
  {
    "name": "Carlsen's Trophy Shop",
    "description": "Clothing Stores",
    "phone": "(321) 777-2381",
    "address": "575 Jackson Ave  Satellite Beach, FL 32937",
    "location": "Indian_River"
  },
  {
    "name": "Maddie's",
    "description": "Clothing Stores",
    "phone": "(321) 549-1576",
    "address": "3085 Jupiter Blvd SE  Palm Bay, FL 32909",
    "location": "Indian_River"
  },
  {
    "name": "Artlab",
    "description": "Clothing Stores",
    "phone": "(321) 984-8844",
    "address": "1728 Agora Cir SE  Palm Bay, FL 32909",
    "location": "Indian_River"
  },
  {
    "name": "U.S. Patriot",
    "description": "Clothing Stores",
    "phone": "(321) 425-5713",
    "address": "1221 S Patrick Dr Ste 101  Patrick Afb, FL 32925",
    "location": "Indian_River"
  },
  {
    "name": "Cache",
    "description": "Clothing Stores",
    "phone": "(321) 636-4121",
    "address": "2271 Town Center Ave  Melbourne, FL 32940",
    "location": "Indian_River"
  },
  {
    "name": "Loft",
    "description": "Clothing Stores",
    "phone": "(321) 639-8126",
    "address": "2261 Town Center Ave  Melbourne, FL 32940",
    "location": "Indian_River"
  },
  {
    "name": "SEPHORA at Kohl's",
    "description": "Clothing Stores",
    "phone": "(321) 631-3970",
    "address": "6729 Colonnade Ave  Melbourne, FL 32940",
    "location": "Indian_River"
  },
  {
    "name": "Chico's",
    "description": "Clothing Stores",
    "phone": "(321) 637-0494",
    "address": "2271 Town Center Ave Ste 119  Melbourne, FL 32940",
    "location": "Indian_River"
  },
  {
    "name": "J.McLaughlin",
    "description": "Clothing Stores",
    "phone": "(321) 294-4658",
    "address": "2261 Town Center Ave Ste 585  Melbourne, FL 32940",
    "location": "Indian_River"
  },
  {
    "name": "Lilly Pulitzer",
    "description": "Clothing Stores",
    "phone": "(321) 212-7010",
    "address": "2261 Town Center Ave  Melbourne, FL 32940",
    "location": "Indian_River"
  },
  {
    "name": "Justice",
    "description": "Clothing Stores",
    "phone": "(321) 631-2400",
    "address": "2281 Town Center Ave  Melbourne, FL 32940",
    "location": "Indian_River"
  },
  {
    "name": "Wet Seal",
    "description": "Clothing Stores",
    "phone": "(321) 433-3647",
    "address": "2251 Town Center Ave  Melbourne, FL 32940",
    "location": "Indian_River"
  },
  {
    "name": "Three Dollar World",
    "description": "Women's Fashion Accessories",
    "phone": "(321) 806-7440",
    "address": "1317 S Babcock St  Melbourne, FL 32901",
    "location": "Indian_River"
  },
  {
    "name": "Meredith's Bridal & Formal",
    "description": "Bridal Shops",
    "phone": "(321) 724-2426",
    "address": "780 W New Haven Ave  Melbourne, FL 32901",
    "location": "Indian_River"
  },
  {
    "name": "Victoria's Secret",
    "description": "Lingerie",
    "phone": "(321) 725-4765",
    "address": "MELBOURNE Square Mall  Melbourne, FL 32904",
    "location": "Indian_River"
  },
  {
    "name": "Cato Fashions",
    "description": "Women's Clothing",
    "phone": "(321) 674-9633",
    "address": "1395 S Babcock St  Melbourne, FL 32901",
    "location": "Indian_River"
  },
  {
    "name": "Lily Pad Resort Fashions",
    "description": "Women's Clothing",
    "phone": "(321) 729-8575",
    "address": "709 Silver Palm Ave  Melbourne, FL 32901",
    "location": "Indian_River"
  },
  {
    "name": "Lululemon",
    "description": "Sportswear",
    "phone": "(321) 956-3089",
    "address": "520 E New Haven Ave  Melbourne, FL 32901",
    "location": "Indian_River"
  },
  {
    "name": "Cabana Boutique",
    "description": "Women's Clothing",
    "phone": "(321) 373-6732",
    "address": "1900 Municipal Ln  Melbourne, FL 32901",
    "location": "Indian_River"
  },
  {
    "name": "Tallulah 9",
    "description": "General Merchandise",
    "phone": "(321) 952-9994",
    "address": "800 E New Haven Ave  Melbourne, FL 32901",
    "location": "Indian_River"
  },
  {
    "name": "Unique Treasures",
    "description": "Women's Clothing",
    "phone": "(321) 723-7290",
    "address": "808 E New Haven Ave  Melbourne, FL 32901",
    "location": "Indian_River"
  },
  {
    "name": "Lula Blu",
    "description": "Women's Clothing",
    "phone": "(321) 722-2223",
    "address": "826 E New Haven Ave  Melbourne, FL 32901",
    "location": "Indian_River"
  },
  {
    "name": "Downtown Divas",
    "description": "Women's Clothing",
    "phone": "(321) 733-0898",
    "address": "847 E New Haven Ave  Melbourne, FL 32901",
    "location": "Indian_River"
  },
  {
    "name": "Cereno Andy",
    "description": "Women's Clothing",
    "phone": "(321) 733-0898",
    "address": "847 E New Haven Ave  Melbourne, FL 32901",
    "location": "Indian_River"
  },
  {
    "name": "West Marine",
    "description": "Boat Equipment & Supplies",
    "phone": "(321) 837-1113",
    "address": "1001 W New Haven Ave  West Melbourne, FL 32904",
    "location": "Indian_River"
  },
  {
    "name": "Harry Goode's Outdoor Shop",
    "description": "Fishing Supplies",
    "phone": "(321) 723-4751",
    "address": "1231 E New Haven Ave  Melbourne, FL 32901",
    "location": "Indian_River"
  },
  {
    "name": "Champs Sports",
    "description": "Sportswear",
    "phone": "(321) 723-7067",
    "address": "1700 W New Haven Ave Ste 717  Melbourne, FL 32904",
    "location": "Indian_River"
  },
  {
    "name": "Mica & Molly's",
    "description": "Women's Clothing",
    "phone": "(321) 821-4962",
    "address": "1112 W New Haven Ave  Melbourne, FL 32904",
    "location": "Indian_River"
  },
  {
    "name": "AVON, Buy or Sell",
    "description": "Perfume-Wholesale & Manufacturers",
    "phone": "(321) 327-5277",
    "address": "608 williams st  Melbourne, FL 32901",
    "location": "Indian_River"
  },
  {
    "name": "Avon with Cathy",
    "description": "Jewelers-Wholesale & Manufacturers",
    "phone": "(321) 288-5978",
    "address": "500 Croton Rd  Melbourne, FL 32935",
    "location": "Indian_River"
  },
  {
    "name": "Urban Mentality",
    "description": "Men's Clothing",
    "phone": "(321) 914-0891",
    "address": "1535 W New Haven Ave  Melbourne, FL 32904",
    "location": "Indian_River"
  },
  {
    "name": "Dillard's",
    "description": "Department Stores",
    "phone": "(321) 676-1300",
    "address": "1700 W New Haven Ave  Melbourne, FL 32904",
    "location": "Indian_River"
  },
  {
    "name": "Heiple, Pamela",
    "description": "Catalog Showrooms",
    "phone": "(321) 727-8807",
    "address": "1700 W New Haven Ave  Melbourne, FL 32904",
    "location": "Indian_River"
  },
  {
    "name": "Finish Line",
    "description": "Shoe Stores",
    "phone": "(321) 724-0989",
    "address": "1700 W New Haven Ave  Melbourne, FL 32904",
    "location": "Indian_River"
  },
  {
    "name": "Footaction USA",
    "description": "Shoe Stores",
    "phone": "(321) 724-6565",
    "address": "1700 W New Haven Ave  Melbourne, FL 32904",
    "location": "Indian_River"
  },
  {
    "name": "Body Shop",
    "description": "Women's Clothing",
    "phone": "(321) 676-5780",
    "address": "1700 W New Haven Ave  Melbourne, FL 32904",
    "location": "Indian_River"
  },
  {
    "name": "Frederick's of Hollywood",
    "description": "Lingerie",
    "phone": "(321) 951-9852",
    "address": "1700 W New Haven Ave  Melbourne, FL 32904",
    "location": "Indian_River"
  },
  {
    "name": "Lids",
    "description": "Hat Shops",
    "phone": "(321) 951-2707",
    "address": "1700 W New Haven Ave  Melbourne, FL 32904",
    "location": "Indian_River"
  },
  {
    "name": "Rack Room Shoes",
    "description": "Shoe Stores",
    "phone": "(321) 726-8773",
    "address": "1700 W New Haven Ave Ste 729  Melbourne, FL 32904",
    "location": "Indian_River"
  },
  {
    "name": "Victoria's Secret & PINK by Victoria's Secret",
    "description": "Lingerie",
    "phone": "(321) 725-4765",
    "address": "1700 W New Haven Ave Ste 847A  Melbourne, FL 32904",
    "location": "Indian_River"
  },
  {
    "name": "Foot Locker",
    "description": "Shoe Stores",
    "phone": "(321) 729-9595",
    "address": "1700 W New Haven Ave Ste 239  Melbourne, FL 32904",
    "location": "Indian_River"
  },
  {
    "name": "Body Central",
    "description": "Women's Clothing",
    "phone": "(321) 837-1366",
    "address": "1700 W New Haven Ave Ste 165  Melbourne, FL 32904",
    "location": "Indian_River"
  },
  {
    "name": "Francesca's",
    "description": "Women's Clothing",
    "phone": "(321) 821-6341",
    "address": "1700 W New Haven Ave  Melbourne, FL 32904",
    "location": "Indian_River"
  },
  {
    "name": "Men's Wearhouse",
    "description": "Men's Clothing",
    "phone": "(321) 733-0500",
    "address": "1745 W New Haven Ave  Melbourne, FL 32904",
    "location": "Indian_River"
  },
  {
    "name": "AMS Racing Prod Ucts",
    "description": "Racing Apparel & Merchandise",
    "phone": "(321) 345-5677",
    "address": "700 Atlantis Rd  Melbourne, FL 32904",
    "location": "Indian_River"
  },
  {
    "name": "Michaels Mens Store",
    "description": "Men's Clothing",
    "phone": "(321) 723-8400",
    "address": "201 5th Ave  Indialantic, FL 32903",
    "location": "Indian_River"
  },
  {
    "name": "Bealls Florida",
    "description": "Home Furnishings",
    "phone": "(321) 773-8560",
    "address": "204 E Eau Gallie Blvd  Indian Harbour Beach, FL 32937",
    "location": "Indian_River"
  },
  {
    "name": "Lat Sportswear",
    "description": "Sportswear",
    "phone": "(770) 479-1877",
    "address": "255 Paradise Blvd  Indialantic, FL 32903",
    "location": "Indian_River"
  },
  {
    "name": "Green Bean Thrift Store",
    "description": "Men's Clothing",
    "phone": "(321) 223-4831",
    "address": "2500 N Highway A1a  Indialantic, FL 32903",
    "location": "Indian_River"
  },
  {
    "name": "BARONI TALL & BIG MENSWEAR",
    "description": "Men's Clothing",
    "phone": "(321) 724-8160",
    "address": "1755 W New Haven Ave  Melbourne, FL 32904",
    "location": "Indian_River"
  },
  {
    "name": "Walmart Supercenter",
    "description": "General Merchandise",
    "phone": "(321) 242-1601",
    "address": "1000 N Wickham Rd  Melbourne, FL 32935",
    "location": "Indian_River"
  },
  {
    "name": "Play It Again Sports",
    "description": "Consignment Service",
    "phone": "(321) 984-1313",
    "address": "2605 W New Haven Ave  Melbourne, FL 32904",
    "location": "Indian_River"
  },
  {
    "name": "Dream Farms of Brevard",
    "description": "Department Stores",
    "phone": "(321) 421-7280",
    "address": "674 N Wickham Rd  Melbourne, FL 32935",
    "location": "Indian_River"
  },
  {
    "name": "Bowlero Melbourne",
    "description": "Bowling",
    "phone": "(321) 242-2695",
    "address": "1099 N Wickham Rd  Melbourne, FL 32935",
    "location": "Indian_River"
  },
  {
    "name": "Treasure Cove Furniture Consignment",
    "description": "Discount Stores",
    "phone": "(321) 259-4589",
    "address": "2920 Aurora Rd  Melbourne, FL 32935",
    "location": "Indian_River"
  },
  {
    "name": "Walmart",
    "description": "General Merchandise",
    "phone": "(321) 777-5504",
    "address": "1001 E Eau Gallie Blvd  Indian Harbour Beach, FL 32937",
    "location": "Indian_River"
  },
  {
    "name": "Kristy's Boutique",
    "description": "Boutique Items",
    "phone": "(561) 699-2296",
    "address": "117 5th Ave  Indialantic, FL 32903",
    "location": "Indian_River"
  },
  {
    "name": "Ron Pierce",
    "description": "Women's Clothing",
    "phone": "(321) 733-2900",
    "address": "115 5th Ave  Indialantic, FL 32903",
    "location": "Indian_River"
  },
  {
    "name": "Target",
    "description": "General Merchandise",
    "phone": "(321) 727-3238",
    "address": "2750 W New Haven Ave  Melbourne Village, FL 32904",
    "location": "Indian_River"
  },
  {
    "name": "D Rochelle",
    "description": "Women's Clothing",
    "phone": "(321) 777-9199",
    "address": "1790 Highway A1a  Satellite Beach, FL 32937",
    "location": "Indian_River"
  },
  {
    "name": "Bon Worth",
    "description": "Women's Clothing",
    "phone": "(321) 255-3088",
    "address": "3202 Lake Washington Rd  Melbourne, FL 32934",
    "location": "Indian_River"
  },
  {
    "name": "Good Money LLC",
    "description": "Men's Clothing",
    "phone": "(321) 258-7130",
    "address": "kemblewick dr.  Melbourne, FL 32935",
    "location": "Indian_River"
  },
  {
    "name": "PSPC Inc",
    "description": "General Merchandise",
    "phone": "(321) 752-5567",
    "address": "4005 Dow Rd  Melbourne, FL 32934",
    "location": "Indian_River"
  },
  {
    "name": "Hibbett Sports",
    "description": "Sporting Goods",
    "phone": "(321) 952-0300",
    "address": "205 Palm Bay Rd NE  Melbourne, FL 32904",
    "location": "Indian_River"
  },
  {
    "name": "Femme Fatale Arms #17",
    "description": "Department Stores",
    "phone": "(321) 327-3790",
    "address": "4270 Minton Rd  Melbourne, FL 32904",
    "location": "Indian_River"
  },
  {
    "name": "Melbourne Tea and Spice Shop",
    "description": "Department Stores",
    "phone": "(651) 373-4142",
    "address": "4835 W Eau Gallie Blvd  Melbourne, FL 32934",
    "location": "Indian_River"
  },
  {
    "name": "lucy",
    "description": "Women's Clothing",
    "phone": "(321) 220-0697",
    "address": "4870 Babcock St NE  Palm Bay, FL 32905",
    "location": "Indian_River"
  },
  {
    "name": "Galls - Patriot Outfitters",
    "description": "Sportswear",
    "phone": "(321) 425-5713",
    "address": "1221 S Patrick Dr  Satellite Beach, FL 32937",
    "location": "Indian_River"
  },
  {
    "name": "Academy Sports + Outdoors",
    "description": "Sporting Goods",
    "phone": "(321) 733-5000",
    "address": "4285 Norfolk Pkwy  West Melbourne, FL 32904",
    "location": "Indian_River"
  },
  {
    "name": "Oneliners Designs",
    "description": "Men's Clothing",
    "phone": "(321) 288-0627",
    "address": "265 Jackson Ave  Satellite Beach, FL 32937",
    "location": "Indian_River"
  },
  {
    "name": "Swanky Sole",
    "description": "Shoe Stores",
    "phone": "(321) 428-4915",
    "address": "6395 N Wickham Rd  Melbourne, FL 32940",
    "location": "Indian_River"
  },
  {
    "name": "La Moda Boutique",
    "description": "Boutique Items",
    "phone": "(321) 773-5234",
    "address": "6395 N Wickham Rd Ste 105  Melbourne, FL 32940",
    "location": "Indian_River"
  },
  {
    "name": "T-Shirts for Jesus",
    "description": "Men's Clothing",
    "phone": "(347) 731-5177",
    "address": "177 Daffodil Dr SW  Palm Bay, FL 32908",
    "location": "Indian_River"
  },
  {
    "name": "Patrick Air Force Base Exchange",
    "description": "Department Stores",
    "phone": "(321) 428-4560",
    "address": "1221 S Patrick Dr  Patrick Afb, FL 32925",
    "location": "Indian_River"
  },
  {
    "name": "Suntree Consignment Boutique",
    "description": "Consignment Service",
    "phone": "(321) 242-0016",
    "address": "3199 Suntree Blvd Ste 4  Rockledge, FL 32955",
    "location": "Indian_River"
  },
  {
    "name": "Wal-Mart SuperCenter",
    "description": "General Merchandise",
    "phone": "(321) 242-0225",
    "address": "8500 N Wickham Rd  Melbourne, FL 32940",
    "location": "Indian_River"
  },
  {
    "name": "pOpshelf",
    "description": "Variety Stores",
    "phone": "(321) 343-6435",
    "address": "7201 Shoppes Dr  Melbourne, FL 32940",
    "location": "Indian_River"
  },
  {
    "name": "Talbots",
    "description": "Women's Clothing",
    "phone": "(321) 637-1290",
    "address": "7200 Lake Andrew Dr  Melbourne, FL 32940",
    "location": "Indian_River"
  },
  {
    "name": "Finishline",
    "description": "Shoe Stores",
    "phone": "(321) 634-5139",
    "address": "2251 Town Center Ave Ste 117  Melbourne, FL 32940",
    "location": "Indian_River"
  },
  {
    "name": "Belk",
    "description": "Department Stores",
    "phone": "(321) 636-1033",
    "address": "2261 Town Center Ave Ste 131  Melbourne, FL 32940",
    "location": "Indian_River"
  },
  {
    "name": "Motherhood Maternity",
    "description": "Maternity Clothes",
    "phone": "(321) 504-6330",
    "address": "2261 Town Center Ave  Melbourne, FL 32940",
    "location": "Indian_River"
  },
  {
    "name": "Ann Taylor",
    "description": "Women's Clothing",
    "phone": "(321) 639-8126",
    "address": "2261 Town Center Ave Ste 101  Melbourne, FL 32940",
    "location": "Indian_River"
  },
  {
    "name": "Squishy Bath and Body Goods",
    "description": "Cosmetics & Perfumes",
    "phone": "(844) 200-2284",
    "address": "2250 Town Center Ave Ste 109  Melbourne, FL 32940",
    "location": "Indian_River"
  },
  {
    "name": "JoS. A. Bank",
    "description": "Men's Clothing",
    "phone": "(321) 639-8805",
    "address": "2271 Town Center Ave Ste 107  Melbourne, FL 32940",
    "location": "Indian_River"
  },
  {
    "name": "Lane Bryant",
    "description": "Women's Clothing",
    "phone": "(321) 482-5861",
    "address": "2271 Town Center Ave Ste 103  Melbourne, FL 32940",
    "location": "Indian_River"
  },
  {
    "name": "Soma Intimates",
    "description": "Lingerie",
    "phone": "(321) 745-2169",
    "address": "2271 Town Center Ave  Melbourne, FL 32940",
    "location": "Indian_River"
  },
  {
    "name": "Patchington",
    "description": "Women's Clothing",
    "phone": "(321) 636-1717",
    "address": "2270 Town Center Ave  Melbourne, FL 32940",
    "location": "Indian_River"
  },
  {
    "name": "Famous Footwear",
    "description": "Shoe Stores",
    "phone": "(321) 632-6674",
    "address": "2291 Town Center Ave  Melbourne, FL 32940",
    "location": "Indian_River"
  },
  {
    "name": "Her Leather Shop",
    "description": "Leather Goods",
    "phone": "(321) 327-4425",
    "address": "PO Box 101273  Palm Bay, FL 32910",
    "location": "Indian_River"
  },
  {
    "name": "Boathouse Discount Marine",
    "description": "Department Stores",
    "phone": "(321) 725-1340",
    "address": "394 Arrowhead Ln  Melbourne Beach, FL 32951",
    "location": "Indian_River"
  },
  {
    "name": "Stan Oley's Tennis Equipment Sales and Services",
    "description": "Tennis Equipment & Supplies",
    "phone": "(800) 352-6878",
    "address": "4711 Chardonnay Dr  Rockledge, FL 32955",
    "location": "Indian_River"
  },
  {
    "name": "Elifeguard Inc",
    "description": "Swimwear & Accessories",
    "phone": "(321) 433-3630",
    "address": "265 Barnes Blvd  Rockledge, FL 32955",
    "location": "Indian_River"
  }
]