[
  {
    "name": "Rue 21",
    "description": "Clothing Stores",
    "phone": "(386) 774-5766",
    "address": "937 Hrlystrklnd Blv St700  Orange City, FL 32763",
    "location": "Jackson"
  },
  {
    "name": "C & C Tee Shirts",
    "description": "Clothing Stores",
    "phone": "(321) 233-3252",
    "address": "2109 N Volusia Ave  Orange City, FL 32763",
    "location": "Jackson"
  },
  {
    "name": "Buzzie Bee Scrubs LLC",
    "description": "Clothing Stores",
    "phone": "(407) 967-5253",
    "address": "2290 S Volusia Ave Ste E1  Orange City, FL 32763",
    "location": "Jackson"
  },
  {
    "name": "T.J. Maxx",
    "description": "Clothing Stores",
    "phone": "(386) 822-9590",
    "address": "2615 S Woodland Blvd  Deland, FL 32720",
    "location": "Jackson"
  },
  {
    "name": "Style Rack",
    "description": "Clothing Stores",
    "phone": "(386) 456-0550",
    "address": "937 Harley Strickland Blvd  Orange City, FL 32763",
    "location": "Jackson"
  },
  {
    "name": "Bealls Department Store",
    "description": "Clothing Stores",
    "phone": "(386) 774-0835",
    "address": "2612 Enterprise Rd  Orange City, FL 32763",
    "location": "Jackson"
  },
  {
    "name": "Lularoe Adeline Blackburn",
    "description": "Clothing Stores",
    "phone": "(321) 299-3069",
    "address": "2631 Harry Ave  Orange City, FL 32763",
    "location": "Jackson"
  },
  {
    "name": "All Exclusive Fashion Inc",
    "description": "Clothing Stores",
    "phone": "(386) 668-6780",
    "address": "895 Diplomat Dr  Debary, FL 32713",
    "location": "Jackson"
  },
  {
    "name": "Fix, Your Fashion",
    "description": "Clothing Stores",
    "phone": "(386) 742-7440",
    "address": "11 S Charles Richard Beall Blvd  Debary, FL 32713",
    "location": "Jackson"
  },
  {
    "name": "Debbie's Dance Boutique Inc",
    "description": "Clothing Stores",
    "phone": "(386) 668-1660",
    "address": "3063 Enterprise Rd  Debary, FL 32713",
    "location": "Jackson"
  },
  {
    "name": "2Sistersknitting 2012",
    "description": "Clothing Stores",
    "phone": "(407) 687-3368",
    "address": "272 Debary Dr  Debary, FL 32713",
    "location": "Jackson"
  },
  {
    "name": "Fashions on the Boulevard",
    "description": "Clothing Stores",
    "phone": "(386) 734-6992",
    "address": "112 N Woodland Blvd  Deland, FL 32720",
    "location": "Jackson"
  },
  {
    "name": "Hunnii Bee the Swarm",
    "description": "Clothing Stores",
    "phone": "(386) 218-0483",
    "address": "1371 Bladon Ave  Deltona, FL 32738",
    "location": "Jackson"
  },
  {
    "name": "Hot Topic",
    "description": "Clothing Stores",
    "phone": "(407) 330-7307",
    "address": "269 Towne Center Cir  Sanford, FL 32771",
    "location": "Jackson"
  },
  {
    "name": "Dixie Heritage",
    "description": "Clothing Stores",
    "phone": "(407) 942-3245",
    "address": "200 Towne Center Cir Ste 177  Sanford, FL 32771",
    "location": "Jackson"
  },
  {
    "name": "Stuph Clothing",
    "description": "Clothing Stores",
    "phone": "(407) 581-1240",
    "address": "111 E 1st St  Sanford, FL 32771",
    "location": "Jackson"
  },
  {
    "name": "Tinkas Closet",
    "description": "Clothing Stores",
    "phone": "(407) 322-1229",
    "address": "4932 W State Road 46 Ste 1036  Sanford, FL 32771",
    "location": "Jackson"
  },
  {
    "name": "Phuture",
    "description": "Clothing Stores",
    "phone": "(888) 748-8873",
    "address": "255 Primer  Sanford, FL 32771",
    "location": "Jackson"
  },
  {
    "name": "Dudes and Dolls Clothing & Accessories",
    "description": "Clothing Stores",
    "phone": "(844) 676-2455",
    "address": "101 Integra Village Trl Apt 129  Sanford, FL 32771",
    "location": "Jackson"
  },
  {
    "name": "Chic Frenzy",
    "description": "Clothing Stores",
    "phone": "(407) 942-3537",
    "address": "200 Towne Center Cir  Sanford, FL 32771",
    "location": "Jackson"
  },
  {
    "name": "Snipes",
    "description": "Clothing Stores",
    "phone": "(407) 323-8027",
    "address": "200 Towne Center Cir Spc F03A  Sanford, FL 32771",
    "location": "Jackson"
  },
  {
    "name": "PacSun",
    "description": "Clothing Stores",
    "phone": "(407) 324-1339",
    "address": "200 Towne Center Cir  Sanford, FL 32771",
    "location": "Jackson"
  },
  {
    "name": "Cotton On",
    "description": "Clothing Stores",
    "phone": "(407) 322-8158",
    "address": "200 Towne Center Cir  Sanford, FL 32771",
    "location": "Jackson"
  },
  {
    "name": "Jimmy Jazz",
    "description": "Clothing Stores",
    "phone": "(407) 323-8027",
    "address": "200 Towne Center Cir  Sanford, FL 32771",
    "location": "Jackson"
  },
  {
    "name": "Tilly's",
    "description": "Clothing Stores",
    "phone": "(407) 321-0711",
    "address": "239 Towne Center Cir  Sanford, FL 32771",
    "location": "Jackson"
  },
  {
    "name": "Buckle",
    "description": "Clothing Stores",
    "phone": "(407) 322-5910",
    "address": "259 Towne Center Cir  Sanford, FL 32771",
    "location": "Jackson"
  },
  {
    "name": "Rock Stop",
    "description": "Clothing Stores",
    "phone": "(321) 926-3159",
    "address": "173 Towne Center Cir  Sanford, FL 32771",
    "location": "Jackson"
  },
  {
    "name": "Hollister",
    "description": "Clothing Stores",
    "phone": "(407) 302-5152",
    "address": "235 Towne Center Cir  Sanford, FL 32771",
    "location": "Jackson"
  },
  {
    "name": "Tommy Hilfiger",
    "description": "Clothing Stores",
    "phone": "(407) 328-3300",
    "address": "330 Towne Center Cir  Sanford, FL 32771",
    "location": "Jackson"
  },
  {
    "name": "Old Navy",
    "description": "Clothing Stores",
    "phone": "(407) 322-1847",
    "address": "1701 Wp Ball Blvd  Sanford, FL 32771",
    "location": "Jackson"
  },
  {
    "name": "Burlington Coat Factory",
    "description": "Clothing Stores",
    "phone": "(407) 688-8785",
    "address": "1301 Wp Ball Blvd  Sanford, FL 32771",
    "location": "Jackson"
  },
  {
    "name": "Express",
    "description": "Clothing Stores",
    "phone": "(407) 792-0138",
    "address": "130 Towne Center Cir  Sanford, FL 32771",
    "location": "Jackson"
  },
  {
    "name": "H&M",
    "description": "Clothing Stores",
    "phone": "(855) 466-7467",
    "address": "117 Towne Center Cir  Sanford, FL 32771",
    "location": "Jackson"
  },
  {
    "name": "Aeropostale",
    "description": "Clothing Stores",
    "phone": "(407) 321-3918",
    "address": "268 Towne Center Cir  Sanford, FL 32771",
    "location": "Jackson"
  },
  {
    "name": "American Eagle Outfitters",
    "description": "Clothing Stores",
    "phone": "(407) 324-3595",
    "address": "165 Towne Center Cir  Sanford, FL 32771",
    "location": "Jackson"
  },
  {
    "name": "Rainbow Shops",
    "description": "Clothing Stores",
    "phone": "(407) 323-9285",
    "address": "3613 S Orlando Dr  Sanford, FL 32773",
    "location": "Jackson"
  },
  {
    "name": "Citi Trends",
    "description": "Clothing Stores",
    "phone": "(904) 750-3664",
    "address": "2921 S Orlando Dr Ste 230  Sanford, FL 32773",
    "location": "Jackson"
  },
  {
    "name": "Dolphin Style",
    "description": "Clothing Stores",
    "phone": "(407) 720-8393",
    "address": "233 Meadow Beauty Ter  Sanford, FL 32771",
    "location": "Jackson"
  },
  {
    "name": "Why So Serious?",
    "description": "Clothing Stores",
    "phone": "(407) 780-5497",
    "address": "2518 Bullion Loop  Sanford, FL 32771",
    "location": "Jackson"
  },
  {
    "name": "Jocey's Closet",
    "description": "Clothing Stores",
    "phone": "(407) 302-8713",
    "address": "950 Cherry Branch Ct  Lake Mary, FL 32746",
    "location": "Jackson"
  },
  {
    "name": "Urban Appeal",
    "description": "Clothing Stores",
    "phone": "(407) 878-1236",
    "address": "3699 S Orlando Dr  Sanford, FL 32773",
    "location": "Jackson"
  },
  {
    "name": "4th and Ocean",
    "description": "Clothing Stores",
    "phone": "(407) 878-6656",
    "address": "142 W Lakeview Ave Ste 1030 PMB 4  Lake Mary, FL 32746",
    "location": "Jackson"
  },
  {
    "name": "Jagger Couture",
    "description": "Clothing Stores",
    "phone": "(407) 878-7202",
    "address": "136 N 4th St  Lake Mary, FL 32746",
    "location": "Jackson"
  },
  {
    "name": "Silver Moon Creations Inc",
    "description": "Clothing Stores",
    "phone": "(407) 732-4734",
    "address": "130 Keyes Ave  Sanford, FL 32773",
    "location": "Jackson"
  },
  {
    "name": "HBCU BABY, LLC.",
    "description": "Clothing Stores",
    "phone": "(877) 288-0953",
    "address": "255 Primera Blvd Ste 160  Lake Mary, FL 32746",
    "location": "Jackson"
  },
  {
    "name": "Butafrog Inc",
    "description": "Clothing Stores",
    "phone": "(407) 402-2580",
    "address": "407 Timberwalk Ln  Lake Mary, FL 32746",
    "location": "Jackson"
  },
  {
    "name": "Jopp's Tack Inc",
    "description": "Clothing Stores",
    "phone": "(386) 761-4756",
    "address": "2579 Tribble Dr  Port Orange, FL 32128",
    "location": "Jackson"
  },
  {
    "name": "Floirda Sportswear",
    "description": "Clothing Stores",
    "phone": "(407) 321-5354",
    "address": "1910 S Park Ave  Sanford, FL 32771",
    "location": "Jackson"
  },
  {
    "name": "Five Below",
    "description": "Clothing Stores",
    "phone": "(321) 273-8267",
    "address": "2701A S Woodland Blvd  Deland, FL 32720",
    "location": "Jackson"
  },
  {
    "name": "Skechers Factory Outlet",
    "description": "Clothing Stores",
    "phone": "(386) 279-4961",
    "address": "2701 S Woodland Blvd  Deland, FL 32720",
    "location": "Jackson"
  },
  {
    "name": "Ross Dress for Less",
    "description": "Clothing Stores",
    "phone": "(386) 775-1558",
    "address": "1003 Harley Strickland Blvd  Orange City, FL 32763",
    "location": "Jackson"
  },
  {
    "name": "T.J. Maxx & HomeGoods",
    "description": "Clothing Stores",
    "phone": "(407) 322-1776",
    "address": "3899 W Lake Mary Blvd  Lake Mary, FL 32746",
    "location": "Jackson"
  },
  {
    "name": "SEPHORA at Kohl's",
    "description": "Clothing Stores",
    "phone": "(386) 456-1001",
    "address": "1065 Harley Strickland Blvd  Orange City, FL 32763",
    "location": "Jackson"
  },
  {
    "name": "Bealls Outlet Stores",
    "description": "Clothing Stores",
    "phone": "(386) 775-2000",
    "address": "2550 Enterprise Rd  Orange City, FL 32763",
    "location": "Jackson"
  },
  {
    "name": "Justice",
    "description": "Clothing Stores",
    "phone": "(386) 456-0655",
    "address": "1039 Harley Strickland Blvd  Orange City, FL 32763",
    "location": "Jackson"
  },
  {
    "name": "Bealls",
    "description": "Clothing Stores",
    "phone": "(386) 774-0835",
    "address": "2612 Enterprise Rd  Orange City, FL 32763",
    "location": "Jackson"
  },
  {
    "name": "Plexus Inc",
    "description": "Clothing Stores",
    "phone": "(386) 736-1244",
    "address": "118 W New York Ave  Deland, FL 32720",
    "location": "Jackson"
  },
  {
    "name": "Special T's",
    "description": "Clothing Stores",
    "phone": "(386) 736-3786",
    "address": "108 N Woodland Blvd  Deland, FL 32720",
    "location": "Jackson"
  },
  {
    "name": "Local Style House",
    "description": "Clothing Stores",
    "phone": "(386) 624-6859",
    "address": "143 N Woodland Blvd  Deland, FL 32720",
    "location": "Jackson"
  },
  {
    "name": "Lace & Accessories",
    "description": "Clothing Stores",
    "phone": "(386) 736-3680",
    "address": "140 N Woodland Blvd  Deland, FL 32720",
    "location": "Jackson"
  },
  {
    "name": "CAD Enterprises",
    "description": "Clothing Stores",
    "phone": "(386) 734-2978",
    "address": "609 E Rich Ave  Deland, FL 32724",
    "location": "Jackson"
  },
  {
    "name": "Jack White Apparel",
    "description": "Clothing Stores",
    "phone": "(386) 668-8900",
    "address": "290 Springview Commerce Dr Ste 2  Debary, FL 32713",
    "location": "Jackson"
  },
  {
    "name": "A & F Sporting Goods",
    "description": "Clothing Stores",
    "phone": "(386) 736-7856",
    "address": "416 1/2 N Orange Ave  Deland, FL 32720",
    "location": "Jackson"
  },
  {
    "name": "No More Knots",
    "description": "Clothing Stores",
    "phone": "(386) 785-5411",
    "address": "1296 Homeway Ln  Deltona, FL 32738",
    "location": "Jackson"
  },
  {
    "name": "Bealls Outlet",
    "description": "Clothing Stores",
    "phone": "(386) 734-1880",
    "address": "1468 N Woodland Blvd  Deland, FL 32720",
    "location": "Jackson"
  },
  {
    "name": "m2 Distribution, Inc",
    "description": "Clothing Stores",
    "phone": "(386) 279-7542",
    "address": "1200 Flight Line Blvd  Deland, FL 32724",
    "location": "Jackson"
  },
  {
    "name": "Acme Cap and Clothing",
    "description": "Clothing Stores",
    "phone": "(407) 321-5100",
    "address": "295 Towne Center Cir  Sanford, FL 32771",
    "location": "Jackson"
  },
  {
    "name": "Tru-Valu Drugs",
    "description": "Clothing Stores",
    "phone": "(407) 323-8403",
    "address": "503 E 1st St  Sanford, FL 32771",
    "location": "Jackson"
  },
  {
    "name": "Woman of Purpose Boutique",
    "description": "Clothing Stores",
    "phone": "(407) 247-5731",
    "address": "655 W Fulton St Ste 5  Sanford, FL 32771",
    "location": "Jackson"
  },
  {
    "name": "Avenue",
    "description": "Clothing Stores",
    "phone": "(407) 328-3007",
    "address": "201 Towne Center Blvd  Sanford, FL 32771",
    "location": "Jackson"
  },
  {
    "name": "Shoe Show",
    "description": "Clothing Stores",
    "phone": "(407) 330-7325",
    "address": "203 Towne Center Blvd  Sanford, FL 32771",
    "location": "Jackson"
  },
  {
    "name": "Adam's Menswear",
    "description": "Clothing Stores",
    "phone": "(407) 688-1331",
    "address": "166 Towne Center Blvd  Sanford, FL 32771",
    "location": "Jackson"
  },
  {
    "name": "Acme Cap Clot Hing",
    "description": "Clothing Stores",
    "phone": "(407) 321-5100",
    "address": "127 Towne Center Cir  Sanford, FL 32771",
    "location": "Jackson"
  },
  {
    "name": "Zumiez",
    "description": "Clothing Stores",
    "phone": "(407) 321-7583",
    "address": "165 Towne Center Cir  Sanford, FL 32771",
    "location": "Jackson"
  },
  {
    "name": "Sirens",
    "description": "Clothing Stores",
    "phone": "(407) 688-4762",
    "address": "200 Towne Center Cir Unit B-05  Sanford, FL 32771",
    "location": "Jackson"
  },
  {
    "name": "The Children's Place",
    "description": "Clothing Stores",
    "phone": "(407) 324-0442",
    "address": "263 Towne Center Cir  Sanford, FL 32771",
    "location": "Jackson"
  },
  {
    "name": "Wet Seal",
    "description": "Clothing Stores",
    "phone": "(407) 324-4298",
    "address": "270 Towne Center Cir  Sanford, FL 32771",
    "location": "Jackson"
  },
  {
    "name": "Aeropostale Factory Store",
    "description": "Clothing Stores",
    "phone": "(407) 321-3918",
    "address": "268 Towne Center Cir  Sanford, FL 32771",
    "location": "Jackson"
  },
  {
    "name": "Papaya Clothing",
    "description": "Clothing Stores",
    "phone": "(407) 322-1264",
    "address": "257 Towne Center Cir  Sanford, FL 32771",
    "location": "Jackson"
  },
  {
    "name": "Journeys",
    "description": "Clothing Stores",
    "phone": "(407) 324-7977",
    "address": "200 Towne Center Cir  Sanford, FL 32771",
    "location": "Jackson"
  },
  {
    "name": "Liz Claiborne",
    "description": "Clothing Stores",
    "phone": "(407) 328-3587",
    "address": "330 Towne Center Cir  Sanford, FL 32771",
    "location": "Jackson"
  },
  {
    "name": "JD Sports",
    "description": "Clothing Stores",
    "phone": "(407) 328-7519",
    "address": "1951 Wp Ball Blvd  Sanford, FL 32771",
    "location": "Jackson"
  },
  {
    "name": "Gandi",
    "description": "Clothing Stores",
    "phone": "(407) 878-7407",
    "address": "1357 Wp Ball Blvd  Sanford, FL 32771",
    "location": "Jackson"
  },
  {
    "name": "Oshkosh B'Gosh",
    "description": "Clothing Stores",
    "phone": "(407) 330-6472",
    "address": "1333 Wp Ball Blvd  Sanford, FL 32771",
    "location": "Jackson"
  },
  {
    "name": "S.A. Elite",
    "description": "Clothing Stores",
    "phone": "(407) 321-1611",
    "address": "1301 Wp Ball Blvd  Sanford, FL 32771",
    "location": "Jackson"
  },
  {
    "name": "Macy's",
    "description": "Clothing Stores",
    "phone": "(407) 328-3300",
    "address": "330 Towne Center Cir  Sanford, FL 32771",
    "location": "Jackson"
  },
  {
    "name": "Marshalls",
    "description": "Clothing Stores",
    "phone": "(407) 302-0839",
    "address": "1551 Wp Ball Blvd  Sanford, FL 32771",
    "location": "Jackson"
  },
  {
    "name": "JCPenney",
    "description": "Clothing Stores",
    "phone": "(407) 323-1310",
    "address": "310 Towne Center Cir  Sanford, FL 32771",
    "location": "Jackson"
  },
  {
    "name": "Skips Western Outfitters",
    "description": "Clothing Stores",
    "phone": "(407) 321-1000",
    "address": "300 N State Road 415  Osteen, FL 32764",
    "location": "Jackson"
  },
  {
    "name": "Walk On Water",
    "description": "Clothing Stores",
    "phone": "(407) 805-0477",
    "address": "1140 Townpark Ave  Lake Mary, FL 32746",
    "location": "Jackson"
  },
  {
    "name": "Eliz Andre LLC",
    "description": "Clothing Stores",
    "phone": "(618) 201-4537",
    "address": "1625 Oak Springs Pl  Lake Mary, FL 32746",
    "location": "Jackson"
  },
  {
    "name": "Art Reflections",
    "description": "Clothing Stores",
    "phone": "(386) 424-0150",
    "address": "4395 Lake Ashby Rd  New Smyrna Beach, FL 32168",
    "location": "Jackson"
  },
  {
    "name": "Butafrog Incorporation",
    "description": "Clothing Stores",
    "phone": "(407) 402-2580",
    "address": "115 Channel Cir  Lake Mary, FL 32746",
    "location": "Jackson"
  },
  {
    "name": "Big R",
    "description": "Clothing Stores",
    "phone": "(407) 328-1233",
    "address": "750 W Lake Mary Blvd  Sanford, FL 32773",
    "location": "Jackson"
  },
  {
    "name": "Free 2 Flex",
    "description": "Clothing Stores",
    "phone": "(407) 783-4959",
    "address": "255 Primera Blvd  Lake Mary, FL 32746",
    "location": "Jackson"
  },
  {
    "name": "Sears",
    "description": "Clothing Stores",
    "phone": "(727) 605-0014",
    "address": "3200 Lake Emma Rd  Lake Mary, FL 32746",
    "location": "Jackson"
  },
  {
    "name": "Karalou's Bridal",
    "description": "Bridal Shops",
    "phone": "(386) 775-2900",
    "address": "840 Saxon Blvd Ste 27  Orange City, FL 32763",
    "location": "Jackson"
  },
  {
    "name": "Target",
    "description": "General Merchandise",
    "phone": "(386) 774-5574",
    "address": "2575 Enterprise Rd  Orange City, FL 32763",
    "location": "Jackson"
  },
  {
    "name": "Hibbett Sports",
    "description": "Sporting Goods",
    "phone": "(386) 228-2077",
    "address": "937 Harley Strickland Blvd  Orange City, FL 32763",
    "location": "Jackson"
  },
  {
    "name": "Famous Footwear",
    "description": "Shoe Stores",
    "phone": "(386) 774-5019",
    "address": "1021 Harley Strickland Blvd  Orange City, FL 32763",
    "location": "Jackson"
  },
  {
    "name": "pOpshelf",
    "description": "Variety Stores",
    "phone": "(386) 342-7441",
    "address": "810 Saxon Blvd  Orange City, FL 32763",
    "location": "Jackson"
  },
  {
    "name": "Sears Outlet",
    "description": "Discount Stores",
    "phone": "(386) 734-6628",
    "address": "2661A S Woodland Blvd  Deland, FL 32720",
    "location": "Jackson"
  },
  {
    "name": "Belk",
    "description": "Department Stores",
    "phone": "(386) 785-0043",
    "address": "2617 S Woodland Blvd  Deland, FL 32720",
    "location": "Jackson"
  },
  {
    "name": "Hot Looks of Florida",
    "description": "Women's Clothing",
    "phone": "(386) 532-2250",
    "address": "2031 Saxon Blvd  Deltona, FL 32725",
    "location": "Jackson"
  },
  {
    "name": "Novedades Jalisco",
    "description": "Women's Clothing",
    "phone": "(386) 873-4739",
    "address": "138 W Beresford Ave  Deland, FL 32720",
    "location": "Jackson"
  },
  {
    "name": "Walmart Grocery Pickup",
    "description": "Department Stores",
    "phone": "(386) 414-3403",
    "address": "1569 Saxon Blvd  Deltona, FL 32725",
    "location": "Jackson"
  },
  {
    "name": "Shellsea",
    "description": "Women's Clothing",
    "phone": "(386) 337-7974",
    "address": "121 N Woodland Blvd  Deland, FL 32720",
    "location": "Jackson"
  },
  {
    "name": "Jeanette's Fashions",
    "description": "Women's Clothing",
    "phone": "(386) 736-0302",
    "address": "1000 E New York Ave  Deland, FL 32724",
    "location": "Jackson"
  },
  {
    "name": "Ms Preppy Pants Deland",
    "description": "Women's Clothing",
    "phone": "(321) 217-2440",
    "address": "101 W Rich Ave  DeLand, FL 32720",
    "location": "Jackson"
  },
  {
    "name": "Lola's Boutique",
    "description": "Boutique Items",
    "phone": "(386) 943-4100",
    "address": "214 N Woodland Blvd  Deland, FL 32720",
    "location": "Jackson"
  },
  {
    "name": "Prettie Pretties By BJ",
    "description": "Beads",
    "phone": "(386) 738-1334",
    "address": "Deland 32720  Deland, FL 32720",
    "location": "Jackson"
  },
  {
    "name": "Country Store",
    "description": "Women's Clothing",
    "phone": "(386) 736-4117",
    "address": "1871 W Highway 44  Deland, FL 32720",
    "location": "Jackson"
  },
  {
    "name": "Cato",
    "description": "Women's Clothing",
    "phone": "(386) 740-1366",
    "address": "273 E Intl Speedway Blvd  Deland, FL 32724",
    "location": "Jackson"
  },
  {
    "name": "Christine Mooney Retail",
    "description": "Department Stores",
    "phone": "(386) 956-0404",
    "address": "2545 Derby Dr  Deltona, FL 32738",
    "location": "Jackson"
  },
  {
    "name": "Betty's Unique Finds",
    "description": "Resale Shops",
    "phone": "(386) 279-7305",
    "address": "1133 North Woodland Blvd  Deland, FL 32130",
    "location": "Jackson"
  },
  {
    "name": "Walmart Supercenter",
    "description": "General Merchandise",
    "phone": "(386) 734-5468",
    "address": "1699 N Woodland Blvd  Deland, FL 32720",
    "location": "Jackson"
  },
  {
    "name": "Cato Fashions",
    "description": "Women's Clothing",
    "phone": "(386) 740-1366",
    "address": "273 E International Speedway Blvd  Deland, FL 32724",
    "location": "Jackson"
  },
  {
    "name": "Handbag Inc",
    "description": "Handbags",
    "phone": "(386) 873-2907",
    "address": "305 E International Speedway Blvd  Deland, FL 32724",
    "location": "Jackson"
  },
  {
    "name": "Racing Planet USA Inc",
    "description": "Department Stores",
    "phone": "(786) 866-8774",
    "address": "1780 Doyle Rd  Deltona, FL 32725",
    "location": "Jackson"
  },
  {
    "name": "Americanstrongheart US",
    "description": "Department Stores",
    "phone": "(407) 259-9886",
    "address": "1669 Amboy Dr  Deltona, FL 32738",
    "location": "Jackson"
  },
  {
    "name": "Feral Kids Creation",
    "description": "Men's Clothing",
    "phone": "(386) 500-8142",
    "address": "31738 hillside dr  deland, FL 32720",
    "location": "Jackson"
  },
  {
    "name": "Ann Taylor",
    "description": "Women's Clothing",
    "phone": "(386) 624-7657",
    "address": "1019 Cedar Glen Dr  Deland, FL 32724",
    "location": "Jackson"
  },
  {
    "name": "Z-5 Sport Rack Co",
    "description": "Sportswear",
    "phone": "(407) 330-7204",
    "address": "4265 Church St Ste 1001  Sanford, FL 32771",
    "location": "Jackson"
  },
  {
    "name": "Sport Hound Dog",
    "description": "Sportswear",
    "phone": "(321) 363-1403",
    "address": "4995 Orange Blvd  Sanford, FL 32771",
    "location": "Jackson"
  },
  {
    "name": "Velocity Sportswear Inc",
    "description": "Sportswear",
    "phone": "(407) 328-3020",
    "address": "650 Hickman Cir  Sanford, FL 32771",
    "location": "Jackson"
  },
  {
    "name": "Sports Inc Florida",
    "description": "Sporting Goods",
    "phone": "(407) 321-3838",
    "address": "2215 W 1st St  Sanford, FL 32771",
    "location": "Jackson"
  },
  {
    "name": "Benada Aluminum Products",
    "description": "Aluminum Products",
    "phone": "(407) 330-6164",
    "address": "2601 W 5th St  Sanford, FL 32771",
    "location": "Jackson"
  },
  {
    "name": "Dat Kloset",
    "description": "Women's Clothing",
    "phone": "(407) 280-3060",
    "address": "772 Shropshire Loop  Sanford, FL 32771",
    "location": "Jackson"
  },
  {
    "name": "E & E Bush-Hogging",
    "description": "Department Stores",
    "phone": "(407) 324-7112",
    "address": "2183 W 8th St  Sanford, FL 32771",
    "location": "Jackson"
  },
  {
    "name": "Rack Room Shoes",
    "description": "Shoe Stores",
    "phone": "(407) 323-7411",
    "address": "104 Towne Center Cir  Sanford, FL 32771",
    "location": "Jackson"
  },
  {
    "name": "Francesca's",
    "description": "Women's Clothing",
    "phone": "(407) 330-7745",
    "address": "132 Towne Center Cir  Sanford, FL 32771",
    "location": "Jackson"
  },
  {
    "name": "Victoria's Secret",
    "description": "Lingerie",
    "phone": "(407) 324-0666",
    "address": "159 Towne Center Cir  Sanford, FL 32771",
    "location": "Jackson"
  },
  {
    "name": "Talbots",
    "description": "Women's Clothing",
    "phone": "(407) 328-4434",
    "address": "152 Towne Center Cir  Sanford, FL 32771",
    "location": "Jackson"
  },
  {
    "name": "Lids",
    "description": "Hat Shops",
    "phone": "(407) 322-8125",
    "address": "219 Towne Center Cir  Sanford, FL 32771",
    "location": "Jackson"
  },
  {
    "name": "Camy Couture",
    "description": "Women's Clothing",
    "phone": "(407) 323-4892",
    "address": "200 Towne Center Cir  Sanford, FL 32771",
    "location": "Jackson"
  },
  {
    "name": "Beya",
    "description": "Women's Clothing",
    "phone": "(407) 320-0988",
    "address": "200 Towne Center Cir  Sanford, FL 32771",
    "location": "Jackson"
  },
  {
    "name": "Champs Sports",
    "description": "Sportswear",
    "phone": "(407) 323-8130",
    "address": "206 Towne Center Cir  Sanford, FL 32771",
    "location": "Jackson"
  },
  {
    "name": "Motherhood Maternity",
    "description": "Maternity Clothes",
    "phone": "(407) 320-9935",
    "address": "200 Towne Center Cir  Sanford, FL 32771",
    "location": "Jackson"
  },
  {
    "name": "Frederick's of Hollywood",
    "description": "Lingerie",
    "phone": "(407) 322-4986",
    "address": "200 Towne Center Cir  Sanford, FL 32771",
    "location": "Jackson"
  },
  {
    "name": "Bucked Up Apparel, LLC",
    "description": "Men's Clothing",
    "phone": "(407) 321-8835",
    "address": "1051 Central Park Dr  Sanford, FL 32771",
    "location": "Jackson"
  },
  {
    "name": "Dillard's",
    "description": "Department Stores",
    "phone": "(407) 330-1775",
    "address": "300 Towne Center Cir  Sanford, FL 32771",
    "location": "Jackson"
  },
  {
    "name": "MAC Cosmetics",
    "description": "Department Stores",
    "phone": "(407) 330-9663",
    "address": "300 Towne Center Cir  Sanford, FL 32771",
    "location": "Jackson"
  },
  {
    "name": "BCBGMAXAZRIA",
    "description": "Women's Clothing",
    "phone": "(407) 322-2717",
    "address": "300 Towne Center Cir  Sanford, FL 32771",
    "location": "Jackson"
  },
  {
    "name": "Torrid Networks Private Ltd",
    "description": "Women's Clothing",
    "phone": "(407) 834-8324",
    "address": "4907 International Pkwy  Sanford, FL 32771",
    "location": "Jackson"
  },
  {
    "name": "Diva",
    "description": "Women's Clothing",
    "phone": "(407) 302-1456",
    "address": "175 Towne Center Cir  Sanford, FL 32771",
    "location": "Jackson"
  },
  {
    "name": "Styles for Less",
    "description": "Women's Clothing",
    "phone": "(407) 330-7284",
    "address": "167 Towne Center Cir  Sanford, FL 32771",
    "location": "Jackson"
  },
  {
    "name": "Finish Line",
    "description": "Shoe Stores",
    "phone": "(407) 328-3300",
    "address": "330 Towne Center Cir  Sanford, FL 32771",
    "location": "Jackson"
  },
  {
    "name": "Bath Shop",
    "description": "Department Stores",
    "phone": "(407) 328-3367",
    "address": "330 Towne Center Cir  Sanford, FL 32771",
    "location": "Jackson"
  },
  {
    "name": "Dick's Sporting Goods",
    "description": "Sporting Goods",
    "phone": "(407) 324-5800",
    "address": "350 Towne Center Cir  Sanford, FL 32771",
    "location": "Jackson"
  },
  {
    "name": "DressBarn",
    "description": "Women's Clothing",
    "phone": "(407) 268-9667",
    "address": "1901 Wp Ball Blvd  Sanford, FL 32771",
    "location": "Jackson"
  },
  {
    "name": "DTLR",
    "description": "Shoe Stores",
    "phone": "(407) 321-0955",
    "address": "1522 S French Ave Ste 1522  Sanford, FL 32771",
    "location": "Jackson"
  },
  {
    "name": "Cache Womens Clothing",
    "description": "Women's Clothing",
    "phone": "(407) 330-2121",
    "address": "130 Towne Center Cir  Sanford, FL 32771",
    "location": "Jackson"
  },
  {
    "name": "Clotheshorse Too",
    "description": "Consignment Service",
    "phone": "(407) 333-0808",
    "address": "3895 Lake Emma Rd Ste 125  Lake Mary, FL 32746",
    "location": "Jackson"
  },
  {
    "name": "Vic's Fashions",
    "description": "Women's Clothing Wholesalers & Manufacturers",
    "phone": "(321) 624-2805",
    "address": "PO Box 112  Paisley, FL 32767",
    "location": "Jackson"
  },
  {
    "name": "Divah Palace",
    "description": "Women's Clothing",
    "phone": "(321) 696-2518",
    "address": "1821 S Summerlin Ave  Sanford, FL 32771",
    "location": "Jackson"
  },
  {
    "name": "JoS. A. Bank",
    "description": "Men's Clothing",
    "phone": "(407) 829-6661",
    "address": "1120 Townpark Ave Ste 1042  Lake Mary, FL 32746",
    "location": "Jackson"
  },
  {
    "name": "Sophie and Trey",
    "description": "Women's Clothing",
    "phone": "(407) 324-5747",
    "address": "136 N 4th St Ste 1290  Lake Mary, FL 32746",
    "location": "Jackson"
  },
  {
    "name": "Kyrscorp Inc",
    "description": "Women's Clothing",
    "phone": "(407) 878-5886",
    "address": "136 N 4th St  Lake Mary, FL 32746",
    "location": "Jackson"
  },
  {
    "name": "House of Tinks",
    "description": "Women's Clothing",
    "phone": "(407) 432-3499",
    "address": "160 International Pkwy Ste 276  Lake Mary, FL 32746",
    "location": "Jackson"
  },
  {
    "name": "Play It Again Sports",
    "description": "Sporting Goods",
    "phone": "(407) 333-0340",
    "address": "3879 Lake Emma Rd  Lake Mary, FL 32746",
    "location": "Jackson"
  },
  {
    "name": "Contiuum Inc",
    "description": "Women's Clothing",
    "phone": "(407) 333-8888",
    "address": "1210 S International Pkwy  Lake Mary, FL 32746",
    "location": "Jackson"
  },
  {
    "name": "Academy Sports + Outdoors",
    "description": "Sporting Goods",
    "phone": "(407) 833-4000",
    "address": "3641 Lake Emma Rd  Lake Mary, FL 32746",
    "location": "Jackson"
  },
  {
    "name": "Family Dollar Store",
    "description": "Department Stores",
    "phone": "(407) 322-8139",
    "address": "4243 N US Highway 17/92  Sanford, FL 32773",
    "location": "Jackson"
  },
  {
    "name": "Jerry Phillips Collection",
    "description": "Men's Clothing",
    "phone": "(407) 401-9364",
    "address": "280 Humphrey Rd  Lake Mary, FL 32746",
    "location": "Jackson"
  }
]