[
  {
    "name": "Varity Store la cubana",
    "description": "Clothing Stores",
    "phone": "(239) 732-0298",
    "address": "11263 Tamiami Trl E  Naples, FL 34113",
    "location": "Levy"
  },
  {
    "name": "Glc's Bling Fashion",
    "description": "Clothing Stores",
    "phone": "(239) 784-3581",
    "address": "4420 Tamiami Trl E  Naples, FL 34112",
    "location": "Levy"
  },
  {
    "name": "Clean Clothes III",
    "description": "Clothing Stores",
    "phone": "(239) 331-8656",
    "address": "11572 Tamiami Trl E  Naples, FL 34113",
    "location": "Levy"
  },
  {
    "name": "Cotton On",
    "description": "Clothing Stores",
    "phone": "(239) 430-1600",
    "address": "Suite L0005 1900 Tamiami Trail North  Naples, FL 34102",
    "location": "Levy"
  },
  {
    "name": "J & S Retail",
    "description": "Clothing Stores",
    "phone": "(239) 529-2304",
    "address": "2808 Thomasson Dr  Naples, FL 34112",
    "location": "Levy"
  },
  {
    "name": "Burlington Coat Factory",
    "description": "Clothing Stores",
    "phone": "(239) 778-0957",
    "address": "12725 Tamiami Trl E Unit 132  Naples, FL 34113",
    "location": "Levy"
  },
  {
    "name": "Stein Mart",
    "description": "Clothing Stores",
    "phone": "(239) 430-0095",
    "address": "13100 Tamiami Trl E  Naples, FL 34114",
    "location": "Levy"
  },
  {
    "name": "African Clothing Online",
    "description": "Clothing Stores",
    "phone": "(239) 529-7604",
    "address": "2800 Davis Blvd Ste 100  Naples, FL 34104",
    "location": "Levy"
  },
  {
    "name": "Snikwah Worldwide",
    "description": "Clothing Stores",
    "phone": "(239) 302-6146",
    "address": "271 Airport Rd S  Naples, FL 34104",
    "location": "Levy"
  },
  {
    "name": "Turf & Surf Golf &Swim",
    "description": "Clothing Stores",
    "phone": "(239) 262-4653",
    "address": "6060 Collier Blvd Ste 100  Naples, FL 34114",
    "location": "Levy"
  },
  {
    "name": "Hanesbrands",
    "description": "Clothing Stores",
    "phone": "(239) 732-1933",
    "address": "6050 Collier Blvd Suite 168  Naples, FL 34114",
    "location": "Levy"
  },
  {
    "name": "Turf & Stuff",
    "description": "Clothing Stores",
    "phone": "(239) 262-4653",
    "address": "6060 Collier Blvd  Naples, FL 34114",
    "location": "Levy"
  },
  {
    "name": "Del Sol",
    "description": "Clothing Stores",
    "phone": "(239) 234-5278",
    "address": "739 5th Ave S  Naples, FL 34102",
    "location": "Levy"
  },
  {
    "name": "Oh My Gauze!",
    "description": "Clothing Stores",
    "phone": "(239) 643-8556",
    "address": "505 5th Ave S Ste A  Naples, FL 34102",
    "location": "Levy"
  },
  {
    "name": "Sexy Fashion",
    "description": "Clothing Stores",
    "phone": "(239) 263-7600",
    "address": "1954 Tamiami Trl N  Naples, FL 34102",
    "location": "Levy"
  },
  {
    "name": "Old Navy",
    "description": "Clothing Stores",
    "phone": "(239) 663-3959",
    "address": "1910 Tamiami Trl N # M5-M6  Naples, FL 34102",
    "location": "Levy"
  },
  {
    "name": "Buckle",
    "description": "Clothing Stores",
    "phone": "(239) 263-3682",
    "address": "1960 Tamiami Trl N  Naples, FL 34102",
    "location": "Levy"
  },
  {
    "name": "Wear In The World",
    "description": "Clothing Stores",
    "phone": "(239) 920-2750",
    "address": "859 4th Ave S  Naples, FL 34102",
    "location": "Levy"
  },
  {
    "name": "Carotec Inc",
    "description": "Clothing Stores",
    "phone": "(239) 331-7112",
    "address": "315 Airport Pulling Rd N  Naples, FL 34104",
    "location": "Levy"
  },
  {
    "name": "Fashion2Love Inc.",
    "description": "Clothing Stores",
    "phone": "(239) 331-7082",
    "address": "4110 Enterprise Ave #108  Naples, FL 34104",
    "location": "Levy"
  },
  {
    "name": "Beast Clothing Company",
    "description": "Clothing Stores",
    "phone": "(239) 263-8300",
    "address": "3673 Exchange Ave Ste 3  Naples, FL 34104",
    "location": "Levy"
  },
  {
    "name": "Jungle Fever",
    "description": "Clothing Stores",
    "phone": "(239) 263-0235",
    "address": "1200 5th Ave S Ste 202  Naples, FL 34102",
    "location": "Levy"
  },
  {
    "name": "Purple Poppy",
    "description": "Clothing Stores",
    "phone": "(239) 529-3071",
    "address": "361 12th Ave S  Naples, FL 34102",
    "location": "Levy"
  },
  {
    "name": "Gretchen Scott",
    "description": "Clothing Stores",
    "phone": "(239) 430-7500",
    "address": "1300 3rd St S Ste 103C  Naples, FL 34102",
    "location": "Levy"
  },
  {
    "name": "Sara Campbell",
    "description": "Clothing Stores",
    "phone": "(239) 331-2953",
    "address": "1300 3rd St S Ste 103B  Naples, FL 34102",
    "location": "Levy"
  },
  {
    "name": "Josephs Clothiers",
    "description": "Clothing Stores",
    "phone": "(239) 530-0070",
    "address": "386 Broad Ave S  Naples, FL 34102",
    "location": "Levy"
  },
  {
    "name": "Joseph Wendt Custom Clothiers",
    "description": "Clothing Stores",
    "phone": "(239) 530-0070",
    "address": "386 Broad Ave S  Naples, FL 34102",
    "location": "Levy"
  },
  {
    "name": "Tommy Bahama",
    "description": "Clothing Stores",
    "phone": "(239) 213-1683",
    "address": "1201 3rd St S  Naples, FL 34102",
    "location": "Levy"
  },
  {
    "name": "John Craig Clothier",
    "description": "Clothing Stores",
    "phone": "(239) 434-2115",
    "address": "1258 3rd St S  Naples, FL 34102",
    "location": "Levy"
  },
  {
    "name": "Fashion & Swim",
    "description": "Clothing Stores",
    "phone": "(239) 963-9791",
    "address": "779 5th Ave S  Naples, FL 34102",
    "location": "Levy"
  },
  {
    "name": "Vince.",
    "description": "Clothing Stores",
    "phone": "(239) 263-4333",
    "address": "1167 3rd St S  Naples, FL 34102",
    "location": "Levy"
  },
  {
    "name": "Elevee Fine Clothing",
    "description": "Clothing Stores",
    "phone": "(239) 280-0266",
    "address": "281 Broad Ave S  Naples, FL 34102",
    "location": "Levy"
  },
  {
    "name": "Elevee Custom Wardrobe",
    "description": "Clothing Stores",
    "phone": "(239) 280-0266",
    "address": "281 Broad Ave S  Naples, FL 34102",
    "location": "Levy"
  },
  {
    "name": "Fresh Produce Retail",
    "description": "Clothing Stores",
    "phone": "(239) 434-5654",
    "address": "691 5th Ave S  Naples, FL 34102",
    "location": "Levy"
  },
  {
    "name": "Naples Fashion",
    "description": "Clothing Stores",
    "phone": "(239) 649-7695",
    "address": "616 5th Ave S  Naples, FL 34102",
    "location": "Levy"
  },
  {
    "name": "Tina's Fashion & Accessories",
    "description": "Clothing Stores",
    "phone": "(239) 963-9376",
    "address": "271 10th St N  Naples, FL 34102",
    "location": "Levy"
  },
  {
    "name": "Back of the Bay",
    "description": "Clothing Stores",
    "phone": "(239) 649-7695",
    "address": "614 5th Ave N  Naples, FL 34102",
    "location": "Levy"
  },
  {
    "name": "fans of Amazon",
    "description": "Clothing Stores",
    "phone": "(239) 234-8692",
    "address": "5383 24th Ave SW  Naples, FL 34116",
    "location": "Levy"
  },
  {
    "name": "La Principal Inc.",
    "description": "Clothing Stores",
    "phone": "(239) 580-6624",
    "address": "5580 19th Ct SW #4  Naples, FL 34116",
    "location": "Levy"
  },
  {
    "name": "Gabriela's Fairytale Boutique",
    "description": "Clothing Stores",
    "phone": "(239) 353-5746",
    "address": "5570 19th Ct SW  Naples, FL 34116",
    "location": "Levy"
  },
  {
    "name": "Delia's Inc",
    "description": "Clothing Stores",
    "phone": "(239) 659-6444",
    "address": "1718 Tamiami Trl N  Naples, FL 34102",
    "location": "Levy"
  },
  {
    "name": "Charlotte Russe",
    "description": "Clothing Stores",
    "phone": "(239) 263-0178",
    "address": "1752 Tamiami Trl N  Naples, FL 34102",
    "location": "Levy"
  },
  {
    "name": "Tommy Hilfiger",
    "description": "Clothing Stores",
    "phone": "(239) 434-1245",
    "address": "1800 Tamiami Trl N  Naples, FL 34102",
    "location": "Levy"
  },
  {
    "name": "Guess",
    "description": "Clothing Stores",
    "phone": "(239) 262-7927",
    "address": "1784 Tamiami Trl N # K0004  Naples, FL 34102",
    "location": "Levy"
  },
  {
    "name": "Express",
    "description": "Clothing Stores",
    "phone": "(239) 434-0353",
    "address": "1764 Tamiami Trl N  Naples, FL 34102",
    "location": "Levy"
  },
  {
    "name": "Hollister",
    "description": "Clothing Stores",
    "phone": "(239) 330-3004",
    "address": "1802 Tamiami Trl N  Naples, FL 34102",
    "location": "Levy"
  },
  {
    "name": "H&M",
    "description": "Clothing Stores",
    "phone": "(855) 466-7467",
    "address": "1900 Tamiami Trl N  Naples, FL 34102",
    "location": "Levy"
  },
  {
    "name": "Firstlook Fashion",
    "description": "Clothing Stores",
    "phone": "(239) 263-4109",
    "address": "1900 Tamiami Trl N  Naples, FL 34102",
    "location": "Levy"
  },
  {
    "name": "Rue 21",
    "description": "Clothing Stores",
    "phone": "(239) 430-0183",
    "address": "1900 Tamiami Trl N  Naples, FL 34102",
    "location": "Levy"
  },
  {
    "name": "Aéropostale",
    "description": "Clothing Stores",
    "phone": "(239) 261-2275",
    "address": "1912 Tamiami Trl N  Naples, FL 34102",
    "location": "Levy"
  },
  {
    "name": "Aeropostale",
    "description": "Clothing Stores",
    "phone": "(239) 261-2275",
    "address": "1912 Tamiami Trl N  Naples, FL 34102",
    "location": "Levy"
  },
  {
    "name": "Hot Topic",
    "description": "Clothing Stores",
    "phone": "(239) 643-3140",
    "address": "1932 Tamiami Trl N # J6  Naples, FL 34102",
    "location": "Levy"
  },
  {
    "name": "PacSun",
    "description": "Clothing Stores",
    "phone": "(239) 430-0770",
    "address": "2010 Tamiami Trl N  Naples, FL 34102",
    "location": "Levy"
  },
  {
    "name": "Leggiadro",
    "description": "Clothing Stores",
    "phone": "(239) 649-4454",
    "address": "1209 3rd St S  Naples, FL 34102",
    "location": "Levy"
  },
  {
    "name": "Sharp Dressed Man",
    "description": "Clothing Stores",
    "phone": "(239) 434-1827",
    "address": "1200 5th Ave S Ste 305  Naples, FL 34102",
    "location": "Levy"
  },
  {
    "name": "Abercrombie & Fitch",
    "description": "Clothing Stores",
    "phone": "(239) 262-0216",
    "address": "1762 Tamiami Trl N  Naples, FL 34102",
    "location": "Levy"
  },
  {
    "name": "American Eagle",
    "description": "Clothing Stores",
    "phone": "(239) 430-2969",
    "address": "1814 Tamiami Trl N  Naples, FL 34102",
    "location": "Levy"
  },
  {
    "name": "Rainbow Shops",
    "description": "Clothing Stores",
    "phone": "(239) 263-0226",
    "address": "2018 Tamiami Trl N  Naples, FL 34102",
    "location": "Levy"
  },
  {
    "name": "Naples Fashion House",
    "description": "Clothing Stores",
    "phone": "(239) 250-1020",
    "address": "4320 Gulf Shore Blvd N  Naples, FL 34103",
    "location": "Levy"
  },
  {
    "name": "Snyderman's Shoes Of Naples",
    "description": "Clothing Stores",
    "phone": "(239) 963-4955",
    "address": "4910 Tamiami Trl N  Naples, FL 34103",
    "location": "Levy"
  },
  {
    "name": "T.J. Maxx",
    "description": "Clothing Stores",
    "phone": "(239) 649-1553",
    "address": "5018 Airport Rd N  Naples, FL 34105",
    "location": "Levy"
  },
  {
    "name": "Nooo Igual Que En Miami",
    "description": "Clothing Stores",
    "phone": "(239) 348-0727",
    "address": "12555 Collier Blvd Ste 4  Naples, FL 34116",
    "location": "Levy"
  },
  {
    "name": "Bealls Department Store",
    "description": "Clothing Stores",
    "phone": "(239) 649-8791",
    "address": "2368 Pine Ridge Rd  Naples, FL 34109",
    "location": "Levy"
  },
  {
    "name": "Saks Fifth Avenue",
    "description": "Clothing Stores",
    "phone": "(239) 207-3714",
    "address": "4135 Tamiami Trl N  Naples, FL 34103",
    "location": "Levy"
  },
  {
    "name": "Mondo Uomo",
    "description": "Clothing Stores",
    "phone": "(239) 263-7005",
    "address": "4530 Tamiami Trl N  Naples, FL 34103",
    "location": "Levy"
  },
  {
    "name": "SUNDAY TROPEZ",
    "description": "Clothing Stores",
    "phone": "(239) 331-4862",
    "address": "4250 Gulf Shore Blvd N  Naples, FL 34103",
    "location": "Levy"
  },
  {
    "name": "J & K Collections",
    "description": "Clothing Stores",
    "phone": "(239) 263-4945",
    "address": "5051 Castello Dr  Naples, FL 34103",
    "location": "Levy"
  },
  {
    "name": "Love That Sport",
    "description": "Clothing Stores",
    "phone": "(239) 213-0065",
    "address": "4910 Tamiami Trl N  Naples, FL 34103",
    "location": "Levy"
  },
  {
    "name": "Sherrys Sew Perfect",
    "description": "Clothing Stores",
    "phone": "(239) 394-1577",
    "address": "406 San Juan Ave  Naples, FL 34113",
    "location": "Levy"
  },
  {
    "name": "Thoughtful Threads",
    "description": "Clothing Stores",
    "phone": "(239) 434-0469",
    "address": "2142 Tamiami Trl N  Naples, FL 34102",
    "location": "Levy"
  },
  {
    "name": "Banana Republic",
    "description": "Clothing Stores",
    "phone": "(239) 597-3161",
    "address": "5555 Tamiami Trl N  Naples, FL 34108",
    "location": "Levy"
  },
  {
    "name": "Calypso St Barth",
    "description": "Clothing Stores",
    "phone": "(239) 513-2227",
    "address": "5435 Tamiami Trl N Ste 21  Naples, FL 34108",
    "location": "Levy"
  },
  {
    "name": "Wind Tide",
    "description": "Clothing Stores",
    "phone": "(239) 394-9463",
    "address": "1035 N Collier Blvd Ste 309  Marco Island, FL 34145",
    "location": "Levy"
  },
  {
    "name": "Burberry Limited",
    "description": "Clothing Stores",
    "phone": "(239) 254-9164",
    "address": "5475 Tamiami Trl N Ste 11  Naples, FL 34108",
    "location": "Levy"
  },
  {
    "name": "Dior",
    "description": "Clothing Stores",
    "phone": "(239) 592-5900",
    "address": "5395 Tamiami Trl N  Naples, FL 34108",
    "location": "Levy"
  },
  {
    "name": "Vineyard Vines",
    "description": "Clothing Stores",
    "phone": "(239) 596-3765",
    "address": "5415 Tamiami Trl N  Naples, FL 34108",
    "location": "Levy"
  },
  {
    "name": "Calypso",
    "description": "Clothing Stores",
    "phone": "(239) 513-2227",
    "address": "5415 Tamiami Trl N  Naples, FL 34108",
    "location": "Levy"
  },
  {
    "name": "Lacoste",
    "description": "Clothing Stores",
    "phone": "(239) 593-1315",
    "address": "5415 Tamiami Trl N  Naples, FL 34108",
    "location": "Levy"
  },
  {
    "name": "Free People",
    "description": "Clothing Stores",
    "phone": "(239) 596-1272",
    "address": "5435 Tamiami Trl N  Naples, FL 34108",
    "location": "Levy"
  },
  {
    "name": "Ralph Lauren",
    "description": "Clothing Stores",
    "phone": "(239) 597-1417",
    "address": "5485 Tamiami Trl N Ste D-1  Naples, FL 34108",
    "location": "Levy"
  },
  {
    "name": "Alo",
    "description": "Clothing Stores",
    "phone": "(239) 799-1197",
    "address": "5485 Tamiami Trl N Unit D-101  Naples, FL 34108",
    "location": "Levy"
  },
  {
    "name": "Florida Fashions",
    "description": "Clothing Stores",
    "phone": "(239) 566-0680",
    "address": "5555 Tamiami Trl N  Naples, FL 34108",
    "location": "Levy"
  },
  {
    "name": "Wallaby Trading Co",
    "description": "Clothing Stores",
    "phone": "(239) 593-1098",
    "address": "7935 Airport Rd N  Naples, FL 34109",
    "location": "Levy"
  },
  {
    "name": "Awaken the Source",
    "description": "Clothing Stores",
    "phone": "(773) 882-7799",
    "address": "2430 Vanderbilt Beach Rd  Naples, FL 34109",
    "location": "Levy"
  },
  {
    "name": "Coming & Going Designs Inc",
    "description": "Clothing Stores",
    "phone": "(239) 594-7065",
    "address": "7687 Santa Margherita Way  Naples, FL 34109",
    "location": "Levy"
  },
  {
    "name": "Butterfly Beach",
    "description": "Clothing Stores",
    "phone": "(239) 394-0837",
    "address": "760 N Collier Blvd  Marco Island, FL 34145",
    "location": "Levy"
  },
  {
    "name": "Dazzel",
    "description": "Clothing Stores",
    "phone": "(239) 389-8861",
    "address": "682 Bald Eagle Dr  Marco Island, FL 34145",
    "location": "Levy"
  },
  {
    "name": "Burkes Outlet",
    "description": "Clothing Stores",
    "phone": "(239) 389-0087",
    "address": "684 Bald Eagle Dr  Marco Island, FL 34145",
    "location": "Levy"
  },
  {
    "name": "Gap",
    "description": "Clothing Stores",
    "phone": "(239) 598-1175",
    "address": "5495 Tamiami Trl N  Naples, FL 34108",
    "location": "Levy"
  },
  {
    "name": "J. Crew",
    "description": "Clothing Stores",
    "phone": "(239) 593-4079",
    "address": "5435 Tamiami Trl N  Naples, FL 34108",
    "location": "Levy"
  },
  {
    "name": "Alvins Island",
    "description": "Clothing Stores",
    "phone": "(239) 389-0600",
    "address": "581 S Collier Blvd  Marco Island, FL 34145",
    "location": "Levy"
  },
  {
    "name": "Rebel",
    "description": "Clothing Stores",
    "phone": "(239) 596-3830",
    "address": "9115 Strada Pl Unit 5150  Naples, FL 34108",
    "location": "Levy"
  },
  {
    "name": "J.Crew Factory",
    "description": "Clothing Stores",
    "phone": "(239) 659-5214",
    "address": "9100 Strada Pl Ste 2125  Naples, FL 34108",
    "location": "Levy"
  },
  {
    "name": "J. Crew Factory Store",
    "description": "Clothing Stores",
    "phone": "(239) 659-5214",
    "address": "9100 Strada Pl  Naples, FL 34108",
    "location": "Levy"
  },
  {
    "name": "Lujo Collections",
    "description": "Clothing Stores",
    "phone": "(239) 631-8188",
    "address": "9331 Tamiami Trl N Ste 21  Naples, FL 34108",
    "location": "Levy"
  },
  {
    "name": "Hoof Life",
    "description": "Clothing Stores",
    "phone": "(239) 231-1834",
    "address": "2271 28th Ave SE  Naples, FL 34117",
    "location": "Levy"
  },
  {
    "name": "Authentic Cotton",
    "description": "Clothing Stores",
    "phone": "(857) 222-3212",
    "address": "2790 Cypress Trace Cir  Naples, FL 34119",
    "location": "Levy"
  },
  {
    "name": "Aley Fashion",
    "description": "Clothing Stores",
    "phone": "(239) 304-9899",
    "address": "13260 Immokalee Rd  Naples, FL 34120",
    "location": "Levy"
  },
  {
    "name": "WODSuperStore.com",
    "description": "Clothing Stores",
    "phone": "(239) 451-6915",
    "address": "1474 Rail Head Blvd  Naples, FL 34110",
    "location": "Levy"
  },
  {
    "name": "Signatures",
    "description": "Clothing Stores",
    "phone": "(239) 254-5800",
    "address": "9100 Strada Pl Ste 2135  Naples, FL 34108",
    "location": "Levy"
  },
  {
    "name": "Patchington",
    "description": "Clothing Stores",
    "phone": "(239) 642-5006",
    "address": "599 S Collier Blvd  Marco Island, FL 34145",
    "location": "Levy"
  },
  {
    "name": "Swim ' N Sport Retail Inc",
    "description": "Clothing Stores",
    "phone": "(239) 394-3300",
    "address": "599 S Collier Blvd Ste 312  Marco Island, FL 34145",
    "location": "Levy"
  },
  {
    "name": "Vintage Island Co",
    "description": "Clothing Stores",
    "phone": "(239) 970-0074",
    "address": "599 S Collier Blvd  Marco Island, FL 34145",
    "location": "Levy"
  },
  {
    "name": "Countrywide Spiritwear",
    "description": "Clothing Stores",
    "phone": "(888) 889-9985",
    "address": "28790 S Diesel Dr Ste 8  Bonita Springs, FL 34135",
    "location": "Levy"
  },
  {
    "name": "Source Clothing Company",
    "description": "Clothing Stores",
    "phone": "(239) 260-1855",
    "address": "2700 Immokalee Rd Ste 6  Naples, FL 34110",
    "location": "Levy"
  },
  {
    "name": "Clothes Mentor",
    "description": "Clothing Stores",
    "phone": "(239) 431-7083",
    "address": "9051 Tamiami Trl N Ste 101  Naples, FL 34108",
    "location": "Levy"
  },
  {
    "name": "Tongas Designs",
    "description": "Clothing Stores",
    "phone": "(239) 642-8750",
    "address": "127 S Barfield Dr  Marco Island, FL 34145",
    "location": "Levy"
  },
  {
    "name": "Best Of Stella",
    "description": "Clothing Stores",
    "phone": "(239) 775-8724",
    "address": "5267 Collins Ct  Naples, FL 34113",
    "location": "Levy"
  },
  {
    "name": "Brandworx",
    "description": "Clothing Stores",
    "phone": "(239) 793-3441",
    "address": "104 Bordeaux Cir  Naples, FL 34112",
    "location": "Levy"
  },
  {
    "name": "Anthony's Ladies Apparel",
    "description": "Clothing Stores",
    "phone": "(239) 774-1010",
    "address": "4919 Rattlesnake Hammock Rd  Naples, FL 34113",
    "location": "Levy"
  },
  {
    "name": "Elesa's Boutique",
    "description": "Clothing Stores",
    "phone": "(239) 228-5368",
    "address": "4270 Tamiami Trl E  Naples, FL 34112",
    "location": "Levy"
  },
  {
    "name": "First Class Boutique",
    "description": "Clothing Stores",
    "phone": "(855) 231-6830",
    "address": "3863 Tamiami Trl E  Naples, FL 34112",
    "location": "Levy"
  },
  {
    "name": "Bealls",
    "description": "Clothing Stores",
    "phone": "(239) 793-0769",
    "address": "3701 Tamiami Trl E  Naples, FL 34112",
    "location": "Levy"
  },
  {
    "name": "Bealls Outlet Stores",
    "description": "Clothing Stores",
    "phone": "(239) 775-4494",
    "address": "2710 Tamiami Trl E  Naples, FL 34112",
    "location": "Levy"
  },
  {
    "name": "Marshalls",
    "description": "Clothing Stores",
    "phone": "(239) 530-1181",
    "address": "13100 Tamiami Trl E  Naples, FL 34114",
    "location": "Levy"
  },
  {
    "name": "Ross Dress for Less",
    "description": "Clothing Stores",
    "phone": "(239) 793-0150",
    "address": "13100 Tamiami Trl E  Naples, FL 34114",
    "location": "Levy"
  },
  {
    "name": "City Slickers Western Wear",
    "description": "Clothing Stores",
    "phone": "(239) 304-9455",
    "address": "2305davis Belville Blvd  Naples, FL 34104",
    "location": "Levy"
  },
  {
    "name": "Korban Custom Mens Wear",
    "description": "Clothing Stores",
    "phone": "(239) 302-6076",
    "address": "2072 Mills Ln  Naples, FL 34112",
    "location": "Levy"
  },
  {
    "name": "Izod",
    "description": "Clothing Stores",
    "phone": "(239) 774-3204",
    "address": "6060 Collier Blvd Ste 92  Naples, FL 34114",
    "location": "Levy"
  },
  {
    "name": "Van Heusen",
    "description": "Clothing Stores",
    "phone": "(239) 774-7732",
    "address": "6060 Collier Blvd  Naples, FL 34114",
    "location": "Levy"
  },
  {
    "name": "Coach Factory Outlet",
    "description": "Clothing Stores",
    "phone": "(239) 732-5009",
    "address": "6060 Collier Blvd  Naples, FL 34114",
    "location": "Levy"
  },
  {
    "name": "LOFT Outlet",
    "description": "Clothing Stores",
    "phone": "(239) 417-0813",
    "address": "6040 Collier Blvd  Naples, FL 34114",
    "location": "Levy"
  },
  {
    "name": "Screen Printing Unlimited",
    "description": "Clothing Stores",
    "phone": "(239) 643-5699",
    "address": "3419 Westview Dr  Naples, FL 34104",
    "location": "Levy"
  },
  {
    "name": "Tommy Bahama Restaurant, Bar & Store",
    "description": "Clothing Stores",
    "phone": "(239) 643-6889",
    "address": "1220 3rd St S  Naples, FL 34102",
    "location": "Levy"
  },
  {
    "name": "Maus & Hoffman",
    "description": "Clothing Stores",
    "phone": "(239) 262-7611",
    "address": "292 14th Ave S Fl 1  Naples, FL 34102",
    "location": "Levy"
  },
  {
    "name": "T-Shirt Express",
    "description": "Clothing Stores",
    "phone": "(239) 261-2149",
    "address": "961 3rd Ave N  Naples, FL 34102",
    "location": "Levy"
  },
  {
    "name": "Macy's",
    "description": "Clothing Stores",
    "phone": "(239) 434-1300",
    "address": "1800 Tamiami Trl N  Naples, FL 34102",
    "location": "Levy"
  },
  {
    "name": "Casanova's Boutique",
    "description": "Clothing Stores",
    "phone": "(239) 450-6844",
    "address": "1500 5th Ave S Unit 107  Naples, FL 34102",
    "location": "Levy"
  },
  {
    "name": "Handshake Guru Technologies",
    "description": "Clothing Stores",
    "phone": "(239) 234-6784",
    "address": "3900 Mannix Dr Ste 117  Naples, FL 34114",
    "location": "Levy"
  },
  {
    "name": "Sticky Holsters, Inc.",
    "description": "Clothing Stores",
    "phone": "(844) 416-1844",
    "address": "4306 Arnold Ave  Naples, FL 34104",
    "location": "Levy"
  },
  {
    "name": "Captain's Closet",
    "description": "Clothing Stores",
    "phone": "(239) 261-5125",
    "address": "1200 5th Ave S Ste 6  Naples, FL 34102",
    "location": "Levy"
  },
  {
    "name": "Olde Naples Surf Shop",
    "description": "Clothing Stores",
    "phone": "(239) 262-1877",
    "address": "1311 3rd St S  Naples, FL 34102",
    "location": "Levy"
  },
  {
    "name": "J.McLaughlin",
    "description": "Clothing Stores",
    "phone": "(239) 435-0888",
    "address": "1209 3rd St S  Naples, FL 34102",
    "location": "Levy"
  },
  {
    "name": "Alice Simone Curated Merchandise",
    "description": "Clothing Stores",
    "phone": "(239) 330-7208",
    "address": "797 5th Ave S  Naples, FL 34102",
    "location": "Levy"
  },
  {
    "name": "Lilly Pulitzer",
    "description": "Clothing Stores",
    "phone": "(239) 280-2060",
    "address": "255 13th Ave S  Naples, FL 34102",
    "location": "Levy"
  },
  {
    "name": "Marissa Collections",
    "description": "Clothing Stores",
    "phone": "(239) 263-4333",
    "address": "1167 3rd St S Ste 207  Naples, FL 34102",
    "location": "Levy"
  },
  {
    "name": "Altered Elements",
    "description": "Clothing Stores",
    "phone": "(239) 430-0654",
    "address": "532 Park St  Naples, FL 34102",
    "location": "Levy"
  },
  {
    "name": "Chico's",
    "description": "Clothing Stores",
    "phone": "(239) 643-3148",
    "address": "600 5th Ave S  Naples, FL 34102",
    "location": "Levy"
  },
  {
    "name": "Shadyandkatie Apparel & Home",
    "description": "Clothing Stores",
    "phone": "(239) 529-2751",
    "address": "945 Central Ave  Naples, FL 34102",
    "location": "Levy"
  },
  {
    "name": "White House | Black Market",
    "description": "Clothing Stores",
    "phone": "(239) 434-9134",
    "address": "555 5th Ave S Ste 102  Naples, FL 34102",
    "location": "Levy"
  },
  {
    "name": "Cache",
    "description": "Clothing Stores",
    "phone": "(239) 261-0042",
    "address": "555 5th Ave S Ste 101  Naples, FL 34102",
    "location": "Levy"
  },
  {
    "name": "Bastiat Naples Inc",
    "description": "Clothing Stores",
    "phone": "(239) 241-2169",
    "address": "555 5th Ave S  Naples, FL 34102",
    "location": "Levy"
  },
  {
    "name": "Kmart",
    "description": "Clothing Stores",
    "phone": "(239) 353-9555",
    "address": "4955 Golden Gate Pkwy  Naples, FL 34116",
    "location": "Levy"
  },
  {
    "name": "Men's Palace",
    "description": "Clothing Stores",
    "phone": "(239) 352-4427",
    "address": "4883 Golden Gate Pkwy  Naples, FL 34116",
    "location": "Levy"
  },
  {
    "name": "US Post Office",
    "description": "Clothing Stores",
    "phone": "(800) 275-8777",
    "address": "4863 Golden Gate Pkwy  Naples, FL 34116",
    "location": "Levy"
  },
  {
    "name": "Monogram Styles",
    "description": "Clothing Stores",
    "phone": "(239) 228-7965",
    "address": "1460 Golden Gate Pkwy Ste 101  Naples, FL 34105",
    "location": "Levy"
  },
  {
    "name": "Forever 21",
    "description": "Clothing Stores",
    "phone": "(239) 262-6430",
    "address": "1704 Tamiami Trl N  Naples, FL 34102",
    "location": "Levy"
  },
  {
    "name": "BCBGMAXAZRIA",
    "description": "Clothing Stores",
    "phone": "(239) 434-5501",
    "address": "1798 Tamiami Trl N  Naples, FL 34102",
    "location": "Levy"
  },
  {
    "name": "Justice",
    "description": "Clothing Stores",
    "phone": "(239) 434-8200",
    "address": "1788 Tamiami Trl N  Naples, FL 34102",
    "location": "Levy"
  },
  {
    "name": "abercrombie kids",
    "description": "Clothing Stores",
    "phone": "(239) 262-0216",
    "address": "1762 Tamiami Trl N  Naples, FL 34102",
    "location": "Levy"
  },
  {
    "name": "The Children's Place",
    "description": "Clothing Stores",
    "phone": "(239) 434-9886",
    "address": "1822 Tamiami Trl N  Naples, FL 34102",
    "location": "Levy"
  },
  {
    "name": "Wet Seal",
    "description": "Clothing Stores",
    "phone": "(239) 403-4312",
    "address": "1824 Tamiami Trl N  Naples, FL 34102",
    "location": "Levy"
  },
  {
    "name": "Zumiez",
    "description": "Clothing Stores",
    "phone": "(239) 403-7661",
    "address": "1828 Tamiami Trl N  Naples, FL 34102",
    "location": "Levy"
  },
  {
    "name": "JD Sports",
    "description": "Clothing Stores",
    "phone": "(239) 403-3849",
    "address": "1840 Tamiami Trl N # L13  Naples, FL 34102",
    "location": "Levy"
  },
  {
    "name": "Torrid",
    "description": "Clothing Stores",
    "phone": "(239) 403-0028",
    "address": "1900 Tamiami Trl N  Naples, FL 34102",
    "location": "Levy"
  },
  {
    "name": "Windsor",
    "description": "Clothing Stores",
    "phone": "(888) 495-4957",
    "address": "1900 Tamiami Trl N Spc L0005  Naples, FL 34102",
    "location": "Levy"
  },
  {
    "name": "Men's Palace Inc",
    "description": "Clothing Stores",
    "phone": "(239) 643-2773",
    "address": "1900 Tamiami Trl N  Naples, FL 34102",
    "location": "Levy"
  },
  {
    "name": "5.7.9",
    "description": "Clothing Stores",
    "phone": "(239) 263-0226",
    "address": "1900 Tamiami Trl N  Naples, FL 34102",
    "location": "Levy"
  },
  {
    "name": "JCPenney",
    "description": "Clothing Stores",
    "phone": "(239) 261-0123",
    "address": "1900 Tamiami Trl N  Naples, FL 34102",
    "location": "Levy"
  },
  {
    "name": "Journeys",
    "description": "Clothing Stores",
    "phone": "(239) 263-2555",
    "address": "1916 Tamiami Trl N  Naples, FL 34102",
    "location": "Levy"
  },
  {
    "name": "Sears",
    "description": "Clothing Stores",
    "phone": "(239) 643-9300",
    "address": "2000 Tamiami Trl N  Naples, FL 34102",
    "location": "Levy"
  },
  {
    "name": "Wardrobe Wagon",
    "description": "Clothing Stores",
    "phone": "(239) 919-3341",
    "address": "3737 Domestic Ave  Naples, FL 34104",
    "location": "Levy"
  },
  {
    "name": "Tropical Storm",
    "description": "Clothing Stores",
    "phone": "(239) 649-6647",
    "address": "961 3rd Ave N  Naples, FL 34102",
    "location": "Levy"
  },
  {
    "name": "Teruzzi Mens Wear",
    "description": "Clothing Stores",
    "phone": "(239) 263-2252",
    "address": "4330 Gulf Shore Blvd N  Naples, FL 34103",
    "location": "Levy"
  },
  {
    "name": "New Sajaris",
    "description": "Clothing Stores",
    "phone": "(239) 304-0351",
    "address": "1802 40th Ter SW Ste 6  Naples, FL 34116",
    "location": "Levy"
  },
  {
    "name": "Five Below",
    "description": "Clothing Stores",
    "phone": "(239) 256-7458",
    "address": "5050 Airport Rd N  Naples, FL 34105",
    "location": "Levy"
  },
  {
    "name": "Bealls Outlet",
    "description": "Clothing Stores",
    "phone": "(239) 430-0025",
    "address": "5052 Airport Pulling Rd N  Naples, FL 34105",
    "location": "Levy"
  },
  {
    "name": "DSW Designer Shoe Warehouse",
    "description": "Clothing Stores",
    "phone": "(239) 231-7847",
    "address": "5056 Airport Rd N  Naples, FL 34105",
    "location": "Levy"
  },
  {
    "name": "S.A. Elite",
    "description": "Clothing Stores",
    "phone": "(239) 598-5054",
    "address": "2505 Pine Ridge Rd  Naples, FL 34109",
    "location": "Levy"
  },
  {
    "name": "Pratts Shoe Salon",
    "description": "Clothing Stores",
    "phone": "(239) 262-6342",
    "address": "4206 Gulf Shore Blvd N  Naples, FL 34103",
    "location": "Levy"
  },
  {
    "name": "H T Chittum & Co",
    "description": "Clothing Stores",
    "phone": "(239) 643-5150",
    "address": "4242 Gulf Shore Blvd N  Naples, FL 34103",
    "location": "Levy"
  },
  {
    "name": "The B Store",
    "description": "Clothing Stores",
    "phone": "(239) 919-3446",
    "address": "4250 Gulf Shore Blvd N  Naples, FL 34103",
    "location": "Levy"
  },
  {
    "name": "Lux Boutique",
    "description": "Clothing Stores",
    "phone": "(239) 263-2557",
    "address": "4262 Gulf Shore Blvd N  Naples, FL 34103",
    "location": "Levy"
  },
  {
    "name": "Everything But Water",
    "description": "Clothing Stores",
    "phone": "(239) 659-2782",
    "address": "4350 Gulf Shore Blvd N  Naples, FL 34103",
    "location": "Levy"
  },
  {
    "name": "Fully Promoted Naples, FL",
    "description": "Clothing Stores",
    "phone": "(239) 593-2193",
    "address": "4966 Tamiami Trl N  Naples, FL 34103",
    "location": "Levy"
  },
  {
    "name": "SEPHORA at Kohl's",
    "description": "Clothing Stores",
    "phone": "(239) 514-0184",
    "address": "6381 Naples Blvd  Naples, FL 34109",
    "location": "Levy"
  },
  {
    "name": "Stacy's Golden Hanger",
    "description": "Clothing Stores",
    "phone": "(239) 431-8440",
    "address": "2355 Vanderbilt Beach Rd Ste 168  Naples, FL 34109",
    "location": "Levy"
  },
  {
    "name": "Hermès",
    "description": "Clothing Stores",
    "phone": "(239) 299-4370",
    "address": "5355 Tamiami Trl N Ste 1  Naples, FL 34108",
    "location": "Levy"
  },
  {
    "name": "Escales",
    "description": "Clothing Stores",
    "phone": "(239) 254-1122",
    "address": "5375 Tamiami Trl N  Naples, FL 34108",
    "location": "Levy"
  },
  {
    "name": "120 Percent Lino",
    "description": "Clothing Stores",
    "phone": "(239) 596-7699",
    "address": "5375 Tamiami Trl N  Naples, FL 34108",
    "location": "Levy"
  },
  {
    "name": "Tory Burch",
    "description": "Clothing Stores",
    "phone": "(239) 598-0243",
    "address": "5435 Tamiami Trl N Ste 5  Naples, FL 34108",
    "location": "Levy"
  },
  {
    "name": "Evereve",
    "description": "Clothing Stores",
    "phone": "(239) 963-8373",
    "address": "5435 Tamiami Trl N  Naples, FL 34108",
    "location": "Levy"
  },
  {
    "name": "John Craig",
    "description": "Clothing Stores",
    "phone": "(239) 596-5374",
    "address": "5435 Tamiami Trl N  Naples, FL 34108",
    "location": "Levy"
  },
  {
    "name": "Sassis",
    "description": "Clothing Stores",
    "phone": "(239) 449-8417",
    "address": "2068 J And C Blvd  Naples, FL 34109",
    "location": "Levy"
  },
  {
    "name": "Ferragamo",
    "description": "Clothing Stores",
    "phone": "(239) 438-3056",
    "address": "5495 Tamiami Trl N Ste 19  Naples, FL 34108",
    "location": "Levy"
  },
  {
    "name": "Athleta",
    "description": "Clothing Stores",
    "phone": "(239) 597-8950",
    "address": "5495 Tamiami Trl N Ste 7  Naples, FL 34108",
    "location": "Levy"
  },
  {
    "name": "Casual Connection",
    "description": "Clothing Stores",
    "phone": "(239) 597-2662",
    "address": "2464 Vanderbilt Beach Rd  Naples, FL 34109",
    "location": "Levy"
  },
  {
    "name": "Designer Divas",
    "description": "Clothing Stores",
    "phone": "(239) 431-6341",
    "address": "2355 Vanderbilt Beach Rd Ste 136  Naples, FL 34109",
    "location": "Levy"
  },
  {
    "name": "SkyStruk",
    "description": "Clothing Stores",
    "phone": "(973) 896-8550",
    "address": "140 Corsea Del Fontana Way #110 Ste B  Naples, FL 34109",
    "location": "Levy"
  },
  {
    "name": "Max Mara",
    "description": "Clothing Stores",
    "phone": "(239) 566-7000",
    "address": "919 Pelican Bay Tamiami Trail  Naples, FL 34108",
    "location": "Levy"
  },
  {
    "name": "Obsession Boutique",
    "description": "Clothing Stores",
    "phone": "(239) 393-6332",
    "address": "1089 N Collier Blvd  Marco Island, FL 34145",
    "location": "Levy"
  },
  {
    "name": "Sandpiper's Clothiers",
    "description": "Clothing Stores",
    "phone": "(239) 642-6691",
    "address": "1069 N Collier Blvd Ste 34145  Marco Island, FL 34145",
    "location": "Levy"
  },
  {
    "name": "Loft",
    "description": "Clothing Stores",
    "phone": "(239) 254-1054",
    "address": "5475 Tamiami Trl N Ste 1  Naples, FL 34108",
    "location": "Levy"
  },
  {
    "name": "Marco Island Clothing",
    "description": "Clothing Stores",
    "phone": "(239) 642-7277",
    "address": "117 S Barfield Dr  Marco Island, FL 34145",
    "location": "Levy"
  },
  {
    "name": "Gigis",
    "description": "Clothing Stores",
    "phone": "(239) 254-0800",
    "address": "9128 Strada Pl  Naples, FL 34108",
    "location": "Levy"
  },
  {
    "name": "Charming Charlie",
    "description": "Clothing Stores",
    "phone": "(239) 254-1702",
    "address": "9128 Strada Pl  Naples, FL 34108",
    "location": "Levy"
  },
  {
    "name": "Rebeccas Ladies Fashions & Accessories",
    "description": "Clothing Stores",
    "phone": "(239) 591-1234",
    "address": "9123 Strada Pl  Naples, FL 34108",
    "location": "Levy"
  },
  {
    "name": "Lu Lu Belle",
    "description": "Clothing Stores",
    "phone": "(239) 598-1217",
    "address": "9123 Strada Pl #7106  Naples, FL 34108",
    "location": "Levy"
  },
  {
    "name": "Millstead Boutique",
    "description": "Clothing Stores",
    "phone": "(239) 254-0800",
    "address": "8935 Tamiami Trl N  Naples, FL 34108",
    "location": "Levy"
  },
  {
    "name": "Nordstrom Rack Mercato",
    "description": "Clothing Stores",
    "phone": "(239) 449-7444",
    "address": "9100 Strada Pl  Naples, FL 34108",
    "location": "Levy"
  },
  {
    "name": "Promote",
    "description": "Clothing Stores",
    "phone": "(667) 766-6838",
    "address": "8820 Walter Way Unit 1319  Naples, FL 34120",
    "location": "Levy"
  },
  {
    "name": "John Creig",
    "description": "Clothing Stores",
    "phone": "(239) 597-0995",
    "address": "280 Vanderbilt Beach Rd  Naples, FL 34108",
    "location": "Levy"
  },
  {
    "name": "Beach Daisy",
    "description": "Clothing Stores",
    "phone": "(239) 394-0169",
    "address": "599 S Collier Blvd Ste 102  Marco Island, FL 34145",
    "location": "Levy"
  },
  {
    "name": "Sportalm Fashion",
    "description": "Clothing Stores",
    "phone": "(239) 513-2255",
    "address": "9115 Strada Pl Unit 5135  Naples, FL 34108",
    "location": "Levy"
  },
  {
    "name": "Brimzusa",
    "description": "Clothing Stores",
    "phone": "(239) 642-9455",
    "address": "1090 S Collier Blvd Apt 415  Marco Island, FL 34145",
    "location": "Levy"
  },
  {
    "name": "Lululemon",
    "description": "Sportswear",
    "phone": "(239) 254-1517",
    "address": "Suite C-5 5435 Tamiami Trail North  Naples, FL 34108",
    "location": "Levy"
  },
  {
    "name": "West Marine",
    "description": "Boat Equipment & Supplies",
    "phone": "(239) 774-3233",
    "address": "3360 Tamiami Trl E  Naples, FL 34112",
    "location": "Levy"
  },
  {
    "name": "Walmart Supercenter",
    "description": "General Merchandise",
    "phone": "(239) 455-1131",
    "address": "9885 Collier Blvd  Naples, FL 34114",
    "location": "Levy"
  },
  {
    "name": "Rack Room Shoes",
    "description": "Shoe Stores",
    "phone": "(239) 775-2992",
    "address": "6050 Collier Blvd Ste 160  Naples, FL 34114",
    "location": "Levy"
  },
  {
    "name": "Walmart Garden Center",
    "description": "General Merchandise",
    "phone": "(239) 417-1252",
    "address": "6650 Collier Blvd  Naples, FL 34114",
    "location": "Levy"
  },
  {
    "name": "Expressions in Design, Inc.",
    "description": "Home Furnishings",
    "phone": "(239) 434-2227",
    "address": "3905 Radio Rd  Naples, FL 34104",
    "location": "Levy"
  },
  {
    "name": "Famous Footwear",
    "description": "Shoe Stores",
    "phone": "(239) 793-1883",
    "address": "6060 Collier Blvd Ste 44  Naples, FL 34114",
    "location": "Levy"
  },
  {
    "name": "DressBarn",
    "description": "Women's Clothing",
    "phone": "(239) 774-5404",
    "address": "6060 Collier Blvd Ste 36  Naples, FL 34114",
    "location": "Levy"
  },
  {
    "name": "Seraphim Boutique",
    "description": "Boutique Items",
    "phone": "(239) 261-8494",
    "address": "912 Briarwood Blvd  Naples, FL 34104",
    "location": "Levy"
  },
  {
    "name": "Bon Worth",
    "description": "Women's Clothing",
    "phone": "(239) 793-6632",
    "address": "6050 Collier Blvd # 156  Naples, FL 34114",
    "location": "Levy"
  },
  {
    "name": "iPrint Graphix Vehicle Wraps",
    "description": "Shirts-Custom Made",
    "phone": "(239) 963-9319",
    "address": "4573 Enterprise Ave Ste 5  Naples, FL 34104",
    "location": "Levy"
  },
  {
    "name": "Look A Likes",
    "description": "Department Stores",
    "phone": "(407) 846-3712",
    "address": "6050 Collier Blvd  Naples, FL 34114",
    "location": "Levy"
  },
  {
    "name": "Ann Taylor",
    "description": "Women's Clothing",
    "phone": "(239) 417-0813",
    "address": "6040 Collier Blvd  Naples, FL 34114",
    "location": "Levy"
  },
  {
    "name": "Abigail Starr",
    "description": "Women's Clothing",
    "phone": "(239) 649-4999",
    "address": "361 12th Ave S  Naples, FL 34102",
    "location": "Levy"
  },
  {
    "name": "The Bike Route",
    "description": "Sporting Goods",
    "phone": "(239) 351-2091",
    "address": "655 Tamiami Trl N  Naples, FL 34102",
    "location": "Levy"
  },
  {
    "name": "Osprey",
    "description": "Sportswear",
    "phone": "(239) 263-4015",
    "address": "1200 5th Ave S  Naples, FL 34102",
    "location": "Levy"
  },
  {
    "name": "Dillard's",
    "description": "Department Stores",
    "phone": "(239) 261-4100",
    "address": "1798 Tamiami Trl N  Naples, FL 34102",
    "location": "Levy"
  },
  {
    "name": "Eom Sports",
    "description": "Sportswear",
    "phone": "(239) 234-5960",
    "address": "3737 Domestic Ave  Naples, FL 34104",
    "location": "Levy"
  },
  {
    "name": "Brigadoon Wmns Apparel",
    "description": "Women's Clothing",
    "phone": "(239) 263-0696",
    "address": "719 12th Ave S  Naples, FL 34102",
    "location": "Levy"
  },
  {
    "name": "Caribongo",
    "description": "Department Stores",
    "phone": "(239) 435-9539",
    "address": "1200 5th Ave S  Naples, FL 34102",
    "location": "Levy"
  },
  {
    "name": "Loksak Inc",
    "description": "Department Stores",
    "phone": "(239) 331-5550",
    "address": "3050 N Horseshoe Dr  Naples, FL 34104",
    "location": "Levy"
  },
  {
    "name": "Kay's On the Beach",
    "description": "Women's Clothing",
    "phone": "(239) 261-4035",
    "address": "370 13th Ave S  Naples, FL 34102",
    "location": "Levy"
  },
  {
    "name": "Zazou",
    "description": "Women's Clothing",
    "phone": "(239) 213-4200",
    "address": "1391 3rd St S  Naples, FL 34102",
    "location": "Levy"
  },
  {
    "name": "Petunias of Naples",
    "description": "Women's Clothing",
    "phone": "(239) 403-3550",
    "address": "852 5th Ave S  Naples, FL 34102",
    "location": "Levy"
  },
  {
    "name": "Eileen Fisher",
    "description": "Women's Clothing",
    "phone": "(239) 403-7920",
    "address": "1211 3rd St S  Naples, FL 34102",
    "location": "Levy"
  },
  {
    "name": "Beach House Of Naples",
    "description": "Women's Fashion Accessories",
    "phone": "(239) 261-1366",
    "address": "1300 3rd St S Ste 203a  Naples, FL 34102",
    "location": "Levy"
  },
  {
    "name": "Tickled Pink",
    "description": "Women's Clothing",
    "phone": "(239) 435-0004",
    "address": "1300 3rd St S Ste 202B  Naples, FL 34102",
    "location": "Levy"
  },
  {
    "name": "Island Company - Naples",
    "description": "Men's Clothing",
    "phone": "(239) 262-0200",
    "address": "1290 3rd St S  Naples, FL 34102",
    "location": "Levy"
  },
  {
    "name": "The Wind in the Willows",
    "description": "Women's Clothing",
    "phone": "(239) 643-0663",
    "address": "793 5th Ave S  Naples, FL 34102",
    "location": "Levy"
  },
  {
    "name": "Beth's Boutique",
    "description": "Boutique Items",
    "phone": "(239) 643-0663",
    "address": "793 5th Ave S  Naples, FL 34102",
    "location": "Levy"
  },
  {
    "name": "Oh My Gauze Inc",
    "description": "Women's Clothing",
    "phone": "(239) 643-8556",
    "address": "720 5th Ave S Ste 103  Naples, FL 34102",
    "location": "Levy"
  },
  {
    "name": "Vogue Petite Shoppe",
    "description": "Women's Clothing",
    "phone": "(239) 261-7812",
    "address": "634 5th Ave S  Naples, FL 34102",
    "location": "Levy"
  },
  {
    "name": "Kay's on the Beach",
    "description": "Women's Clothing",
    "phone": "(239) 261-7680",
    "address": "606 5th Ave S  Naples, FL 34102",
    "location": "Levy"
  },
  {
    "name": "Soma Intimates",
    "description": "Lingerie",
    "phone": "(239) 403-0031",
    "address": "600 5th Ave S Ste 104-106  Naples, FL 34102",
    "location": "Levy"
  },
  {
    "name": "Rouze",
    "description": "Department Stores",
    "phone": "(239) 692-8253",
    "address": "494 5th St S  Naples, FL 34102",
    "location": "Levy"
  },
  {
    "name": "Twice As Nice Consignment Shop",
    "description": "Consignment Service",
    "phone": "(239) 263-2992",
    "address": "997 2nd Ave N  Naples, FL 34102",
    "location": "Levy"
  },
  {
    "name": "Onette Discount Store",
    "description": "Discount Stores",
    "phone": "(239) 352-8222",
    "address": "4748 Golden Gate Pkwy  Naples, FL 34116",
    "location": "Levy"
  },
  {
    "name": "Motherhood Maternity",
    "description": "Maternity Clothes",
    "phone": "(239) 263-8037",
    "address": "876 Tamiami Trl N  Naples, FL 34102",
    "location": "Levy"
  },
  {
    "name": "Victoria's Secret",
    "description": "Lingerie",
    "phone": "(239) 649-5052",
    "address": "1718 Tamiami Trl N  Naples, FL 34102",
    "location": "Levy"
  },
  {
    "name": "Coastland Center",
    "description": "Women's Clothing",
    "phone": "(239) 403-0459",
    "address": "1750 Tamiami Trl N  Naples, FL 34102",
    "location": "Levy"
  },
  {
    "name": "Lady Foot Locker",
    "description": "Shoe Stores",
    "phone": "(239) 263-6996",
    "address": "1778 Tamiami Trl N  Naples, FL 34102",
    "location": "Levy"
  },
  {
    "name": "Finish Line",
    "description": "Shoe Stores",
    "phone": "(239) 434-1300",
    "address": "1800 Tamiami Trl N  Naples, FL 34102",
    "location": "Levy"
  },
  {
    "name": "Francesca's",
    "description": "Women's Clothing",
    "phone": "(239) 263-0602",
    "address": "1766 Tamiami Trl N  Naples, FL 34102",
    "location": "Levy"
  },
  {
    "name": "Vans",
    "description": "Shoe Stores",
    "phone": "(239) 263-0629",
    "address": "1824 Tamiami Trl N Spc L0007  Naples, FL 34102",
    "location": "Levy"
  },
  {
    "name": "Lids",
    "description": "Hat Shops",
    "phone": "(239) 262-2258",
    "address": "1832 Tamiami Trl N  Naples, FL 34102",
    "location": "Levy"
  },
  {
    "name": "Hibbett Sports",
    "description": "Sporting Goods",
    "phone": "(239) 272-2070",
    "address": "1900 Tamiami Trl N Spc L0007  Naples, FL 34102",
    "location": "Levy"
  },
  {
    "name": "Trendy With A Twist Boutique",
    "description": "Boutique Items",
    "phone": "(239) 403-8264",
    "address": "1900 Tamiami Trl N  Naples, FL 34102",
    "location": "Levy"
  },
  {
    "name": "SKECHERS Retail",
    "description": "Shoe Stores",
    "phone": "(239) 261-3449",
    "address": "1900 Tamiami Trl N # H5  Naples, FL 34102",
    "location": "Levy"
  },
  {
    "name": "Body Central",
    "description": "Women's Clothing",
    "phone": "(239) 263-0335",
    "address": "1900 Tamiami Trl N  Naples, FL 34102",
    "location": "Levy"
  },
  {
    "name": "Frederick's of Hollywood",
    "description": "Lingerie",
    "phone": "(239) 643-2930",
    "address": "1900 Tamiami Trl N # J-9  Naples, FL 34102",
    "location": "Levy"
  },
  {
    "name": "Nine West",
    "description": "Shoe Stores",
    "phone": "(239) 261-3380",
    "address": "1966 Tamiami Trl N  Naples, FL 34102",
    "location": "Levy"
  },
  {
    "name": "Champs Sports",
    "description": "Sportswear",
    "phone": "(239) 261-7316",
    "address": "2054 Tamiami Trl N  Naples, FL 34102",
    "location": "Levy"
  },
  {
    "name": "Avon Ind. Sales Rep",
    "description": "Bras",
    "phone": "(239) 692-0485",
    "address": "5220 16th Pl SW Apt 1  Naples, FL 34116",
    "location": "Levy"
  },
  {
    "name": "Tennis R US",
    "description": "Tennis Equipment & Supplies",
    "phone": "(239) 262-6497",
    "address": "2126 Tamiami Trl N  Naples, FL 34102",
    "location": "Levy"
  },
  {
    "name": "Bikini Barn",
    "description": "Women's Clothing",
    "phone": "(239) 403-7118",
    "address": "4200 Tamiami Trl N  Naples, FL 34103",
    "location": "Levy"
  },
  {
    "name": "Marshall Law Office",
    "description": "Department Stores",
    "phone": "(239) 213-1311",
    "address": "2075 Tamiami Trl N  Naples, FL 34102",
    "location": "Levy"
  },
  {
    "name": "DJY.APPLIANCES STORE",
    "description": "Department Stores",
    "phone": "(239) 530-8400",
    "address": "1842 40th Ter SW Ste 3  Naples, FL 34116",
    "location": "Levy"
  },
  {
    "name": "Kari's Kreations",
    "description": "Women's Clothing",
    "phone": "(239) 963-9559",
    "address": "220 Basik Dr  Naples, FL 34114",
    "location": "Levy"
  },
  {
    "name": "All Things Pretty",
    "description": "Women's Clothing",
    "phone": "(239) 262-7777",
    "address": "3652 Tamiami Trl N  Naples, FL 34103",
    "location": "Levy"
  },
  {
    "name": "PINK by VS",
    "description": "Lingerie",
    "phone": "(239) 403-0145",
    "address": "1770 Tamiami Trail  Naples, FL 34103",
    "location": "Levy"
  },
  {
    "name": "Edwin Watts Golf",
    "description": "Golf Equipment & Supplies",
    "phone": "(239) 403-0615",
    "address": "3980 Tamiami Trl N  Naples, FL 34103",
    "location": "Levy"
  },
  {
    "name": "Target",
    "description": "General Merchandise",
    "phone": "(239) 435-0051",
    "address": "2324 Pine Ridge Rd  Naples, FL 34109",
    "location": "Levy"
  },
  {
    "name": "ASKP Group",
    "description": "Women's Clothing",
    "phone": "(239) 403-7118",
    "address": "4202 Tamiami Trl N  Naples, FL 34103",
    "location": "Levy"
  },
  {
    "name": "Intimates Lingerie Naples, Inc.",
    "description": "Lingerie",
    "phone": "(239) 598-2838",
    "address": "2083 Pine Ridge Rd  Naples, FL 34109",
    "location": "Levy"
  },
  {
    "name": "Golf Galaxy",
    "description": "Sportswear",
    "phone": "(239) 254-0483",
    "address": "6428 Hollywood Blvd  Naples, FL 34109",
    "location": "Levy"
  },
  {
    "name": "Drapers & Damons",
    "description": "Women's Clothing",
    "phone": "(239) 434-5342",
    "address": "770 Neapolitan Way  Naples, FL 34103",
    "location": "Levy"
  },
  {
    "name": "Diane's Fine Fashions Inc",
    "description": "Women's Clothing",
    "phone": "(239) 213-4202",
    "address": "4202 Gulf Shore Blvd N  Naples, FL 34103",
    "location": "Levy"
  },
  {
    "name": "Alberto Pants",
    "description": "Men's Clothing",
    "phone": "(877) 856-4364",
    "address": "4232 Gulf Shore Blvd N  Naples, FL 34103",
    "location": "Levy"
  },
  {
    "name": "Wildflower",
    "description": "Women's Clothing",
    "phone": "(239) 793-2583",
    "address": "4222 Gulf Shore Blvd N  Naples, FL 34103",
    "location": "Levy"
  },
  {
    "name": "Dick's Sporting Goods",
    "description": "Sporting Goods",
    "phone": "(239) 325-6456",
    "address": "5955 Naples Blvd  Naples, FL 34109",
    "location": "Levy"
  },
  {
    "name": "Anavlad",
    "description": "Women's Clothing",
    "phone": "(239) 263-9955",
    "address": "4260 Gulf Shore Blvd N  Naples, FL 34103",
    "location": "Levy"
  },
  {
    "name": "Simply Natural",
    "description": "Women's Clothing",
    "phone": "(239) 403-8903",
    "address": "4330 Gulf Shore Blvd N  Naples, FL 34103",
    "location": "Levy"
  },
  {
    "name": "Kari's Kreations, Inc",
    "description": "Women's Clothing",
    "phone": "(239) 261-5355",
    "address": "4910 Tamiami Trl N  Naples, FL 34103",
    "location": "Levy"
  },
  {
    "name": "Heart and Soul Boutique",
    "description": "Women's Clothing",
    "phone": "(239) 919-3990",
    "address": "1190 Pine Ridge Rd Ste 3  Naples, FL 34108",
    "location": "Levy"
  },
  {
    "name": "What's In Danielle's Bag",
    "description": "Fashion Designers",
    "phone": "(239) 645-2958",
    "address": "000 5th Ave SW  Naples, FL 34117",
    "location": "Levy"
  },
  {
    "name": "Manny's Fine Menswear",
    "description": "Men's Clothing",
    "phone": "(239) 649-4660",
    "address": "2166 Tamiami Trl N  Naples, FL 34102",
    "location": "Levy"
  },
  {
    "name": "Wild Stallion Apparel",
    "description": "Men's Clothing",
    "phone": "(844) 752-0135",
    "address": "2016 Trade Center Way  Naples, FL 34109",
    "location": "Levy"
  },
  {
    "name": "Talbots",
    "description": "Women's Clothing",
    "phone": "(239) 594-7776",
    "address": "5375 Tamiami Trl N  Naples, FL 34108",
    "location": "Levy"
  },
  {
    "name": "Hermes",
    "description": "Department Stores",
    "phone": "(239) 299-4370",
    "address": "5355 Tamiami Trl N  Naples, FL 34108",
    "location": "Levy"
  },
  {
    "name": "Anne Fontaine",
    "description": "Women's Clothing",
    "phone": "(239) 597-7111",
    "address": "5375 Tamiami Trl N  Naples, FL 34108",
    "location": "Levy"
  },
  {
    "name": "Mondi of America",
    "description": "Women's Clothing",
    "phone": "(239) 591-3411",
    "address": "5375 Tamiami Trl N  Naples, FL 34108",
    "location": "Levy"
  },
  {
    "name": "Fendi Naples Saks",
    "description": "Department Stores",
    "phone": "(239) 254-0432",
    "address": "5395 Tamiami Trl N  Naples, FL 34108",
    "location": "Levy"
  },
  {
    "name": "Anthropologie",
    "description": "Women's Clothing",
    "phone": "(239) 594-0317",
    "address": "5415 Tamiami Trl N  Naples, FL 34108",
    "location": "Levy"
  },
  {
    "name": "J. Jill",
    "description": "Women's Clothing",
    "phone": "(239) 653-7301",
    "address": "5415 Tamiami Trl N  Naples, FL 34108",
    "location": "Levy"
  },
  {
    "name": "Gucci - Waterside Shops",
    "description": "Women's Clothing",
    "phone": "(239) 254-1453",
    "address": "5435 Tamiami Trl N Ste 17  Naples, FL 34108",
    "location": "Levy"
  },
  {
    "name": "Veronica Beard Naples",
    "description": "Women's Clothing",
    "phone": "(239) 944-5433",
    "address": "5435 Tamiami Trl N Ste C11  Naples, FL 34108",
    "location": "Levy"
  },
  {
    "name": "Beach House of Naples",
    "description": "Women's Clothing",
    "phone": "(239) 598-4144",
    "address": "5455 Tamiami Trl N  Naples, FL 34108",
    "location": "Levy"
  },
  {
    "name": "Michael Kors",
    "description": "Women's Clothing",
    "phone": "(239) 513-0310",
    "address": "5555 Tamiami Trl N Suite G-14  Naples, FL 34108",
    "location": "Levy"
  },
  {
    "name": "Kate Spade",
    "description": "Women's Clothing",
    "phone": "(239) 594-8504",
    "address": "5485 Tamiami Trl N  Naples, FL 34108",
    "location": "Levy"
  },
  {
    "name": "Juicy Couture",
    "description": "Women's Clothing",
    "phone": "(239) 597-3555",
    "address": "5485 Tamiami Trl N Ste 3  Naples, FL 34108",
    "location": "Levy"
  },
  {
    "name": "Peserico",
    "description": "Women's Clothing",
    "phone": "(239) 592-0025",
    "address": "5495 Tamiami Trl N  Naples, FL 34108",
    "location": "Levy"
  },
  {
    "name": "Kirsten's Boutique",
    "description": "Boutique Items",
    "phone": "(239) 598-3233",
    "address": "5535 Tamiami Trl N  Naples, FL 34108",
    "location": "Levy"
  },
  {
    "name": "Simply Me Boutique",
    "description": "Women's Fashion Accessories",
    "phone": "(239) 203-3801",
    "address": "1826 Trade Center Way Ste B  Naples, FL 34109",
    "location": "Levy"
  },
  {
    "name": "KBR Ventures",
    "description": "Department Stores",
    "phone": "(239) 631-6126",
    "address": "7593 Cordoba Cir  Naples, FL 34109",
    "location": "Levy"
  },
  {
    "name": "Casanova Boutique Inc",
    "description": "Boutique Items",
    "phone": "(239) 571-1610",
    "address": "2363 Vanderbilt Beach Road  Naples, FL 34109",
    "location": "Levy"
  },
  {
    "name": "True Fashionistas",
    "description": "Consignment Service",
    "phone": "(239) 596-5044",
    "address": "2355 Vanderbilt Beach Rd Ste 104  Naples, FL 34109",
    "location": "Levy"
  },
  {
    "name": "Bombay Bangles",
    "description": "Women's Fashion Accessories",
    "phone": "(239) 631-6842",
    "address": "2355 Vanderbilt Beach Rd Ste 177  Naples, FL 34109",
    "location": "Levy"
  },
  {
    "name": "Kathryn's Collection",
    "description": "Women's Clothing",
    "phone": "(239) 434-1885",
    "address": "2355 Vanderbilt Beach Rd Ste 126  Naples, FL 34109",
    "location": "Levy"
  },
  {
    "name": "Vanderbilt Galleria",
    "description": "Department Stores",
    "phone": "(239) 592-0684",
    "address": "9045 Strada Stell Ct  Naples, FL 34109",
    "location": "Levy"
  },
  {
    "name": "Justennis",
    "description": "Women's Fashion Accessories",
    "phone": "(239) 514-8700",
    "address": "7700 Tamiami Trl N  Naples, FL 34108",
    "location": "Levy"
  },
  {
    "name": "Kay's on the Beach Inc",
    "description": "Women's Clothing",
    "phone": "(239) 394-1033",
    "address": "1089 Bald Eagle Dr  Marco Island, FL 34145",
    "location": "Levy"
  },
  {
    "name": "Periwinkles",
    "description": "Women's Clothing",
    "phone": "(239) 642-2334",
    "address": "1089 N Collier Blvd Ste 411  Marco Island, FL 34145",
    "location": "Levy"
  },
  {
    "name": "Marco Destin Inc",
    "description": "Department Stores",
    "phone": "(239) 642-4888",
    "address": "1001 N Collier Blvd  Marco Island, FL 34145",
    "location": "Levy"
  },
  {
    "name": "O M G That's Chic",
    "description": "Skin Care",
    "phone": "(239) 970-2102",
    "address": "287 N Collier Blvd  Marco, FL 34145",
    "location": "Levy"
  },
  {
    "name": "For The Love of Golf",
    "description": "Golf Equipment & Supplies",
    "phone": "(239) 566-3395",
    "address": "9765 Tamiami Trl N  Naples, FL 34108",
    "location": "Levy"
  },
  {
    "name": "Men's Wearhouse",
    "description": "Men's Clothing",
    "phone": "(239) 593-1121",
    "address": "1000 Immokalee Rd  Naples, FL 34110",
    "location": "Levy"
  },
  {
    "name": "JoS. A. Bank",
    "description": "Men's Clothing",
    "phone": "(239) 513-9372",
    "address": "9105 Strada Pl  Naples, FL 34108",
    "location": "Levy"
  },
  {
    "name": "Jeans Identity",
    "description": "Women's Clothing",
    "phone": "(855) 458-7569",
    "address": "8747 Ibis Cove Cir  Naples, FL 34119",
    "location": "Levy"
  },
  {
    "name": "Blueprint Apparel",
    "description": "Women's Clothing",
    "phone": "(239) 352-0362",
    "address": "15205 Collier Blvd  Naples, FL 34119",
    "location": "Levy"
  },
  {
    "name": "Beals",
    "description": "Discount Stores",
    "phone": "(239) 325-8741",
    "address": "2590 Northbrooke Plaza Dr Ste 107  Naples, FL 34119",
    "location": "Levy"
  },
  {
    "name": "John Antonucci",
    "description": "Department Stores",
    "phone": "(239) 431-7567",
    "address": "184 Seabreeze Ave  Naples, FL 34108",
    "location": "Levy"
  },
  {
    "name": "Do Me A Favor Boutique",
    "description": "Women's Clothing",
    "phone": "(239) 594-7223",
    "address": "16396 Aberdeen Way  Naples, FL 34110",
    "location": "Levy"
  },
  {
    "name": "Florida Backyard",
    "description": "Department Stores",
    "phone": "(239) 596-0040",
    "address": "15465 Tamiami Trl N  Naples, FL 34110",
    "location": "Levy"
  },
  {
    "name": "Churchill & Turen Ltd",
    "description": "Women's Clothing",
    "phone": "(239) 249-8642",
    "address": "17010 Porta Vecchio Way  Naples, FL 34110",
    "location": "Levy"
  },
  {
    "name": "Beadz N Bagz",
    "description": "Handbags",
    "phone": "(239) 394-8989",
    "address": "599 S Collier Blvd  Marco Island, FL 34145",
    "location": "Levy"
  },
  {
    "name": "Sunsations",
    "description": "Department Stores",
    "phone": "(239) 393-0555",
    "address": "671 S Collier Blvd  Marco Island, FL 34145",
    "location": "Levy"
  }
]