[
  {
    "name": "Citi Trends",
    "description": "Clothing Stores",
    "phone": "(850) 253-7999",
    "address": "769 W Base St  Madison, FL 32340",
    "location": "Marion"
  },
  {
    "name": "Pepperlune",
    "description": "Clothing Stores",
    "phone": "(850) 973-0963",
    "address": "314 SW Pinckney St  Madison, FL 32340",
    "location": "Marion"
  },
  {
    "name": "Bealls",
    "description": "Clothing Stores",
    "phone": "(850) 973-3700",
    "address": "771 W Base St  Madison, FL 32340",
    "location": "Marion"
  },
  {
    "name": "Bealls Outlet Stores",
    "description": "Clothing Stores",
    "phone": "(850) 973-3700",
    "address": "771 W Base St  Madison, FL 32340",
    "location": "Marion"
  },
  {
    "name": "Southern Grace Gifts",
    "description": "Clothing Stores",
    "phone": "(850) 253-2586",
    "address": "224 SW Range Ave  Madison, FL 32340",
    "location": "Marion"
  },
  {
    "name": "Skie's Limited",
    "description": "Women's Clothing",
    "phone": "(850) 973-6680",
    "address": "180 E Base St  Madison, FL 32340",
    "location": "Marion"
  },
  {
    "name": "Country Store",
    "description": "Women's Clothing",
    "phone": "(850) 973-2476",
    "address": "256 SW Range Ave  Madison, FL 32340",
    "location": "Marion"
  }
]