[
  {
    "name": "American Eagle Outfitters",
    "description": "Clothing Stores",
    "phone": "(305) 787-8585",
    "address": "15372 W Dixie Hwy  North Miami Beach, FL 33162",
    "location": "Nassau"
  },
  {
    "name": "Mopaxpress Plus Inc",
    "description": "Clothing Stores",
    "phone": "(305) 944-1616",
    "address": "1905 NE 154th St  North Miami Beach, FL 33162",
    "location": "Nassau"
  },
  {
    "name": "Bella D'vah Couture",
    "description": "Clothing Stores",
    "phone": "(305) 974-5236",
    "address": "14600 W Dixie Hwy  North Miami, FL 33161",
    "location": "Nassau"
  },
  {
    "name": "Find Less",
    "description": "Clothing Stores",
    "phone": "(305) 952-3095",
    "address": "1966 NE 148th Ter  North Miami, FL 33181",
    "location": "Nassau"
  },
  {
    "name": "Advanced Fashion",
    "description": "Clothing Stores",
    "phone": "(305) 940-5158",
    "address": "1993 NE 148th St  North Miami, FL 33181",
    "location": "Nassau"
  },
  {
    "name": "Clothingunder10.com",
    "description": "Clothing Stores",
    "phone": "(305) 944-1616",
    "address": "19501 NE 10th Ave Ste 106  North Miami Beach, FL 33179",
    "location": "Nassau"
  },
  {
    "name": "New Gerald Fashion",
    "description": "Clothing Stores",
    "phone": "(305) 893-2030",
    "address": "13649 W Dixie Hwy  North Miami, FL 33161",
    "location": "Nassau"
  },
  {
    "name": "Our Fabulous Finds",
    "description": "Clothing Stores",
    "phone": "(855) 336-6875",
    "address": "19140 W Dixie Hwy  Aventura, FL 33180",
    "location": "Nassau"
  },
  {
    "name": "Stone Rose",
    "description": "Clothing Stores",
    "phone": "(305) 393-8468",
    "address": "19589 NE 10th Ave  Miami, FL 33179",
    "location": "Nassau"
  },
  {
    "name": "Tennis Plaza (Aventura)",
    "description": "Clothing Stores",
    "phone": "(306) 890-1808",
    "address": "15400 Biscayne Blvd Ste 110  Aventura, FL 33160",
    "location": "Nassau"
  },
  {
    "name": "Charlotte Russe",
    "description": "Clothing Stores",
    "phone": "(305) 819-6210",
    "address": "W 1675 49Th Street  Hialeah, FL 33012",
    "location": "Nassau"
  },
  {
    "name": "Best Selection",
    "description": "Clothing Stores",
    "phone": "(786) 718-7184",
    "address": "16880 NE 4th Ave  Miami, FL 33161",
    "location": "Nassau"
  },
  {
    "name": "L C Decor",
    "description": "Clothing Stores",
    "phone": "(305) 655-1073",
    "address": "19569 NW 2nd Ave  Miami, FL 33169",
    "location": "Nassau"
  },
  {
    "name": "Tommy Hilfiger",
    "description": "Clothing Stores",
    "phone": "(305) 682-3202",
    "address": "19535 Biscayne Blvd  Miami, FL 33180",
    "location": "Nassau"
  },
  {
    "name": "Old Navy",
    "description": "Clothing Stores",
    "phone": "(305) 940-4640",
    "address": "3885 NE 163rd St  North Miami Beach, FL 33160",
    "location": "Nassau"
  },
  {
    "name": "Boutique Flirt",
    "description": "Clothing Stores",
    "phone": "(305) 944-3533",
    "address": "17100 Collins Ave Ste 104  Sunny Isles Beach, FL 33160",
    "location": "Nassau"
  },
  {
    "name": "Shoehandy & More Creation.",
    "description": "Clothing Stores",
    "phone": "(888) 920-5507",
    "address": "20295 NW 2nd Ave Ste 201  Miami, FL 33169",
    "location": "Nassau"
  },
  {
    "name": "Donald J Pliner",
    "description": "Clothing Stores",
    "phone": "(305) 792-4774",
    "address": "19575 Biscayne Blvd  Miami, FL 33180",
    "location": "Nassau"
  },
  {
    "name": "Michael Allenova",
    "description": "Clothing Stores",
    "phone": "(305) 705-2095",
    "address": "526 NE 199th Ln  Miami, FL 33179",
    "location": "Nassau"
  },
  {
    "name": "Fly Supply Clothing",
    "description": "Clothing Stores",
    "phone": "(305) 651-1888",
    "address": "371 NW 170th St  Miami, FL 33169",
    "location": "Nassau"
  },
  {
    "name": "Stylish Baby Clothes",
    "description": "Clothing Stores",
    "phone": "(786) 228-9059",
    "address": "18350 NW 2nd Ave Ste 500  Miami, FL 33169",
    "location": "Nassau"
  },
  {
    "name": "Gan Eden Fashion",
    "description": "Clothing Stores",
    "phone": "(305) 778-2091",
    "address": "20436 NE 16th Pl  Miami, FL 33179",
    "location": "Nassau"
  },
  {
    "name": "South Athletics",
    "description": "Clothing Stores",
    "phone": "(305) 654-0414",
    "address": "20436 NE 16th Pl  Miami, FL 33179",
    "location": "Nassau"
  },
  {
    "name": "Evoke European House of Fashion",
    "description": "Clothing Stores",
    "phone": "(305) 490-1437",
    "address": "496 NW 165th Street Rd  Miami, FL 33169",
    "location": "Nassau"
  },
  {
    "name": "Timberland",
    "description": "Clothing Stores",
    "phone": "(305) 467-4598",
    "address": "19501 Biscayne Blvd  Miami, FL 33180",
    "location": "Nassau"
  },
  {
    "name": "Quiksilver Inc - QS Retail Inc",
    "description": "Clothing Stores",
    "phone": "(305) 932-9192",
    "address": "19501 Biscayne Blvd  Miami, FL 33180",
    "location": "Nassau"
  },
  {
    "name": "Aeropostale",
    "description": "Clothing Stores",
    "phone": "(305) 937-7766",
    "address": "19501 Biscayne Blvd  Miami, FL 33180",
    "location": "Nassau"
  },
  {
    "name": "H&M",
    "description": "Clothing Stores",
    "phone": "(855) 466-7467",
    "address": "19501 Biscayne Blvd  Miami, FL 33180",
    "location": "Nassau"
  },
  {
    "name": "BCBG Cbg",
    "description": "Clothing Stores",
    "phone": "(305) 936-0334",
    "address": "19501 Biscayne Blvd  Miami, FL 33180",
    "location": "Nassau"
  },
  {
    "name": "Peace Love World",
    "description": "Clothing Stores",
    "phone": "(305) 690-7969",
    "address": "19501 Biscayne Blvd  Miami, FL 33180",
    "location": "Nassau"
  },
  {
    "name": "DVF (Diane von Furstenberg)",
    "description": "Clothing Stores",
    "phone": "(305) 735-8960",
    "address": "19501 Biscayne Blvd Ste 803  Miami, FL 33180",
    "location": "Nassau"
  },
  {
    "name": "Guess",
    "description": "Clothing Stores",
    "phone": "(305) 239-9417",
    "address": "19501 Biscayne Blvd Ste 1615a  Miami, FL 33180",
    "location": "Nassau"
  },
  {
    "name": "Faconnable",
    "description": "Clothing Stores",
    "phone": "(305) 792-2610",
    "address": "19501 Biscayne Blvd Ste 057  Miami, FL 33180",
    "location": "Nassau"
  },
  {
    "name": "Vineyard Vines",
    "description": "Clothing Stores",
    "phone": "(305) 933-8452",
    "address": "19501 Biscayne Blvd  Miami, FL 33180",
    "location": "Nassau"
  },
  {
    "name": "Hugo Boss",
    "description": "Clothing Stores",
    "phone": "(305) 792-1413",
    "address": "19501 Biscayne Blvd Ste 49  Miami, FL 33180",
    "location": "Nassau"
  },
  {
    "name": "Fallas Paredes",
    "description": "Clothing Stores",
    "phone": "(305) 770-0159",
    "address": "850 Ives Dairy Rd  Miami, FL 33179",
    "location": "Nassau"
  },
  {
    "name": "DD's Discounts",
    "description": "Clothing Stores",
    "phone": "(305) 249-4895",
    "address": "850 Ives Dairy Rd  Miami, FL 33179",
    "location": "Nassau"
  },
  {
    "name": "Vince.",
    "description": "Clothing Stores",
    "phone": "(305) 356-6900",
    "address": "19507 Biscayne Blvd  Miami, FL 33180",
    "location": "Nassau"
  }
]