[
  {
    "name": "Tropical Waves",
    "description": "Clothing Stores",
    "phone": "(850) 244-4039",
    "address": "1251 Miracle Strip Pkwy SE  Fort Walton Beach, FL 32548",
    "location": "Okaloosa"
  },
  {
    "name": "Drip the Boutique",
    "description": "Clothing Stores",
    "phone": "(850) 543-0275",
    "address": "139 Beal Pkwy SE  Fort Walton Beach, FL 32548",
    "location": "Okaloosa"
  },
  {
    "name": "Manatees Castle",
    "description": "Clothing Stores",
    "phone": "(850) 244-5008",
    "address": "212 Miracle Strip Pkwy SE  Fort Walton Beach, FL 32548",
    "location": "Okaloosa"
  },
  {
    "name": "Rainbow Shops",
    "description": "Clothing Stores",
    "phone": "(850) 796-4811",
    "address": "99 Eglin Pkwy NE  Fort Walton Beach, FL 32548",
    "location": "Okaloosa"
  },
  {
    "name": "Five Below",
    "description": "Clothing Stores",
    "phone": "(850) 301-0169",
    "address": "99 Eglin Pkwy NE  Fort Walton Beach, FL 32548",
    "location": "Okaloosa"
  },
  {
    "name": "Dennis & Company",
    "description": "Clothing Stores",
    "phone": "(850) 226-4380",
    "address": "205 Florida Pl SE  Fort Walton Beach, FL 32548",
    "location": "Okaloosa"
  },
  {
    "name": "E Jones & Co Corp",
    "description": "Clothing Stores",
    "phone": "(850) 200-4544",
    "address": "184 Miracle Strip Pkwy SE Ste 2  Fort Walton Beach, FL 32548",
    "location": "Okaloosa"
  },
  {
    "name": "Gents Formal Wear",
    "description": "Clothing Stores",
    "phone": "(850) 226-8291",
    "address": "98 Eglin Pkwy NE  Fort Walton Beach, FL 32548",
    "location": "Okaloosa"
  },
  {
    "name": "Ross Dress for Less",
    "description": "Clothing Stores",
    "phone": "(850) 664-2312",
    "address": "99 Eglin Pkwy NE  Fort Walton Beach, FL 32548",
    "location": "Okaloosa"
  },
  {
    "name": "Alpha Life Inc",
    "description": "Clothing Stores",
    "phone": "(850) 344-9981",
    "address": "99 Eglin Pkwy NE  Fort Walton Beach, FL 32548",
    "location": "Okaloosa"
  },
  {
    "name": "The Xtreme Sports Fan",
    "description": "Clothing Stores",
    "phone": "(850) 243-6680",
    "address": "4319 Legendary Drive Suite D126  Fort Walton Beach, FL 32548",
    "location": "Okaloosa"
  },
  {
    "name": "Kmart",
    "description": "Clothing Stores",
    "phone": "(850) 243-8185",
    "address": "200 Irwin Ave NE  Fort Walton Beach, FL 32548",
    "location": "Okaloosa"
  },
  {
    "name": "Alvin's Island Department Stores",
    "description": "Clothing Stores",
    "phone": "(850) 244-8318",
    "address": "1500 Miracle Strip Pkwy SE  Fort Walton Beach, FL 32548",
    "location": "Okaloosa"
  },
  {
    "name": "West Marine",
    "description": "Boat Equipment & Supplies",
    "phone": "(850) 664-2254",
    "address": "99 Eglin Pkwy NE  Fort Walton Beach, FL 32548",
    "location": "Okaloosa"
  },
  {
    "name": "Run With IT",
    "description": "Sportswear",
    "phone": "(850) 243-1007",
    "address": "42 Miracle Strip Pkwy SE  Fort Walton Beach, FL 32548",
    "location": "Okaloosa"
  },
  {
    "name": "Hibbett Sports",
    "description": "Sporting Goods",
    "phone": "(850) 301-0096",
    "address": "99 Eglin Pkwy  Fort Walton Beach, FL 32548",
    "location": "Okaloosa"
  },
  {
    "name": "Army & Air Force Exchange Services",
    "description": "Department Stores",
    "phone": "(850) 884-7645",
    "address": "112 Lielmanis Ave  Fort Walton Beach, FL 32548",
    "location": "Okaloosa"
  },
  {
    "name": "Ivey Ladies Apparel Dress Boutique",
    "description": "Women's Clothing",
    "phone": "(850) 315-1334",
    "address": "144 Miracle Strip Pkwy SE  Fort Walton Beach, FL 32548",
    "location": "Okaloosa"
  },
  {
    "name": "Encore Consignment Boutique",
    "description": "Consignment Service",
    "phone": "(850) 243-1951",
    "address": "29 Eglin Pkwy SE  Fort Walton Beach, FL 32548",
    "location": "Okaloosa"
  },
  {
    "name": "Pink Tree Boutique",
    "description": "General Merchandise",
    "phone": "(850) 200-4399",
    "address": "75 Eglin Pkwy NE Unit 115a  Fort Walton Beach, FL 32548",
    "location": "Okaloosa"
  },
  {
    "name": "Old Navy",
    "description": "Clothing Stores",
    "phone": "(850) 796-1330",
    "address": "300 Mary Esther Blvd  Mary Esther, FL 32569",
    "location": "Okaloosa"
  },
  {
    "name": "Aeropostale",
    "description": "Clothing Stores",
    "phone": "(850) 244-4542",
    "address": "300 Mary Esther Blvd Ste 60  Mary Esther, FL 32569",
    "location": "Okaloosa"
  },
  {
    "name": "American Eagle Outfitters",
    "description": "Clothing Stores",
    "phone": "(850) 244-0388",
    "address": "300 Mary Esther Blvd Ste 59  Mary Esther, FL 32569",
    "location": "Okaloosa"
  },
  {
    "name": "Rue 21",
    "description": "Clothing Stores",
    "phone": "(850) 243-9200",
    "address": "300 Mary Esther Blvd  Mary Esther, FL 32569",
    "location": "Okaloosa"
  },
  {
    "name": "Fresh Fashions",
    "description": "Clothing Stores",
    "phone": "(850) 301-0060",
    "address": "34 Wright Pkwy NW  Fort Walton Beach, FL 32548",
    "location": "Okaloosa"
  },
  {
    "name": "Bealls Outlet Stores",
    "description": "Clothing Stores",
    "phone": "(850) 243-1667",
    "address": "419 Mary Esther Cut Off NW Ofc NW  Fort Walton Beach, FL 32548",
    "location": "Okaloosa"
  },
  {
    "name": "Retail Therapy",
    "description": "Clothing Stores",
    "phone": "(850) 267-0990",
    "address": "4552 US Highway 98 W  Santa Rosa Beach, FL 32459",
    "location": "Okaloosa"
  },
  {
    "name": "T.J. Maxx",
    "description": "Clothing Stores",
    "phone": "(850) 362-0136",
    "address": "417B Mary Esther Cut Off NW  Fort Walton Beach, FL 32548",
    "location": "Okaloosa"
  },
  {
    "name": "PacSun",
    "description": "Clothing Stores",
    "phone": "(850) 301-9119",
    "address": "300 Mary Esther Blvd  Mary Esther, FL 32569",
    "location": "Okaloosa"
  },
  {
    "name": "Charlotte Russe",
    "description": "Clothing Stores",
    "phone": "(850) 243-3270",
    "address": "300 Mary Esther Blvd  Mary Esther, FL 32569",
    "location": "Okaloosa"
  },
  {
    "name": "Here Wee Grow Again",
    "description": "Clothing Stores",
    "phone": "(850) 226-6015",
    "address": "350 Eglin Pkwy NE  Fort Walton Beach, FL 32547",
    "location": "Okaloosa"
  },
  {
    "name": "Twice Is Nice",
    "description": "Clothing Stores",
    "phone": "(850) 862-0058",
    "address": "637 Beal Pkwy NW Ste D  Fort Walton Beach, FL 32548",
    "location": "Okaloosa"
  },
  {
    "name": "Top Fashions",
    "description": "Clothing Stores",
    "phone": "(850) 362-7677",
    "address": "300 Mary Esther Blvd Ste 78  Mary Esther, FL 32569",
    "location": "Okaloosa"
  },
  {
    "name": "NikiLee Formal Wear",
    "description": "Clothing Stores",
    "phone": "(850) 586-4901",
    "address": "105 Camelia Dr  Fort Walton Beach, FL 32547",
    "location": "Okaloosa"
  },
  {
    "name": "Bridging the Gap",
    "description": "Clothing Stores",
    "phone": "(850) 659-3477",
    "address": "907 Mar Walt Dr Ste 2013  Fort Walton Beach, FL 32547",
    "location": "Okaloosa"
  },
  {
    "name": "Hot Topic",
    "description": "Clothing Stores",
    "phone": "(850) 244-3810",
    "address": "300 Mary Esther Blvd Ste 5j  Mary Esther, FL 32569",
    "location": "Okaloosa"
  },
  {
    "name": "Ralph Lauren",
    "description": "Clothing Stores",
    "phone": "(850) 650-5100",
    "address": "10562 US Highway 98 W  Miramar Beach, FL 32550",
    "location": "Okaloosa"
  },
  {
    "name": "Oceana Blue",
    "description": "Clothing Stores",
    "phone": "(850) 622-0106",
    "address": "56 Spires Ln Unit 17A  Santa Rosa Beach, FL 32459",
    "location": "Okaloosa"
  },
  {
    "name": "JCPenney",
    "description": "Clothing Stores",
    "phone": "(850) 244-6505",
    "address": "300 Mary Esther Blvd  Mary Esther, FL 32569",
    "location": "Okaloosa"
  },
  {
    "name": "Bealls",
    "description": "Clothing Stores",
    "phone": "(850) 243-1667",
    "address": "419 Mary Esther Cut Off NW Ofc NW  Fort Walton Beach, FL 32548",
    "location": "Okaloosa"
  },
  {
    "name": "Apparel Expressions",
    "description": "Clothing Stores",
    "phone": "(850) 314-0100",
    "address": "209 Lang Rd  Fort Walton Beach, FL 32547",
    "location": "Okaloosa"
  },
  {
    "name": "Journeys",
    "description": "Clothing Stores",
    "phone": "(850) 243-2595",
    "address": "300 Mary Esther Blvd  Mary Esther, FL 32569",
    "location": "Okaloosa"
  },
  {
    "name": "Shoe Show",
    "description": "Clothing Stores",
    "phone": "(850) 244-3837",
    "address": "300 Mary Esther Blvd  Mary Esther, FL 32569",
    "location": "Okaloosa"
  },
  {
    "name": "Dragon Sports",
    "description": "Clothing Stores",
    "phone": "(850) 863-8612",
    "address": "229 Racetrack Rd NW  Fort Walton Beach, FL 32547",
    "location": "Okaloosa"
  },
  {
    "name": "Avenue",
    "description": "Clothing Stores",
    "phone": "(850) 243-0773",
    "address": "300 Mary Esther Blvd  Mary Esther, FL 32569",
    "location": "Okaloosa"
  },
  {
    "name": "Maurices",
    "description": "Clothing Stores",
    "phone": "(850) 581-0111",
    "address": "300 Mary Esther Blvd  Mary Esther, FL 32569",
    "location": "Okaloosa"
  },
  {
    "name": "Forever 21",
    "description": "Clothing Stores",
    "phone": "(850) 226-8022",
    "address": "364 Echo Cir  Fort Walton Beach, FL 32548",
    "location": "Okaloosa"
  },
  {
    "name": "Justice",
    "description": "Clothing Stores",
    "phone": "(850) 244-6300",
    "address": "300 Mary Esther Blvd  Mary Esther, FL 32569",
    "location": "Okaloosa"
  },
  {
    "name": "SEPHORA at Kohl's",
    "description": "Clothing Stores",
    "phone": "(850) 315-6006",
    "address": "800 Beal Pkwy N  Ft Walton Bch, FL 32547",
    "location": "Okaloosa"
  },
  {
    "name": "Kenneth Cole",
    "description": "Clothing Stores",
    "phone": "(850) 654-8789",
    "address": "10562 US Highway 98 W  Miramar Beach, FL 32550",
    "location": "Okaloosa"
  },
  {
    "name": "Sears",
    "description": "Clothing Stores",
    "phone": "(847) 286-6213",
    "address": "300 Mary Esther Blvd  Mary Esther, FL 32569",
    "location": "Okaloosa"
  },
  {
    "name": "Dillard's",
    "description": "Department Stores",
    "phone": "(850) 244-7111",
    "address": "300 Mary Esther Blvd Ste 119  Mary Esther, FL 32569",
    "location": "Okaloosa"
  },
  {
    "name": "Simply Elegant Bridal",
    "description": "Bridal Shops",
    "phone": "(850) 862-3334",
    "address": "14 Racetrack Rd NE  Fort Walton Beach, FL 32547",
    "location": "Okaloosa"
  },
  {
    "name": "Belk",
    "description": "Department Stores",
    "phone": "(850) 833-7258",
    "address": "300 Mary Esther Blvd  Mary Esther, FL 32569",
    "location": "Okaloosa"
  },
  {
    "name": "Foot Locker",
    "description": "Shoe Stores",
    "phone": "(850) 243-4117",
    "address": "300 Mary Esther Blvd Ste 51  Mary Esther, FL 32569",
    "location": "Okaloosa"
  },
  {
    "name": "Target",
    "description": "General Merchandise",
    "phone": "(850) 243-4188",
    "address": "250 E Miracle Strip Pkwy  Mary Esther, FL 32569",
    "location": "Okaloosa"
  },
  {
    "name": "B & K Sports Etc",
    "description": "Sportswear",
    "phone": "(850) 244-5051",
    "address": "722D Beal Pkwy NW  Fort Walton Beach, FL 32547",
    "location": "Okaloosa"
  },
  {
    "name": "Run With It Inc",
    "description": "Sporting Goods",
    "phone": "(850) 243-1007",
    "address": "21 Racetrack Rd NE, FORT WALTON BEACH  Fort Walton Beach, FL 32547",
    "location": "Okaloosa"
  },
  {
    "name": "Edwin Watts Golf",
    "description": "Golf Equipment & Supplies",
    "phone": "(850) 244-2066",
    "address": "20 Hill Ave NW  Fort Walton Beach, FL 32548",
    "location": "Okaloosa"
  },
  {
    "name": "Boca Boutique & Galeri",
    "description": "Boutique Items",
    "phone": "(850) 654-8810",
    "address": "12889 US Highway 98 W  Miramar Beach, FL 32550",
    "location": "Okaloosa"
  },
  {
    "name": "geronimos post",
    "description": "Hobby & Model Shops",
    "phone": "(850) 217-4108",
    "address": "689 Ferretti Ave  Fort Walton Beach, FL 32547",
    "location": "Okaloosa"
  },
  {
    "name": "White Sands Bowling Center",
    "description": "Bowling",
    "phone": "(850) 863-2193",
    "address": "653 Beal Pkwy NW  Fort Walton Beach, FL 32547",
    "location": "Okaloosa"
  },
  {
    "name": "Lids",
    "description": "Hat Shops",
    "phone": "(850) 664-6995",
    "address": "300 Mary Esther Blvd  Mary Esther, FL 32569",
    "location": "Okaloosa"
  },
  {
    "name": "2 Aunthentic",
    "description": "Department Stores",
    "phone": "(850) 829-0815",
    "address": "97 Lang Rd  Fort Walton Beach, FL 32547",
    "location": "Okaloosa"
  },
  {
    "name": "CSM Supply",
    "description": "General Merchandise",
    "phone": "(850) 315-1982",
    "address": "817 Pinedale Rd  Fort Walton Beach, FL 32547",
    "location": "Okaloosa"
  },
  {
    "name": "Walmart Supercenter",
    "description": "General Merchandise",
    "phone": "(850) 862-0700",
    "address": "748 Beal Pkwy N  Fort Walton Beach, FL 32547",
    "location": "Okaloosa"
  },
  {
    "name": "7th SFG Mini Mall MCSS",
    "description": "Department Stores",
    "phone": "(850) 279-3369",
    "address": "77 Special Forces Way  Fort Walton Beach, FL 32547",
    "location": "Okaloosa"
  },
  {
    "name": "Body Shop",
    "description": "Women's Clothing",
    "phone": "(850) 243-0225",
    "address": "300 Mary Esther Blvd  Mary Esther, FL 32569",
    "location": "Okaloosa"
  },
  {
    "name": "Victoria's Secret",
    "description": "Lingerie",
    "phone": "(850) 581-0161",
    "address": "300 Mary Esther Blvd  Mary Esther, FL 32569",
    "location": "Okaloosa"
  },
  {
    "name": "Bon Worth Inc",
    "description": "Women's Clothing",
    "phone": "(850) 244-9569",
    "address": "300 Mary Esther Blvd Ste 22  Mary Esther, FL 32569",
    "location": "Okaloosa"
  },
  {
    "name": "Body Central",
    "description": "Women's Clothing",
    "phone": "(850) 243-0225",
    "address": "300 Mary Esther Blvd  Mary Esther, FL 32569",
    "location": "Okaloosa"
  },
  {
    "name": "Hermosa Bridal",
    "description": "Women's Clothing",
    "phone": "(800) 684-1289",
    "address": "217 Page Bacon Rd  Mary Esther, FL 32569",
    "location": "Okaloosa"
  },
  {
    "name": "Juicy Couture",
    "description": "Women's Clothing",
    "phone": "(850) 650-0332",
    "address": "10562 US Highway 98 W  Miramar Beach, FL 32550",
    "location": "Okaloosa"
  },
  {
    "name": "Del Sol",
    "description": "Clothing Stores",
    "phone": "(850) 650-3400",
    "address": "10 Harbor Blvd Unit 129  Destin, FL 32541",
    "location": "Okaloosa"
  },
  {
    "name": "Marco Destin Inc",
    "description": "Clothing Stores",
    "phone": "(850) 654-8946",
    "address": "1000 Highway 98 E  Destin, FL 32541",
    "location": "Okaloosa"
  },
  {
    "name": "High Performance Offshore",
    "description": "Clothing Stores",
    "phone": "(850) 650-0230",
    "address": "34 Harbor Blvd  Destin, FL 32541",
    "location": "Okaloosa"
  },
  {
    "name": "Military Clothing Sales",
    "description": "Clothing Stores",
    "phone": "(850) 884-7395",
    "address": "112 Howie Walters Rd  Hurlburt Field, FL 32544",
    "location": "Okaloosa"
  },
  {
    "name": "White House | Black Market",
    "description": "Clothing Stores",
    "phone": "(850) 837-1392",
    "address": "4363 Legendary Drive D104  Destin, FL 32541",
    "location": "Okaloosa"
  },
  {
    "name": "U.S. Patriot",
    "description": "Clothing Stores",
    "phone": "(850) 812-4132",
    "address": "112 Howie Walters Rd  Hurlburt Field, FL 32544",
    "location": "Okaloosa"
  },
  {
    "name": "Wigs By Cheyenne",
    "description": "Clothing Stores",
    "phone": "(850) 650-3342",
    "address": "14071 Emerald Coast Pkwy  Destin, FL 32541",
    "location": "Okaloosa"
  },
  {
    "name": "Life Is Good",
    "description": "Clothing Stores",
    "phone": "(850) 269-0700",
    "address": "34 Harbor Blvd  Destin, FL 32541",
    "location": "Okaloosa"
  },
  {
    "name": "Teresa's Fashionista",
    "description": "Clothing Stores",
    "phone": "(850) 299-4233",
    "address": "1992 Lewis Turner Blvd Ste 1067  Fort Walton Beach, FL 32547",
    "location": "Okaloosa"
  },
  {
    "name": "Skatersocks",
    "description": "Clothing Stores",
    "phone": "(850) 424-6764",
    "address": "516 Mountain Dr  Destin, FL 32541",
    "location": "Okaloosa"
  },
  {
    "name": "Sassy Lady Apparell",
    "description": "Clothing Stores",
    "phone": "(850) 837-1661",
    "address": "981 Highway 98 E Ste 5  Destin, FL 32541",
    "location": "Okaloosa"
  },
  {
    "name": "Patriot Outfitters",
    "description": "Clothing Stores",
    "phone": "(850) 226-4790",
    "address": "437 Tully St  Hurlburt Field, FL 32544",
    "location": "Okaloosa"
  },
  {
    "name": "Actionwear USA",
    "description": "Clothing Stores",
    "phone": "(800) 458-8701",
    "address": "206 Stokes Ave NW Unit 1A  Fort Walton Beach, FL 32548",
    "location": "Okaloosa"
  },
  {
    "name": "Bealls Department Store",
    "description": "Department Stores",
    "phone": "(850) 650-2304",
    "address": "15003 Emerald Coast Pkwy  Destin, FL 32541",
    "location": "Okaloosa"
  },
  {
    "name": "Finish Line",
    "description": "Shoe Stores",
    "phone": "(317) 899-1022",
    "address": "1310 Lewis Turner Blvd  Fort Walton Beach, FL 32547",
    "location": "Okaloosa"
  },
  {
    "name": "Alvin's Island Dept Stores",
    "description": "Department Stores",
    "phone": "(850) 837-5178",
    "address": "1073 Highway 98 E  Destin, FL 32541",
    "location": "Okaloosa"
  },
  {
    "name": "Goal Soccer Shop",
    "description": "Sportswear",
    "phone": "(850) 269-1157",
    "address": "127 Harbor Blvd Ste 5A  Destin, FL 32541",
    "location": "Okaloosa"
  },
  {
    "name": "Mojo Sports Wear",
    "description": "Sportswear",
    "phone": "(850) 837-0281",
    "address": "981 Highway 98 E  Destin, FL 32541",
    "location": "Okaloosa"
  },
  {
    "name": "Life Is Good Destin",
    "description": "Department Stores",
    "phone": "(850) 269-0700",
    "address": "34 Harbor Walk Blvd  Destin, FL 32541",
    "location": "Okaloosa"
  },
  {
    "name": "Proffitt Pr",
    "description": "Department Stores",
    "phone": "(850) 654-4040",
    "address": "1234 Airport Rd  Destin, FL 32541",
    "location": "Okaloosa"
  },
  {
    "name": "Boca Boutique & Gallery",
    "description": "Boutique Items",
    "phone": "(850) 837-0079",
    "address": "37B Harbor Blvd  Destin, FL 32541",
    "location": "Okaloosa"
  },
  {
    "name": "Unique Recordings",
    "description": "Women's Fashion Accessories",
    "phone": "(850) 424-4705",
    "address": "12 Commerce Dr  Destin, FL 32541",
    "location": "Okaloosa"
  },
  {
    "name": "Highlands & Islands Travel Llc",
    "description": "Travel Agencies",
    "phone": "(850) 654-3177",
    "address": "602 First Ave  Destin, FL 32541",
    "location": "Okaloosa"
  },
  {
    "name": "Ball Jim Inc",
    "description": "Women's Clothing",
    "phone": "(850) 837-7440",
    "address": "922 Highway 98 E  Destin, FL 32541",
    "location": "Okaloosa"
  },
  {
    "name": "Glamour Amour",
    "description": "Women's Clothing",
    "phone": "(850) 279-1296",
    "address": "PO Box 5043  Destin, FL 32540",
    "location": "Okaloosa"
  },
  {
    "name": "Madison, Ella",
    "description": "Women's Clothing",
    "phone": "(850) 460-2259",
    "address": "4012 Drifting Sand Trl  Destin, FL 32541",
    "location": "Okaloosa"
  },
  {
    "name": "Hollister",
    "description": "Clothing Stores",
    "phone": "(850) 650-0946",
    "address": "4112 Legendary Dr  Destin, FL 32541",
    "location": "Okaloosa"
  },
  {
    "name": "Original Penguin",
    "description": "Clothing Stores",
    "phone": "(850) 424-6881",
    "address": "4300 Legendary Dr  Destin, FL 32541",
    "location": "Okaloosa"
  },
  {
    "name": "Express - Closed",
    "description": "Clothing Stores",
    "phone": "(850) 269-1079",
    "address": "4126 Legendary Dr  Destin, FL 32541",
    "location": "Okaloosa"
  },
  {
    "name": "Paradise Found of Panama City",
    "description": "Clothing Stores",
    "phone": "(850) 654-4555",
    "address": "4331 Legendary Dr  Destin, FL 32541",
    "location": "Okaloosa"
  },
  {
    "name": "Stein Mart",
    "description": "Clothing Stores",
    "phone": "(850) 269-0110",
    "address": "4433 Commons Dr E  Destin, FL 32541",
    "location": "Okaloosa"
  },
  {
    "name": "American Eagle & Aerie",
    "description": "Clothing Stores",
    "phone": "(850) 269-1513",
    "address": "4326 Legendary Dr Ste 101  Destin, FL 32541",
    "location": "Okaloosa"
  },
  {
    "name": "Buckle",
    "description": "Clothing Stores",
    "phone": "(850) 269-2684",
    "address": "4108 Legendary Dr  Destin, FL 32541",
    "location": "Okaloosa"
  },
  {
    "name": "Abercrombie & Fitch",
    "description": "Clothing Stores",
    "phone": "(850) 654-2018",
    "address": "4332 Legendary Dr  Destin, FL 32541",
    "location": "Okaloosa"
  },
  {
    "name": "Closet Solutions Florida",
    "description": "Clothing Stores",
    "phone": "(850) 714-3851",
    "address": "12870 Us Highway 98 W  Miramar Beach, FL 32550",
    "location": "Okaloosa"
  },
  {
    "name": "Gap",
    "description": "Clothing Stores",
    "phone": "(850) 837-5565",
    "address": "4439 Commons Dr E  Destin, FL 32541",
    "location": "Okaloosa"
  },
  {
    "name": "H&M",
    "description": "Clothing Stores",
    "phone": "(850) 650-2163",
    "address": "4261 Legendary Dr  Destin, FL 32541",
    "location": "Okaloosa"
  },
  {
    "name": "LOFT Stores",
    "description": "Clothing Stores",
    "phone": "(850) 650-2979",
    "address": "300 Danny Wuerfell Way  Destin, FL 32541",
    "location": "Okaloosa"
  },
  {
    "name": "Queen Alice Handmade and Gift Shop",
    "description": "Clothing Stores",
    "phone": "(585) 703-9433",
    "address": "150 S John Sims Pkwy  Valparaiso, FL 32580",
    "location": "Okaloosa"
  },
  {
    "name": "Dress Up",
    "description": "Clothing Stores",
    "phone": "(850) 353-2908",
    "address": "4121 Legendary Dr  Destin, FL 32541",
    "location": "Okaloosa"
  },
  {
    "name": "Lizard Thicket",
    "description": "Clothing Stores",
    "phone": "(850) 460-7384",
    "address": "4131 Legendary Dr  Destin, FL 32541",
    "location": "Okaloosa"
  },
  {
    "name": "Talbots Petities",
    "description": "Clothing Stores",
    "phone": "(850) 650-7839",
    "address": "4300 Legendary Dr  Destin, FL 32541",
    "location": "Okaloosa"
  },
  {
    "name": "Southern Trading Company",
    "description": "Clothing Stores",
    "phone": "(850) 389-8099",
    "address": "599 John Sims Pkwy W  Niceville, FL 32578",
    "location": "Okaloosa"
  },
  {
    "name": "Kiki Risa",
    "description": "Clothing Stores",
    "phone": "(850) 650-0554",
    "address": "36236 Emerald Coast Pkwy Ste E  Destin, FL 32541",
    "location": "Okaloosa"
  },
  {
    "name": "Beadedbymamamia.Com",
    "description": "Clothing Stores",
    "phone": "(850) 374-1453",
    "address": "48 Hampton Cir  Niceville, FL 32578",
    "location": "Okaloosa"
  },
  {
    "name": "Eagles Nest Sports & Apparel",
    "description": "Clothing Stores",
    "phone": "(850) 279-4775",
    "address": "1534 John Sims Pkwy E  Niceville, FL 32578",
    "location": "Okaloosa"
  },
  {
    "name": "Jockey",
    "description": "Clothing Stores",
    "phone": "(850) 650-2909",
    "address": "105062 Emerald Coast Pkwy  Destin, FL 32541",
    "location": "Okaloosa"
  },
  {
    "name": "Break the Cycle",
    "description": "Clothing Stores",
    "phone": "(850) 733-6601",
    "address": "413 Mulcahy Cir  Niceville, FL 32578",
    "location": "Okaloosa"
  },
  {
    "name": "Shabby Little Princess",
    "description": "Clothing Stores",
    "phone": "(850) 650-3850",
    "address": "4567 Woodwind Dr  Destin, FL 32541",
    "location": "Okaloosa"
  },
  {
    "name": "Jim Ball Inc",
    "description": "Clothing Stores",
    "phone": "(850) 837-1272",
    "address": "4328 Legendary Dr  Destin, FL 32541",
    "location": "Okaloosa"
  },
  {
    "name": "Luxe Apothetique",
    "description": "Clothing Stores",
    "phone": "(850) 650-6666",
    "address": "4135 Legendary Dr  Destin, FL 32541",
    "location": "Okaloosa"
  },
  {
    "name": "Today's Boutique",
    "description": "Clothing Stores",
    "phone": "(850) 837-5565",
    "address": "4433 Commons Dr E Unit E103  Destin, FL 32541",
    "location": "Okaloosa"
  },
  {
    "name": "Cache",
    "description": "Clothing Stores",
    "phone": "(850) 269-1364",
    "address": "4127 Legendary Dr  Destin, FL 32541",
    "location": "Okaloosa"
  },
  {
    "name": "Forever 21 - Closed",
    "description": "Clothing Stores",
    "phone": "(850) 714-5098",
    "address": "4224 Legendary Dr # F-94  Destin, FL 32541",
    "location": "Okaloosa"
  },
  {
    "name": "Lucky Brand",
    "description": "Clothing Stores",
    "phone": "(850) 654-2005",
    "address": "4123 Legendary Dr Spc F-109  Destin, FL 32541",
    "location": "Okaloosa"
  },
  {
    "name": "Marshalls",
    "description": "Clothing Stores",
    "phone": "(850) 650-6782",
    "address": "4477 Commons Dr W  Destin, FL 32541",
    "location": "Okaloosa"
  },
  {
    "name": "Torrid",
    "description": "Clothing Stores",
    "phone": "(850) 502-2074",
    "address": "4345 Legendary Dr  Destin, FL 32541",
    "location": "Okaloosa"
  },
  {
    "name": "Chico's",
    "description": "Clothing Stores",
    "phone": "(850) 654-0505",
    "address": "4367 Legendary Dr  Destin, FL 32541",
    "location": "Okaloosa"
  },
  {
    "name": "Avas Attic Consignment Boutique",
    "description": "Clothing Stores",
    "phone": "(850) 424-6767",
    "address": "12889 Us Highway 98 W Ste 103b  Miramar Beach, FL 32550",
    "location": "Okaloosa"
  },
  {
    "name": "Zumiez",
    "description": "Clothing Stores",
    "phone": "(850) 650-2419",
    "address": "4231 Legendary Dr Ste G102  Destin, FL 32541",
    "location": "Okaloosa"
  },
  {
    "name": "LexyLeah Athletic Apparel",
    "description": "Clothing Stores",
    "phone": "(850) 424-4135",
    "address": "4489 Commons Dr W  Destin, FL 32541",
    "location": "Okaloosa"
  },
  {
    "name": "Fresh Produce",
    "description": "Clothing Stores",
    "phone": "(850) 837-0232",
    "address": "4145 Legendary Dr  Destin, FL 32541",
    "location": "Okaloosa"
  },
  {
    "name": "Blu Spero",
    "description": "Clothing Stores",
    "phone": "(850) 424-6199",
    "address": "4300 Legendary Dr  Destin, FL 32541",
    "location": "Okaloosa"
  },
  {
    "name": "Lotus Boutique",
    "description": "Clothing Stores",
    "phone": "(850) 460-7881",
    "address": "4317 Legendary Dr  Destin, FL 32541",
    "location": "Okaloosa"
  },
  {
    "name": "Coastal Outfitters",
    "description": "Clothing Stores",
    "phone": "(850) 269-0711",
    "address": "4326 Legendary Dr  Destin, FL 32541",
    "location": "Okaloosa"
  },
  {
    "name": "Hugs & Hissyfits Destin Cmmns",
    "description": "Clothing Stores",
    "phone": "(850) 650-9509",
    "address": "4335 Legendary Dr  Destin, FL 32541",
    "location": "Okaloosa"
  },
  {
    "name": "Loft",
    "description": "Clothing Stores",
    "phone": "(850) 650-2979",
    "address": "4130 Legendary Dr  Destin, FL 32541",
    "location": "Okaloosa"
  },
  {
    "name": "DressBarn",
    "description": "Women's Clothing",
    "phone": "(850) 650-2283",
    "address": "4429 Commons Dr E Suite D-1  Destin, FL 32541",
    "location": "Okaloosa"
  },
  {
    "name": "Frost Aaron",
    "description": "Department Stores",
    "phone": "(850) 279-3830",
    "address": "200 Kelly Rd  Niceville, FL 32578",
    "location": "Okaloosa"
  },
  {
    "name": "JoS. A. Bank",
    "description": "Men's Clothing",
    "phone": "(850) 650-6850",
    "address": "4106 Legendary Dr Ste A102  Destin, FL 32541",
    "location": "Okaloosa"
  },
  {
    "name": "The Finish Line",
    "description": "Shoe Stores",
    "phone": "(850) 650-6688",
    "address": "4321 Legendary Dr  Destin, FL 32541",
    "location": "Okaloosa"
  },
  {
    "name": "Annas Bridal and Formal",
    "description": "Bridal Shops",
    "phone": "(850) 729-8088",
    "address": "1135 John Sims Pkwy E  Niceville, FL 32578",
    "location": "Okaloosa"
  },
  {
    "name": "Crocs",
    "description": "Shoe Stores",
    "phone": "(850) 650-9600",
    "address": "4341 Legendary Dr Ste D111  Destin, FL 32541",
    "location": "Okaloosa"
  },
  {
    "name": "Sears Hometown Stores",
    "description": "Department Stores",
    "phone": "(850) 678-9955",
    "address": "792 John Sims Pkwy E  Niceville, FL 32578",
    "location": "Okaloosa"
  },
  {
    "name": "Kiss the Sky Boutique",
    "description": "Boutique Items",
    "phone": "(850) 353-2048",
    "address": "4489 Commons Dr W  Destin, FL 32541",
    "location": "Okaloosa"
  },
  {
    "name": "Men's Wearhouse",
    "description": "Men's Clothing",
    "phone": "(850) 837-7447",
    "address": "4424 Commons Dr E  Destin, FL 32541",
    "location": "Okaloosa"
  },
  {
    "name": "Victoria's Secret & PINK by Victoria's Secret",
    "description": "Lingerie",
    "phone": "(850) 650-7390",
    "address": "4225 Legendary Dr  Destin, FL 32541",
    "location": "Okaloosa"
  },
  {
    "name": "Soma Intimates",
    "description": "Lingerie",
    "phone": "(850) 654-7418",
    "address": "4365 Legendary Dr  Destin, FL 32541",
    "location": "Okaloosa"
  },
  {
    "name": "Charming Charlie",
    "description": "Women's Clothing",
    "phone": "(850) 269-0211",
    "address": "4241 Legendary Dr  Destin, FL 32541",
    "location": "Okaloosa"
  },
  {
    "name": "Talbots",
    "description": "Women's Clothing",
    "phone": "(850) 650-7839",
    "address": "4145 Legendary Dr  Destin, FL 32541",
    "location": "Okaloosa"
  },
  {
    "name": "Beyond 214",
    "description": "Department Stores",
    "phone": "(850) 837-1334",
    "address": "34940 Emerald Coast Pkwy  Destin, FL 32541",
    "location": "Okaloosa"
  },
  {
    "name": "Mojo's Sportswear",
    "description": "Sportswear",
    "phone": "(850) 837-0281",
    "address": "4304 Legendary Dr  Destin, FL 32541",
    "location": "Okaloosa"
  },
  {
    "name": "Wholesale House",
    "description": "Department Stores",
    "phone": "(850) 729-2900",
    "address": "599 John Sims Pkwy W  Niceville, FL 32578",
    "location": "Okaloosa"
  },
  {
    "name": "PARA Bellum Products Inc",
    "description": "Department Stores",
    "phone": "(850) 279-4602",
    "address": "320 Bayshore Dr  Niceville, FL 32578",
    "location": "Okaloosa"
  },
  {
    "name": "Smokin' Vapor LLC",
    "description": "Cigar, Cigarette & Tobacco Dealers",
    "phone": "(850) 837-2116",
    "address": "36150 Emerald Coast Pkwy  Destin, FL 32541",
    "location": "Okaloosa"
  },
  {
    "name": "Born Country",
    "description": "Department Stores",
    "phone": "(850) 389-8660",
    "address": "4612 E Highway 20  Niceville, FL 32578",
    "location": "Okaloosa"
  },
  {
    "name": "Beach & Surf Department Store",
    "description": "Department Stores",
    "phone": "(850) 424-3612",
    "address": "1688 Scenic Gulf Dr  Miramar Beach, FL 32550",
    "location": "Okaloosa"
  },
  {
    "name": "CoCo LaRue's Boutique",
    "description": "Boutique Items",
    "phone": "(850) 687-3634",
    "address": "34880 Emerald Coast Pkwy  Destin, FL 32541",
    "location": "Okaloosa"
  },
  {
    "name": "A M Cafe Accessories",
    "description": "Women's Fashion Accessories",
    "phone": "(850) 269-2949",
    "address": "4114 Legendary Dr  Destin, FL 32541",
    "location": "Okaloosa"
  },
  {
    "name": "bebe",
    "description": "Women's Clothing",
    "phone": "(850) 650-5064",
    "address": "4135 Legendary Dr  Destin, FL 32541",
    "location": "Okaloosa"
  },
  {
    "name": "Ann Taylor",
    "description": "Women's Clothing",
    "phone": "(850) 650-2979",
    "address": "4130 Legendary Dr  Destin, FL 32541",
    "location": "Okaloosa"
  },
  {
    "name": "Francesca's",
    "description": "Women's Clothing",
    "phone": "(850) 353-7288",
    "address": "4138 Legendary Dr  Destin, FL 32541",
    "location": "Okaloosa"
  },
  {
    "name": "Everything But Water",
    "description": "Swimwear & Accessories",
    "phone": "(850) 837-3558",
    "address": "4271 Legendary Dr  Destin, FL 32541",
    "location": "Okaloosa"
  },
  {
    "name": "Soma",
    "description": "Lingerie",
    "phone": "(850) 654-7418",
    "address": "4300 Legendary Dr  Destin, FL 32541",
    "location": "Okaloosa"
  },
  {
    "name": "Destin Stars",
    "description": "Women's Clothing",
    "phone": "(850) 424-6686",
    "address": "4316 Legendary Dr  Destin, FL 32541",
    "location": "Okaloosa"
  },
  {
    "name": "Sof Action Inc",
    "description": "Men's Clothing",
    "phone": "(850) 897-5464",
    "address": "243 Windward Way  Niceville, FL 32578",
    "location": "Okaloosa"
  },
  {
    "name": "Norma's",
    "description": "Women's Clothing",
    "phone": "(850) 654-3898",
    "address": "36150 Emerald Coast Pkwy  Destin, FL 32541",
    "location": "Okaloosa"
  },
  {
    "name": "The Dressing Room Boutique",
    "description": "Women's Clothing",
    "phone": "(850) 218-8776",
    "address": "4495 Furling Ln Ste 160  Destin, FL 32541",
    "location": "Okaloosa"
  },
  {
    "name": "Destin Threads",
    "description": "Women's Clothing",
    "phone": "(850) 837-8750",
    "address": "36236 Emerald Coast Pkwy  Destin, FL 32541",
    "location": "Okaloosa"
  },
  {
    "name": "Teena Haven",
    "description": "Women's Clothing",
    "phone": "(850) 269-0781",
    "address": "36254 Emerald Coast Pkwy  Destin, FL 32541",
    "location": "Okaloosa"
  },
  {
    "name": "Teena Haven A Ladies Boutique",
    "description": "Women's Clothing",
    "phone": "(850) 269-0781",
    "address": "12555 Us Highway 98 W Ste C  Miramar Beach, FL 32550",
    "location": "Okaloosa"
  },
  {
    "name": "Sporty Lady",
    "description": "Women's Clothing",
    "phone": "(850) 837-6763",
    "address": "4427 Commons Dr E  Destin, FL 32541",
    "location": "Okaloosa"
  },
  {
    "name": "Banana Republic",
    "description": "Clothing Stores",
    "phone": "(850) 650-0671",
    "address": "10562 Us Highway 98 W  Miramar Beach, FL 32550",
    "location": "Okaloosa"
  },
  {
    "name": "Guess",
    "description": "Clothing Stores",
    "phone": "(850) 654-8530",
    "address": "10406 Us Highway 98 W  Miramar Beach, FL 32550",
    "location": "Okaloosa"
  },
  {
    "name": "Lacoste",
    "description": "Clothing Stores",
    "phone": "(850) 654-0804",
    "address": "10562 Us Highway 98 W Ste 106  Destin, FL 32550",
    "location": "Okaloosa"
  },
  {
    "name": "Pelagic Baytowne",
    "description": "Clothing Stores",
    "phone": "(850) 424-5052",
    "address": "131 Fishermans Cv  Miramar Beach, FL 32550",
    "location": "Okaloosa"
  },
  {
    "name": "American Eagle",
    "description": "Clothing Stores",
    "phone": "(850) 269-1106",
    "address": "10406 Us Highway 98 W Ste 33  Destin, FL 32550",
    "location": "Okaloosa"
  },
  {
    "name": "Eddie Bauer Outlet",
    "description": "Clothing Stores",
    "phone": "(850) 650-9190",
    "address": "10562 Us Highway 98 W Spc 10-14  Destin, FL 32550",
    "location": "Okaloosa"
  },
  {
    "name": "Nautica",
    "description": "Clothing Stores",
    "phone": "(850) 654-9475",
    "address": "10406 Us Highway 98 W Ste 51  Destin, FL 32550",
    "location": "Okaloosa"
  },
  {
    "name": "J.Crew Factory",
    "description": "Clothing Stores",
    "phone": "(850) 654-5565",
    "address": "10406 Us Highway 98 W Ste 15  Destin, FL 32550",
    "location": "Okaloosa"
  },
  {
    "name": "Hanesbrands",
    "description": "Clothing Stores",
    "phone": "(850) 837-7050",
    "address": "10406 Us Highway 98 W Ste 85  Destin, FL 32550",
    "location": "Okaloosa"
  },
  {
    "name": "Orvis",
    "description": "Clothing Stores",
    "phone": "(850) 650-2174",
    "address": "625 Grand Blvd  Sandestin, FL 32550",
    "location": "Okaloosa"
  },
  {
    "name": "American Eagle Store",
    "description": "Clothing Stores",
    "phone": "(850) 269-1106",
    "address": "10406 Us Highway 98 W  Destin, FL 32550",
    "location": "Okaloosa"
  },
  {
    "name": "Tommy Bahama Restaurant, Bar & Store",
    "description": "Clothing Stores",
    "phone": "(850) 654-1743",
    "address": "525 Grand Blvd Ste P-101  Miramar Beach, FL 32550",
    "location": "Okaloosa"
  },
  {
    "name": "Vera Bradley Factory Outlet",
    "description": "Clothing Stores",
    "phone": "(850) 650-2190",
    "address": "10406 Us Highway 98 W Ste 68  Miramar Beach, FL 32550",
    "location": "Okaloosa"
  },
  {
    "name": "Hemline",
    "description": "Clothing Stores",
    "phone": "(850) 608-6032",
    "address": "500 Grand Blvd  Miramar Beach, FL 32550",
    "location": "Okaloosa"
  },
  {
    "name": "J. Crew",
    "description": "Clothing Stores",
    "phone": "(850) 654-5565",
    "address": "10562 Us Highway 98 W  Miramar Beach, FL 32550",
    "location": "Okaloosa"
  },
  {
    "name": "Vineyard Vines",
    "description": "Clothing Stores",
    "phone": "(850) 837-1199",
    "address": "440 Grand Blvd  Miramar Beach, FL 32550",
    "location": "Okaloosa"
  },
  {
    "name": "Billabong Destin",
    "description": "Clothing Stores",
    "phone": "(850) 424-3553",
    "address": "500 Grand Blvd Ste 102K  Sandestin, FL 32550",
    "location": "Okaloosa"
  },
  {
    "name": "Jones New York",
    "description": "Clothing Stores",
    "phone": "(850) 654-9700",
    "address": "10562 Us Highway 98 W  Miramar Beach, FL 32550",
    "location": "Okaloosa"
  },
  {
    "name": "Disney Store",
    "description": "Clothing Stores",
    "phone": "(850) 837-1647",
    "address": "10406 Us Highway 98 W  Destin, FL 32550",
    "location": "Okaloosa"
  },
  {
    "name": "Adrienne Vittadini",
    "description": "Clothing Stores",
    "phone": "(850) 650-8760",
    "address": "10562 Us Highway 98 W  Miramar Beach, FL 32550",
    "location": "Okaloosa"
  },
  {
    "name": "Jones Apparel",
    "description": "Clothing Stores",
    "phone": "(850) 654-9763",
    "address": "10406 US Highway 98 W  Miramar Beach, FL 32550",
    "location": "Okaloosa"
  },
  {
    "name": "Quiksilver",
    "description": "Clothing Stores",
    "phone": "(850) 269-1164",
    "address": "10406 Us Highway 98 W Ste 75  Miramar Beach, FL 32550",
    "location": "Okaloosa"
  },
  {
    "name": "Island Clothiers",
    "description": "Clothing Stores",
    "phone": "(850) 351-1804",
    "address": "9300 Us Highway 98 W  Miramar Beach, FL 32550",
    "location": "Okaloosa"
  },
  {
    "name": "Peter Millar",
    "description": "Clothing Stores",
    "phone": "(850) 837-2004",
    "address": "440 Grand Blvd  Miramar Beach, FL 32550",
    "location": "Okaloosa"
  },
  {
    "name": "Faherty Grand Blvd",
    "description": "Clothing Stores",
    "phone": "(850) 389-5040",
    "address": "495 Grand Blvd Ste 103J  Miramar Beach, FL 32550",
    "location": "Okaloosa"
  },
  {
    "name": "Chubbies",
    "description": "Clothing Stores",
    "phone": "(312) 982-1953",
    "address": "560 Grand Blvd  Miramar Beach, FL 32550",
    "location": "Okaloosa"
  },
  {
    "name": "Tommy Hilfiger",
    "description": "Clothing Stores",
    "phone": "(850) 650-2990",
    "address": "10746 Us Highway 98 W  Destin, FL 32550",
    "location": "Okaloosa"
  },
  {
    "name": "Calvin Klein",
    "description": "Clothing Stores",
    "phone": "(850) 650-4828",
    "address": "10562 Us Highway 98 W  Destin, FL 32550",
    "location": "Okaloosa"
  },
  {
    "name": "Cole Haan Outlet",
    "description": "Clothing Stores",
    "phone": "(850) 654-5754",
    "address": "10562 Us Highway 98 W Ste 110  Destin, FL 32550",
    "location": "Okaloosa"
  },
  {
    "name": "Brooks Brothers Factory Store",
    "description": "Clothing Stores",
    "phone": "(850) 654-4780",
    "address": "10562 Us Highway 98 W  Miramar Beach, FL 32550",
    "location": "Okaloosa"
  },
  {
    "name": "Surf Style 107: Surf, Swimwear, Sporting Goods in Destin",
    "description": "Clothing Stores",
    "phone": "(954) 924-9779",
    "address": "143 Scenic Gulf Dr  Destin, FL 32550",
    "location": "Okaloosa"
  },
  {
    "name": "Gap Factory",
    "description": "Clothing Stores",
    "phone": "(850) 650-2225",
    "address": "10676 US Highway 98 W  Miramar Beach, FL 32550",
    "location": "Okaloosa"
  },
  {
    "name": "COACH Outlet",
    "description": "Clothing Stores",
    "phone": "(850) 650-2884",
    "address": "10676 Us Highway 98 W Ste 129  Destin, FL 32550",
    "location": "Okaloosa"
  },
  {
    "name": "Brooks Brothers",
    "description": "Clothing Stores",
    "phone": "(850) 654-4780",
    "address": "10562 Us Highway 98 W Ste 108-109  Destin, FL 32550",
    "location": "Okaloosa"
  },
  {
    "name": "J.McLaughlin",
    "description": "Clothing Stores",
    "phone": "(850) 424-3110",
    "address": "495 Grand Blvd  Destin, FL 32550",
    "location": "Okaloosa"
  },
  {
    "name": "Tory Burch Outlet",
    "description": "Clothing Stores",
    "phone": "(850) 837-0126",
    "address": "10406 Us Highway 98 W Ste 68  Destin, FL 32550",
    "location": "Okaloosa"
  },
  {
    "name": "Lilly Pulitzer",
    "description": "Clothing Stores",
    "phone": "(850) 650-2011",
    "address": "440 Grand Blvd Ste 104  Miramar Beach, FL 32550",
    "location": "Okaloosa"
  },
  {
    "name": "Altar'd State Grand Boulevard",
    "description": "Clothing Stores",
    "phone": "(850) 424-6526",
    "address": "560 Grand Blvd Ste 105L  Miramar Beach, FL 32550",
    "location": "Okaloosa"
  },
  {
    "name": "Arula",
    "description": "Clothing Stores",
    "phone": "(850) 424-6526",
    "address": "560 Grand Blvd  Miramar Beach, FL 32550",
    "location": "Okaloosa"
  },
  {
    "name": "ECCO Shoe Store Outlet",
    "description": "Clothing Stores",
    "phone": "(850) 837-1744",
    "address": "10746 Us Highway 98 W  Destin, FL 32550",
    "location": "Okaloosa"
  },
  {
    "name": "The Children's Place",
    "description": "Clothing Stores",
    "phone": "(850) 654-7145",
    "address": "10676 Us Highway 98 W Ste 143  Destin, FL 32550",
    "location": "Okaloosa"
  },
  {
    "name": "Polo Ralph Lauren Factory Store",
    "description": "Clothing Stores",
    "phone": "(850) 650-5100",
    "address": "10562 Us Highway 98 W Ste 98  Destin, FL 32550",
    "location": "Okaloosa"
  },
  {
    "name": "Old Navy Outlet",
    "description": "Clothing Stores",
    "phone": "(850) 650-2041",
    "address": "10562 Us Highway 98 W  Miramar Beach, FL 32550",
    "location": "Okaloosa"
  },
  {
    "name": "Oshkosh B'Gosh",
    "description": "Clothing Stores",
    "phone": "(850) 654-8860",
    "address": "10406 Us Highway 98 W Ste 48  Miramar Beach, FL 32550",
    "location": "Okaloosa"
  },
  {
    "name": "LOFT Outlet",
    "description": "Clothing Stores",
    "phone": "(850) 269-0201",
    "address": "10406 Us Highway 98 W  Miramar Beach, FL 32550",
    "location": "Okaloosa"
  },
  {
    "name": "AS Revival Grand Boulevard",
    "description": "Clothing Stores",
    "phone": "(850) 424-6526",
    "address": "560 Grand Blvd Ste 105L  Miramar Beach, FL 32550",
    "location": "Okaloosa"
  },
  {
    "name": "Van Heusen",
    "description": "Clothing Stores",
    "phone": "(850) 650-2872",
    "address": "10746 Us Highway 98 W Ste 158  Miramar Beach, FL 32550",
    "location": "Okaloosa"
  },
  {
    "name": "Kasper",
    "description": "Clothing Stores",
    "phone": "(850) 654-9060",
    "address": "10746 Us Highway 98 W Ste 163  Miramar Beach, FL 32550",
    "location": "Okaloosa"
  },
  {
    "name": "Jny Factory Store",
    "description": "Clothing Stores",
    "phone": "(850) 654-9700",
    "address": "10406 Us Highway 98 W  Miramar Beach, FL 32550",
    "location": "Okaloosa"
  },
  {
    "name": "Izod",
    "description": "Clothing Stores",
    "phone": "(850) 269-0482",
    "address": "10746 Us Highway 98 W  Miramar Beach, FL 32550",
    "location": "Okaloosa"
  },
  {
    "name": "Solaris",
    "description": "Clothing Stores",
    "phone": "(850) 389-4474",
    "address": "10562 Us Highway 98 W Ste 115  Destin, FL 32550",
    "location": "Okaloosa"
  },
  {
    "name": "Oakley",
    "description": "Clothing Stores",
    "phone": "(850) 654-0540",
    "address": "10562 US Highway 98 W  Miramar Beach, FL 32550",
    "location": "Okaloosa"
  },
  {
    "name": "Levi's",
    "description": "Clothing Stores",
    "phone": "(850) 837-4698",
    "address": "10562 Us Highway 98 W Ste 121  Destin, FL 32550",
    "location": "Okaloosa"
  },
  {
    "name": "Dooney & Bourke",
    "description": "Clothing Stores",
    "phone": "(850) 650-5276",
    "address": "10562 Us Highway 98 W Ste 116  Miramar Beach, FL 32550",
    "location": "Okaloosa"
  },
  {
    "name": "Tullabee",
    "description": "Clothing Stores",
    "phone": "(850) 424-6526",
    "address": "560 Grand Blvd  Miramar Beach, FL 32550",
    "location": "Okaloosa"
  },
  {
    "name": "Saks Fifth Avenue",
    "description": "Department Stores",
    "phone": "(850) 650-3690",
    "address": "10406 Us Highway 98 W Suite 84a-g  Miramar Beach, FL 32550",
    "location": "Okaloosa"
  },
  {
    "name": "Rack Room Shoes",
    "description": "Shoe Stores",
    "phone": "(850) 269-3225",
    "address": "10406 Us Highway 98 W Ste 86A  Miramar Beach, FL 32550",
    "location": "Okaloosa"
  },
  {
    "name": "Kate Spade Outlet",
    "description": "Women's Clothing",
    "phone": "(850) 269-0274",
    "address": "10562 Us Highway 98 W Ste 104  Destin, FL 32550",
    "location": "Okaloosa"
  },
  {
    "name": "Motherhood Maternity Outlet",
    "description": "Maternity Clothes",
    "phone": "(850) 654-8771",
    "address": "10676 Us Highway 98 W Ste 138  Miramar Beach, FL 32550",
    "location": "Okaloosa"
  },
  {
    "name": "Vans",
    "description": "Shoe Stores",
    "phone": "(850) 650-0136",
    "address": "10746 Us Highway 98 W Ste 164A  Destin, FL 32550",
    "location": "Okaloosa"
  },
  {
    "name": "Nike - Destin",
    "description": "Shoe Stores",
    "phone": "(850) 650-0111",
    "address": "10746 US Highway 98 W  Miramar Beach, FL 32550",
    "location": "Okaloosa"
  },
  {
    "name": "The PUMA Store",
    "description": "Shoe Stores",
    "phone": "(850) 213-6250",
    "address": "Silver Sands Premium Outlets10746 Emerald Coast Pkwy West  Destin, FL 32550",
    "location": "Okaloosa"
  },
  {
    "name": "Adidas Outlet Store",
    "description": "Outlet Stores",
    "phone": "(850) 269-1153",
    "address": "10562 Us Highway 98 W  Destin, FL 32550",
    "location": "Okaloosa"
  },
  {
    "name": "Michael Kors Outlet",
    "description": "Women's Clothing",
    "phone": "(850) 650-8444",
    "address": "10562 Us Highway 98 W Ste 114  Destin, FL 32550",
    "location": "Okaloosa"
  },
  {
    "name": "Anthropologie",
    "description": "Women's Clothing",
    "phone": "(850) 837-1223",
    "address": "440 Grand Blvd  Miramar Beach, FL 32550",
    "location": "Okaloosa"
  },
  {
    "name": "J. Jill",
    "description": "Women's Clothing",
    "phone": "(850) 650-0186",
    "address": "500 Grand Blvd  Miramar Beach, FL 32550",
    "location": "Okaloosa"
  },
  {
    "name": "Destination Maternity Outlet",
    "description": "Lingerie",
    "phone": "(850) 654-8771",
    "address": "10676 US Highway 98 W  Miramar Beach, FL 32550",
    "location": "Okaloosa"
  },
  {
    "name": "Motherhood Maternity",
    "description": "Maternity Clothes",
    "phone": "(850) 654-8771",
    "address": "10562 Us Highway 98 W  Miramar Beach, FL 32550",
    "location": "Okaloosa"
  },
  {
    "name": "Island Resort Wear",
    "description": "Sportswear",
    "phone": "(850) 650-9070",
    "address": "43 N Geronimo St  Miramar Beach, FL 32550",
    "location": "Okaloosa"
  },
  {
    "name": "Marco-Destin Inc 752",
    "description": "Sportswear",
    "phone": "(850) 650-0412",
    "address": "632 Scenic Gulf Dr  Miramar Beach, FL 32550",
    "location": "Okaloosa"
  },
  {
    "name": "Columbia Sportswear",
    "description": "Sportswear",
    "phone": "(850) 650-2196",
    "address": "10746 Us Highway 98 W Ste 154  Miramar Beach, FL 32550",
    "location": "Okaloosa"
  },
  {
    "name": "ASICS Outlet",
    "description": "Shoe Stores",
    "phone": "(850) 269-1036",
    "address": "10676 Us Highway 98 W  Miramar Beach, FL 32550",
    "location": "Okaloosa"
  },
  {
    "name": "SKECHERS Factory Outlet",
    "description": "Shoe Stores",
    "phone": "(850) 650-0387",
    "address": "10676 Us Highway 98 W  Destin, FL 32550",
    "location": "Okaloosa"
  },
  {
    "name": "Under Armour Factory House",
    "description": "Sportswear",
    "phone": "(850) 351-0120",
    "address": "10676 Us Highway 98 W Ste 132  Destin, FL 32550",
    "location": "Okaloosa"
  },
  {
    "name": "Reebok",
    "description": "Shoe Stores",
    "phone": "(850) 654-5470",
    "address": "10676 Us Highway 98 W Ste 134  Destin, FL 32550",
    "location": "Okaloosa"
  },
  {
    "name": "Skechers",
    "description": "Shoe Stores",
    "phone": "(850) 650-0387",
    "address": "10562 Us Highway 98 W  Miramar Beach, FL 32550",
    "location": "Okaloosa"
  },
  {
    "name": "Nike",
    "description": "Sportswear",
    "phone": "(850) 650-0111",
    "address": "10562 Us Highway 98 W  Miramar Beach, FL 32550",
    "location": "Okaloosa"
  },
  {
    "name": "Columbia Sportswear Destin",
    "description": "Sportswear",
    "phone": "(850) 650-2196",
    "address": "10562 Us Highway 98 W  Miramar Beach, FL 32550",
    "location": "Okaloosa"
  },
  {
    "name": "Socks Galore",
    "description": "Department Stores",
    "phone": "(850) 654-9221",
    "address": "10406 US Highway 98 W  Miramar Beach, FL 32550",
    "location": "Okaloosa"
  },
  {
    "name": "Sandestin Clothing Company",
    "description": "Sportswear",
    "phone": "(850) 267-8700",
    "address": "104 Cannery Ln  Miramar Beach, FL 32550",
    "location": "Okaloosa"
  },
  {
    "name": "Trading Co",
    "description": "General Merchandise",
    "phone": "(850) 351-1806",
    "address": "9100 Baytowne Wharf Blvd  Destin, FL 32550",
    "location": "Okaloosa"
  },
  {
    "name": "Lululemon",
    "description": "Sportswear",
    "phone": "(850) 650-2143",
    "address": "495 Grand Blvd  Miramar Beach, FL 32550",
    "location": "Okaloosa"
  },
  {
    "name": "Johnston & Murphy",
    "description": "Shoe Stores",
    "phone": "(850) 654-4274",
    "address": "10746 Us Highway 98 W  Destin, FL 32550",
    "location": "Okaloosa"
  },
  {
    "name": "BCBGMAXAZRIA",
    "description": "Women's Clothing",
    "phone": "(850) 837-9380",
    "address": "10562 US Highway 98 W  Miramar Beach, FL 32550",
    "location": "Okaloosa"
  },
  {
    "name": "Dkny",
    "description": "Women's Clothing",
    "phone": "(850) 654-9120",
    "address": "10562 Us Highway 98 W Ste 99  Miramar Beach, FL 32550",
    "location": "Okaloosa"
  },
  {
    "name": "Armani Exchange (A/X)",
    "description": "Women's Clothing",
    "phone": "(850) 837-1128",
    "address": "10562 Us Highway 98 W  Miramar Beach, FL 32550",
    "location": "Okaloosa"
  },
  {
    "name": "Allen Edmonds",
    "description": "Men's Clothing Wholesalers & Manufacturers",
    "phone": "(850) 389-6297",
    "address": "10406 Us Highway 98 W Ste 67  Miramar Beach, FL 32550",
    "location": "Okaloosa"
  },
  {
    "name": "Wrens Village Boutique",
    "description": "Boutique Items",
    "phone": "(850) 424-7617",
    "address": "9375 Us Highway 98 W Ste 14  Miramar Beach, FL 32550",
    "location": "Okaloosa"
  },
  {
    "name": "Affinity Boutique",
    "description": "Women's Clothing",
    "phone": "(337) 290-3580",
    "address": "9375 Us Highway 98 W  Miramar Beach, FL 32550",
    "location": "Okaloosa"
  },
  {
    "name": "Jewel Toffier",
    "description": "Women's Clothing",
    "phone": "(850) 837-1526",
    "address": "9375 US Highway 98 W  Miramar Beach, FL 32550",
    "location": "Okaloosa"
  },
  {
    "name": "Rockwell Tharp",
    "description": "Women's Clothing",
    "phone": "(850) 837-1242",
    "address": "141 Fishermans Cv  Miramar Beach, FL 32550",
    "location": "Okaloosa"
  },
  {
    "name": "Village Mermaids Inc",
    "description": "Women's Clothing",
    "phone": "(850) 424-6301",
    "address": "107 Cannery Ln  Miramar Beach, FL 32550",
    "location": "Okaloosa"
  }
]