[
  {
    "name": "Rue 21",
    "description": "Clothing Stores",
    "phone": "(863) 824-0410",
    "address": "3421 Us Highway 441 S  Okeechobee, FL 34974",
    "location": "Okeechobee"
  },
  {
    "name": "The Outpost",
    "description": "Clothing Stores",
    "phone": "(863) 763-7255",
    "address": "313 SW Park St  Okeechobee, FL 34972",
    "location": "Okeechobee"
  },
  {
    "name": "Rugged Earth Outfitters",
    "description": "Clothing Stores",
    "phone": "(863) 484-7785",
    "address": "3421 Us Hwy 441  Okeechobee, FL 34974",
    "location": "Okeechobee"
  },
  {
    "name": "Barrel Life Apparel",
    "description": "Clothing Stores",
    "phone": "(772) 979-2653",
    "address": "39863 NW 19th Ave  Okeechobee, FL 34972",
    "location": "Okeechobee"
  },
  {
    "name": "Marshalls",
    "description": "Clothing Stores",
    "phone": "(863) 357-2980",
    "address": "3373 Us Highway 441 S  Okeechobee, FL 34974",
    "location": "Okeechobee"
  },
  {
    "name": "Bealls",
    "description": "Clothing Stores",
    "phone": "(863) 763-8282",
    "address": "3280 Us Highway 441 S  Okeechobee, FL 34974",
    "location": "Okeechobee"
  },
  {
    "name": "Sears",
    "description": "Clothing Stores",
    "phone": "(863) 467-1200",
    "address": "3290 Us Highway 441 S  Okeechobee, FL 34974",
    "location": "Okeechobee"
  },
  {
    "name": "Flower Petals",
    "description": "Clothing Stores",
    "phone": "(863) 763-5051",
    "address": "202 NE 2nd St  Okeechobee, FL 34972",
    "location": "Okeechobee"
  },
  {
    "name": "Trading Post Flea Market",
    "description": "Clothing Stores",
    "phone": "(863) 763-4114",
    "address": "3100 Us Highway 441 S  Okeechobee, FL 34974",
    "location": "Okeechobee"
  },
  {
    "name": "Bealls Outlet Stores",
    "description": "Clothing Stores",
    "phone": "(863) 763-8282",
    "address": "3280 Us Highway 441 S  Okeechobee, FL 34974",
    "location": "Okeechobee"
  },
  {
    "name": "Shoe Show",
    "description": "Clothing Stores",
    "phone": "(863) 357-8235",
    "address": "3421 Us Highway 441 S  Okeechobee, FL 34974",
    "location": "Okeechobee"
  },
  {
    "name": "Hibbett Sports",
    "description": "Sporting Goods",
    "phone": "(863) 357-3709",
    "address": "2105 S Parrott Ave Ste 103  Okeechobee, FL 34974",
    "location": "Okeechobee"
  },
  {
    "name": "F1st Clothing Co",
    "description": "Internet Products & Services",
    "phone": "(863) 532-1112",
    "address": "8485 Us Highway 441 SE Lot 44  Okeechobee, FL 34974",
    "location": "Okeechobee"
  },
  {
    "name": "Walmart Supercenter",
    "description": "General Merchandise",
    "phone": "(863) 763-7070",
    "address": "2101 S Parrott Ave  Okeechobee, FL 34974",
    "location": "Okeechobee"
  },
  {
    "name": "Reel Legends",
    "description": "Home Furnishings",
    "phone": "(863) 484-7785",
    "address": "3421 Ys-441  Okeechobee, FL 34974",
    "location": "Okeechobee"
  },
  {
    "name": "Cato",
    "description": "Women's Clothing",
    "phone": "(863) 763-5509",
    "address": "3375 Us Highway 441 S  Okeechobee, FL 34974",
    "location": "Okeechobee"
  },
  {
    "name": "Debbie's Deals & Discounts",
    "description": "Discount Stores",
    "phone": "(863) 824-0218",
    "address": "411 SW Park St  Okeechobee, FL 34972",
    "location": "Okeechobee"
  },
  {
    "name": "Sears Hometown Stores",
    "description": "Department Stores",
    "phone": "(863) 484-8207",
    "address": "704 N Parrott Ave  Okeechobee, FL 34972",
    "location": "Okeechobee"
  },
  {
    "name": "D1 Team Sports",
    "description": "Sporting Goods",
    "phone": "(863) 824-0982",
    "address": "1136 S Parrott Ave  Okeechobee, FL 34974",
    "location": "Okeechobee"
  },
  {
    "name": "Okeechobee Outlet Store",
    "description": "General Merchandise",
    "phone": "(863) 467-0029",
    "address": "3100 Us Highway 441 S  Okeechobee, FL 34974",
    "location": "Okeechobee"
  },
  {
    "name": "Beautiful Mess Boutique",
    "description": "Boutique Items",
    "phone": "(863) 357-1118",
    "address": "101 SW 3rd Ave  Okeechobee, FL 34974",
    "location": "Okeechobee"
  },
  {
    "name": "Bangled and Teased",
    "description": "Women's Clothing",
    "phone": "(863) 634-3187",
    "address": "PO Box 415  Okeechobee, FL 34973",
    "location": "Okeechobee"
  },
  {
    "name": "Catherine's",
    "description": "Women's Clothing",
    "phone": "(772) 345-2695",
    "address": "LANDING At Tradition  Port Saint Lucie, FL 34987",
    "location": "Okeechobee"
  }
]