[
  {
    "name": "La Canastilla Cubana",
    "description": "Clothing Stores",
    "phone": "(305) 643-0766",
    "address": "2145 NW 7th St  Miami, FL 33125",
    "location": "Orange"
  },
  {
    "name": "A- Plus Uniform Company Inc",
    "description": "Clothing Stores",
    "phone": "(786) 600-2225",
    "address": "2007 Southwest 1st Street  Miami, FL 33135",
    "location": "Orange"
  },
  {
    "name": "Clothing Under 10",
    "description": "Clothing Stores",
    "phone": "(305) 547-1001",
    "address": "1130 W Flagler St  Miami, FL 33130",
    "location": "Orange"
  },
  {
    "name": "El Costo",
    "description": "Clothing Stores",
    "phone": "(305) 547-1001",
    "address": "60 NW 12th Ave  Miami, FL 33128",
    "location": "Orange"
  },
  {
    "name": "Online Rebel Boutique",
    "description": "Clothing Stores",
    "phone": "(786) 291-3585",
    "address": "1512 W Flagler St  Miami, FL 33135",
    "location": "Orange"
  },
  {
    "name": "Allstylesalluring",
    "description": "Clothing Stores",
    "phone": "(786) 872-4652",
    "address": "PO Box 380334  Miami, FL 33238",
    "location": "Orange"
  },
  {
    "name": "Dress By Karliss Inc",
    "description": "Clothing Stores",
    "phone": "(786) 360-3489",
    "address": "2174 NW 7th St  Miami, FL 33125",
    "location": "Orange"
  },
  {
    "name": "Rainbow Shops",
    "description": "Clothing Stores",
    "phone": "(305) 541-1969",
    "address": "1799 SW 8th St  Miami, FL 33135",
    "location": "Orange"
  },
  {
    "name": "Dagmar's Shoes & Shirts",
    "description": "Clothing Stores",
    "phone": "(305) 326-6767",
    "address": "425 NW 12th Ave  Miami, FL 33128",
    "location": "Orange"
  },
  {
    "name": "Mi Tiendita",
    "description": "Clothing Stores",
    "phone": "(305) 324-5553",
    "address": "1134 W Flagler St  Miami, FL 33130",
    "location": "Orange"
  },
  {
    "name": "Fashionwear",
    "description": "Clothing Stores",
    "phone": "(786) 464-9773",
    "address": "1512 SW 8th St  Miami, FL 33135",
    "location": "Orange"
  },
  {
    "name": "Habana",
    "description": "Clothing Stores",
    "phone": "(786) 717-7474",
    "address": "1421 SW 8th St  Miami, FL 33135",
    "location": "Orange"
  },
  {
    "name": "Pepe and Berta Clothing Inc",
    "description": "Clothing Stores",
    "phone": "(305) 857-3771",
    "address": "1421 SW 8th St Ste WEST  Miami, FL 33135",
    "location": "Orange"
  },
  {
    "name": "Yeny Fashion",
    "description": "Clothing Stores",
    "phone": "(786) 703-4272",
    "address": "605 SW 12th Ave  Miami, FL 33130",
    "location": "Orange"
  },
  {
    "name": "Wild Daddy Outdoors",
    "description": "Clothing Stores",
    "phone": "(305) 763-7459",
    "address": "1637 SW 11th St  Miami, FL 33135",
    "location": "Orange"
  },
  {
    "name": "T.J. Maxx",
    "description": "Clothing Stores",
    "phone": "(305) 549-3974",
    "address": "1420 NW North River Dr  Miami, FL 33125",
    "location": "Orange"
  },
  {
    "name": "Burlington Coat Factory",
    "description": "Clothing Stores",
    "phone": "(786) 673-7724",
    "address": "1420 NW North River Dr Ste 315  Miami, FL 33125",
    "location": "Orange"
  },
  {
    "name": "Old Navy",
    "description": "Clothing Stores",
    "phone": "(786) 460-9765",
    "address": "1440 NW North River Dr Ste 340  Miami, FL 33125",
    "location": "Orange"
  },
  {
    "name": "Daniela's Fashion",
    "description": "Clothing Stores",
    "phone": "(786) 534-6981",
    "address": "1852 SW 8th St  Miami, FL 33135",
    "location": "Orange"
  },
  {
    "name": "Collection Mens Wear Mens Clothing",
    "description": "Clothing Stores",
    "phone": "(305) 649-7195",
    "address": "312 SW 12th Ave  Miami, FL 33130",
    "location": "Orange"
  },
  {
    "name": "Bossrevolution in Miami",
    "description": "Clothing Stores",
    "phone": "(786) 546-4141",
    "address": "PO Box 961184  Miami, FL 33296",
    "location": "Orange"
  },
  {
    "name": "Fashion Clothiers Inc",
    "description": "Clothing Stores",
    "phone": "(305) 573-5890",
    "address": "2701 NW 5th Ave  Miami, FL 33127",
    "location": "Orange"
  },
  {
    "name": "Sonata Fashion",
    "description": "Clothing Stores",
    "phone": "(305) 576-9449",
    "address": "2727 NW 5th Ave  Miami, FL 33127",
    "location": "Orange"
  },
  {
    "name": "Nicoles Designs",
    "description": "Clothing Stores",
    "phone": "(786) 246-7492",
    "address": "online store  miami, FL 33179",
    "location": "Orange"
  },
  {
    "name": "Rupees",
    "description": "Clothing Stores",
    "phone": "(305) 576-4368",
    "address": "415 NW 27th St  Miami, FL 33127",
    "location": "Orange"
  },
  {
    "name": "Jessica",
    "description": "Clothing Stores",
    "phone": "(305) 573-8500",
    "address": "2800 NW 5th Ave  Miami, FL 33127",
    "location": "Orange"
  },
  {
    "name": "Sentir Cubano. A Cuban Store",
    "description": "Clothing Stores",
    "phone": "(305) 644-8870",
    "address": "3100 SW 8th St  Miami, FL 33135",
    "location": "Orange"
  },
  {
    "name": "Sheeklady.com",
    "description": "Clothing Stores",
    "phone": "(915) 471-1337",
    "address": "41 SE 5th St  Miami, FL 33131",
    "location": "Orange"
  },
  {
    "name": "All America Apparel, Corp.",
    "description": "Clothing Stores",
    "phone": "(305) 325-3060",
    "address": "1872 NW 20th St  Miami, FL 33142",
    "location": "Orange"
  },
  {
    "name": "AJE Express, Inc.",
    "description": "Clothing Stores",
    "phone": "(305) 722-5447",
    "address": "245 SE 1st St Ste 311  Miami, FL 33131",
    "location": "Orange"
  },
  {
    "name": "El Palacio Del Nino",
    "description": "Clothing Stores",
    "phone": "(305) 325-1053",
    "address": "1848 NW 20th St  Miami, FL 33142",
    "location": "Orange"
  },
  {
    "name": "Bella Clothing Fashion",
    "description": "Clothing Stores",
    "phone": "(786) 238-7006",
    "address": "1990 NW 20th St  Miami, FL 33142",
    "location": "Orange"
  },
  {
    "name": "Diamar Clothing",
    "description": "Clothing Stores",
    "phone": "(786) 307-8719",
    "address": "1990 NW 20th St  Miami, FL 33142",
    "location": "Orange"
  },
  {
    "name": "India Clothiers",
    "description": "Clothing Stores",
    "phone": "(305) 324-4140",
    "address": "1741 NW 20th St  Miami, FL 33142",
    "location": "Orange"
  },
  {
    "name": "Jsquad Clothing",
    "description": "Clothing Stores",
    "phone": "(786) 409-7758",
    "address": "1793 NW 20th St  Miami, FL 33142",
    "location": "Orange"
  },
  {
    "name": "Fashion Tendency USA",
    "description": "Clothing Stores",
    "phone": "(954) 880-5606",
    "address": "2002 NW 20th St  Miami, FL 33142",
    "location": "Orange"
  },
  {
    "name": "Piasaa USA",
    "description": "Clothing Stores",
    "phone": "(786) 534-9686",
    "address": "2082 NW 18th Ave  Miami, FL 33142",
    "location": "Orange"
  },
  {
    "name": "Lulu Collections",
    "description": "Clothing Stores",
    "phone": "(305) 814-7672",
    "address": "2263 NW 20th St  Miami, FL 33142",
    "location": "Orange"
  },
  {
    "name": "SFIJ Industrial Inc",
    "description": "Clothing Stores",
    "phone": "(305) 456-5823",
    "address": "2295 NW 20th St Unit A  miami, FL 33142",
    "location": "Orange"
  },
  {
    "name": "SOME KIND",
    "description": "Clothing Stores",
    "phone": "(305) 456-5823",
    "address": "2295 NW 20th St Unit A  Miami, FL 33142",
    "location": "Orange"
  },
  {
    "name": "Miami Fashion Addicts",
    "description": "Clothing Stores",
    "phone": "(305) 541-1200",
    "address": "3202 NW 7th St  Miami, FL 33125",
    "location": "Orange"
  },
  {
    "name": "Leidis Fashion Corp",
    "description": "Clothing Stores",
    "phone": "(305) 456-5090",
    "address": "2408 NW 20th St  Miami, FL 33142",
    "location": "Orange"
  },
  {
    "name": "Dixiana Fashions",
    "description": "Clothing Stores",
    "phone": "(786) 452-9812",
    "address": "2414 NW 20th St  Miami, FL 33142",
    "location": "Orange"
  },
  {
    "name": "Kizs",
    "description": "Clothing Stores",
    "phone": "(305) 634-0926",
    "address": "2106 NW 22nd Ct  Miami, FL 33142",
    "location": "Orange"
  },
  {
    "name": "Forever Young Fashion Wear Inc",
    "description": "Clothing Stores",
    "phone": "(786) 873-0561",
    "address": "2436 NW 20th St  Miami, FL 33142",
    "location": "Orange"
  },
  {
    "name": "Mathew's Clothes & Shoes Inc",
    "description": "Clothing Stores",
    "phone": "(786) 363-8773",
    "address": "2480 NW 20th St  Miami, FL 33142",
    "location": "Orange"
  },
  {
    "name": "Pit USA",
    "description": "Clothing Stores",
    "phone": "(786) 615-5584",
    "address": "25 NW 2nd Ave  Miami, FL 33128",
    "location": "Orange"
  },
  {
    "name": "Laris Fashion",
    "description": "Clothing Stores",
    "phone": "(305) 456-2385",
    "address": "3309 NW 7th St  Miami, FL 33125",
    "location": "Orange"
  },
  {
    "name": "US Retail Stores",
    "description": "Clothing Stores",
    "phone": "(786) 534-9603",
    "address": "2647 NW 20th St  Miami, FL 33142",
    "location": "Orange"
  },
  {
    "name": "Xaza",
    "description": "Clothing Stores",
    "phone": "(786) 305-3003",
    "address": "66 W Flagler St  Miami, FL 33130",
    "location": "Orange"
  },
  {
    "name": "Intelligently Chilled",
    "description": "Clothing Stores",
    "phone": "(888) 885-8380",
    "address": "66 W Flagler St Ste 900  Miami, FL 33130",
    "location": "Orange"
  },
  {
    "name": "Finesse Couture",
    "description": "Clothing Stores",
    "phone": "(321) 499-6611",
    "address": "66 W Flagler St  Miami, FL 33130",
    "location": "Orange"
  },
  {
    "name": "Suite 110",
    "description": "Clothing Stores",
    "phone": "(786) 860-5140",
    "address": "1490 NW 3rd Ave  Miami, FL 33136",
    "location": "Orange"
  },
  {
    "name": "Humidors Wholesaler",
    "description": "Clothing Stores",
    "phone": "(305) 573-0222",
    "address": "3604 NW 7th St  Miami, FL 33125",
    "location": "Orange"
  },
  {
    "name": "Miami Runway Collection. Inc.",
    "description": "Clothing Stores",
    "phone": "(786) 479-6701",
    "address": "17 E Flagler St Ste 111  Miami, FL 33131",
    "location": "Orange"
  },
  {
    "name": "Tommy Hilfiger",
    "description": "Clothing Stores",
    "phone": "(305) 577-1609",
    "address": "22 E Flagler St  Miami, FL 33131",
    "location": "Orange"
  },
  {
    "name": "Hosh Online Boutique",
    "description": "Clothing Stores",
    "phone": "(786) 247-2227",
    "address": "850 N Miami Ave  Miami, FL 33136",
    "location": "Orange"
  },
  {
    "name": "BOSS Store",
    "description": "Clothing Stores",
    "phone": "(305) 704-8354",
    "address": "701 S Miami Ave Unit 119A  Miami, FL 33130",
    "location": "Orange"
  },
  {
    "name": "Abercrombie & Fitch",
    "description": "Clothing Stores",
    "phone": "(305) 200-0082",
    "address": "701 S Miami Ave  Miami, FL 33130",
    "location": "Orange"
  },
  {
    "name": "Live Clothing",
    "description": "Clothing Stores",
    "phone": "(786) 257-1202",
    "address": "701 S Miami Ave  Miami, FL 33130",
    "location": "Orange"
  },
  {
    "name": "Addict",
    "description": "Clothing Stores",
    "phone": "(786) 558-5454",
    "address": "701 S Miami Ave  Miami, FL 33130",
    "location": "Orange"
  },
  {
    "name": "Tommy Bahama",
    "description": "Clothing Stores",
    "phone": "(786) 472-8068",
    "address": "701 S Miami Ave  Miami, FL 33130",
    "location": "Orange"
  },
  {
    "name": "Kiton",
    "description": "Clothing Stores",
    "phone": "(786) 864-0151",
    "address": "701 S Miami Ave  Miami, FL 33130",
    "location": "Orange"
  },
  {
    "name": "Ted Baker",
    "description": "Clothing Stores",
    "phone": "(786) 725-3748",
    "address": "701 S Miami Ave Unit 242B  Miami, FL 33130",
    "location": "Orange"
  },
  {
    "name": "Tribeca Fashion SVC",
    "description": "Clothing Stores",
    "phone": "(786) 482-2996",
    "address": "701 S Miami Ave  Miami, FL 33130",
    "location": "Orange"
  },
  {
    "name": "Hugo Boss",
    "description": "Clothing Stores",
    "phone": "(305) 704-8354",
    "address": "701 S Miami Ave  Miami, FL 33130",
    "location": "Orange"
  },
  {
    "name": "Topic Services Inc",
    "description": "Clothing Stores",
    "phone": "(786) 507-1294",
    "address": "2500 NW 29th Ave  Miami, FL 33142",
    "location": "Orange"
  },
  {
    "name": "Basic Xxi Inc",
    "description": "Clothing Stores",
    "phone": "(305) 381-8441",
    "address": "148 E Flagler St  Miami, FL 33131",
    "location": "Orange"
  },
  {
    "name": "Free People",
    "description": "Clothing Stores",
    "phone": "(786) 809-0163",
    "address": "851 NE 1st Ave Unit 137  Miami, FL 33132",
    "location": "Orange"
  },
  {
    "name": "Kimono Hiro in FL",
    "description": "Clothing Stores",
    "phone": "(305) 814-7577",
    "address": "199 E Flagler St # 238  Miami, FL 33131",
    "location": "Orange"
  },
  {
    "name": "Tammy Apostol Couture",
    "description": "Clothing Stores",
    "phone": "(786) 220-2610",
    "address": "150 SE 2nd Ave  Miami, FL 33131",
    "location": "Orange"
  },
  {
    "name": "Tutu & Spice",
    "description": "Clothing Stores",
    "phone": "(305) 409-8443",
    "address": "212 NE 1st St  Miami, FL 33132",
    "location": "Orange"
  },
  {
    "name": "BulkOrderTshirts.com",
    "description": "Clothing Stores",
    "phone": "(888) 587-9995",
    "address": "253 NE 2nd St Apt 421  Miami, FL 33132",
    "location": "Orange"
  },
  {
    "name": "The Bespoke Club",
    "description": "Clothing Stores",
    "phone": "(786) 360-5969",
    "address": "701 Brickell Ave Lbby 102  Miami, FL 33131",
    "location": "Orange"
  },
  {
    "name": "Transvestite Boutique",
    "description": "Clothing Stores",
    "phone": "(212) 697-0644",
    "address": "1200 Brickell Ave  Miami, FL 33131",
    "location": "Orange"
  },
  {
    "name": "Patagonia",
    "description": "Clothing Stores",
    "phone": "(786) 431-5156",
    "address": "1200 Brickell Ave Ste 1480  Miami, FL 33131",
    "location": "Orange"
  },
  {
    "name": "I Wear For All",
    "description": "Clothing Stores",
    "phone": "(786) 409-3341",
    "address": "20 SE 3rd Ave  Miami, FL 33131",
    "location": "Orange"
  },
  {
    "name": "Sound Moves Ltd",
    "description": "Clothing Stores",
    "phone": "(310) 970-4270",
    "address": "485 Brickell Ave  Miami, FL 33131",
    "location": "Orange"
  },
  {
    "name": "USA Clothing",
    "description": "Clothing Stores",
    "phone": "(305) 573-0213",
    "address": "2401 NW 5th Ave Ste 1  Miami, FL 33127",
    "location": "Orange"
  },
  {
    "name": "Austin Burke of Florida",
    "description": "Clothing Stores",
    "phone": "(305) 576-2714",
    "address": "2601 NW 6th Ave  Miami, FL 33127",
    "location": "Orange"
  },
  {
    "name": "Burkes Outlet",
    "description": "Clothing Stores",
    "phone": "(305) 576-2714",
    "address": "2601 NW 6th Ave  Miami, FL 33127",
    "location": "Orange"
  },
  {
    "name": "Scott Notions",
    "description": "Clothing Stores",
    "phone": "(305) 576-3328",
    "address": "545 NW 26th St  Miami, FL 33127",
    "location": "Orange"
  },
  {
    "name": "All Uniform Wear",
    "description": "Clothing Stores",
    "phone": "(305) 691-8807",
    "address": "900 Biscayne Blvd  Miami, FL 33132",
    "location": "Orange"
  },
  {
    "name": "Flamingo Vintage Kilo Inc",
    "description": "Clothing Stores",
    "phone": "(281) 889-1609",
    "address": "719 NW 29th St  Miami, FL 33127",
    "location": "Orange"
  },
  {
    "name": "Guess",
    "description": "Clothing Stores",
    "phone": "(305) 375-0730",
    "address": "401 Biscayne Blvd Ste R102  Miami, FL 33132",
    "location": "Orange"
  },
  {
    "name": "Steps Clothing",
    "description": "Clothing Stores",
    "phone": "(786) 773-3389",
    "address": "401 Biscayne Blvd  Miami, FL 33132",
    "location": "Orange"
  },
  {
    "name": "Hot Fashion",
    "description": "Clothing Stores",
    "phone": "(305) 576-4808",
    "address": "2610 NW 5th Ave  Miami, FL 33127",
    "location": "Orange"
  },
  {
    "name": "Base USA",
    "description": "Clothing Stores",
    "phone": "(786) 773-3680",
    "address": "2215 NW 2nd Ave  Miami, FL 33127",
    "location": "Orange"
  },
  {
    "name": "Nordstrom Rack Miracle Marketplace",
    "description": "Clothing Stores",
    "phone": "(786) 662-6025",
    "address": "3301 Coral Way  Miami, FL 33145",
    "location": "Orange"
  },
  {
    "name": "Mystery Panties",
    "description": "Clothing Stores",
    "phone": "(786) 439-4082",
    "address": "3416 NW 18th Ave  Miami, FL 33142",
    "location": "Orange"
  },
  {
    "name": "Kit and Ace",
    "description": "Clothing Stores",
    "phone": "(305) 576-6175",
    "address": "219 NW 23rd St  Miami, FL 33127",
    "location": "Orange"
  },
  {
    "name": "Rachel's",
    "description": "Clothing Stores",
    "phone": "(954) 610-2893",
    "address": "325 S Biscayne Blvd  Miami, FL 33131",
    "location": "Orange"
  },
  {
    "name": "Aviator Nation",
    "description": "Clothing Stores",
    "phone": "(786) 362-6191",
    "address": "2399 NW 2nd Ave  Miami, FL 33127",
    "location": "Orange"
  },
  {
    "name": "Trendy Incorporated",
    "description": "Clothing Stores",
    "phone": "(305) 438-4244",
    "address": "196 NW 24th St  Miami, FL 33127",
    "location": "Orange"
  },
  {
    "name": "Now Brands",
    "description": "Clothing Stores",
    "phone": "(786) 212-1413",
    "address": "172 NW 24th St  Miami, FL 33127",
    "location": "Orange"
  },
  {
    "name": "Marine Layer",
    "description": "Clothing Stores",
    "phone": "(786) 717-5822",
    "address": "217 NW 25th St  Miami, FL 33127",
    "location": "Orange"
  },
  {
    "name": "Paradise Fashion",
    "description": "Clothing Stores",
    "phone": "(305) 576-1030",
    "address": "2750 NW 3rd Ave  Miami, FL 33127",
    "location": "Orange"
  },
  {
    "name": "Fallas",
    "description": "Clothing Stores",
    "phone": "(305) 770-0159",
    "address": "CA Club 850 Ives Diary Rd. Suite T-2  Miami, FL 33179",
    "location": "Orange"
  },
  {
    "name": "Peterson's Miami Beach Harley Davidson",
    "description": "Clothing Stores",
    "phone": "(305) 350-7444",
    "address": "401 Biscayne Blvd Ste 142  Miami, FL 33132",
    "location": "Orange"
  },
  {
    "name": "Pitusa",
    "description": "Clothing Stores",
    "phone": "(786) 409-4237",
    "address": "2150 Coral Way  Coral Gables, FL 33145",
    "location": "Orange"
  },
  {
    "name": "Yas Gonzalez Fashion Boutique & Atelier",
    "description": "Clothing Stores",
    "phone": "(305) 456-9673",
    "address": "2901 Coral Way  Coral Gables, FL 33145",
    "location": "Orange"
  },
  {
    "name": "Kalilee Fashion Inc",
    "description": "Clothing Stores",
    "phone": "(305) 572-0802",
    "address": "2773 NW 5th Ave  Miami, FL 33127",
    "location": "Orange"
  },
  {
    "name": "L & L Men's Clothing",
    "description": "Clothing Stores",
    "phone": "(305) 372-2544",
    "address": "128 N Miami Ave  Miami, FL 33128",
    "location": "Orange"
  },
  {
    "name": "Express",
    "description": "Clothing Stores",
    "phone": "(786) 447-0813",
    "address": "401 Biscayne Blvd  Miami, FL 33132",
    "location": "Orange"
  },
  {
    "name": "Orobluusa",
    "description": "Clothing Stores",
    "phone": "(786) 206-4507",
    "address": "801 Brickell Ave  Miami, FL 33131",
    "location": "Orange"
  },
  {
    "name": "Local Image Inc",
    "description": "Clothing Stores",
    "phone": "(305) 545-8585",
    "address": "1807 NW 20th St  Miami, FL 33142",
    "location": "Orange"
  },
  {
    "name": "Mizmi",
    "description": "Clothing Stores",
    "phone": "(305) 545-0351",
    "address": "2082 NW 18th Ave  Miami, FL 33142",
    "location": "Orange"
  },
  {
    "name": "Palladium Moda USA Inc",
    "description": "Clothing Stores",
    "phone": "(305) 371-6564",
    "address": "1428 Brickell Ave Ste 304  Miami, FL 33131",
    "location": "Orange"
  },
  {
    "name": "Project 305",
    "description": "Clothing Stores",
    "phone": "(305) 573-0072",
    "address": "2630 NW 5th Ave  Miami, FL 33127",
    "location": "Orange"
  },
  {
    "name": "Gap",
    "description": "Clothing Stores",
    "phone": "(305) 539-9603",
    "address": "401 Biscayne Blvd  Miami, FL 33132",
    "location": "Orange"
  },
  {
    "name": "Nibal Jeans",
    "description": "Clothing Stores",
    "phone": "(305) 326-6966",
    "address": "1789 NW 20th St  Miami, FL 33142",
    "location": "Orange"
  },
  {
    "name": "2 Knightz Klothing",
    "description": "Clothing Stores",
    "phone": "(786) 273-8331",
    "address": "1217 NW 2nd Ave  Miami, FL 33136",
    "location": "Orange"
  },
  {
    "name": "Fajas Depot",
    "description": "Clothing Stores",
    "phone": "(305) 643-1337",
    "address": "767 NW 37th Ave  Miami, FL 33125",
    "location": "Orange"
  },
  {
    "name": "Brit Trading",
    "description": "Clothing Stores",
    "phone": "(305) 913-7140",
    "address": "1111 Brickell Ave  Miami, FL 33131",
    "location": "Orange"
  },
  {
    "name": "Charlotte Russe",
    "description": "Clothing Stores",
    "phone": "(305) 819-6210",
    "address": "W 1675 49Th Street  Hialeah, FL 33012",
    "location": "Orange"
  },
  {
    "name": "Studio 61 Hair Boutique",
    "description": "Clothing Stores",
    "phone": "(305) 569-0900",
    "address": "1 Miracle Mile  Coral Gables, FL 33134",
    "location": "Orange"
  },
  {
    "name": "AvanGarde Boutique",
    "description": "Clothing Stores",
    "phone": "(786) 536-4693",
    "address": "3117 Commodore Plz  Miami, FL 33133",
    "location": "Orange"
  },
  {
    "name": "Frangipani",
    "description": "Clothing Stores",
    "phone": "(305) 573-1480",
    "address": "2516 NW 2nd Ave  Miami, FL 33127",
    "location": "Orange"
  },
  {
    "name": "The Six Borougt Clothing",
    "description": "Clothing Stores",
    "phone": "(305) 634-7100",
    "address": "3531 NW 17th Ave  Miami, FL 33142",
    "location": "Orange"
  },
  {
    "name": "Krelwear",
    "description": "Clothing Stores",
    "phone": "(305) 576-7465",
    "address": "180 NW 25th St  Miami, FL 33127",
    "location": "Orange"
  },
  {
    "name": "Capelle Miami",
    "description": "Clothing Stores",
    "phone": "(786) 239-5755",
    "address": "172 NW 26th St  Miami, FL 33127",
    "location": "Orange"
  },
  {
    "name": "Style Rac",
    "description": "Clothing Stores",
    "phone": "(305) 418-0510",
    "address": "65 NW 24th St  Miami, FL 33127",
    "location": "Orange"
  },
  {
    "name": "Design Lab",
    "description": "Clothing Stores",
    "phone": "(305) 577-4825",
    "address": "250 NE 17th Ter  Miami, FL 33132",
    "location": "Orange"
  },
  {
    "name": "NugBrand Clothing Co.",
    "description": "Clothing Stores",
    "phone": "(239) 400-5212",
    "address": "2324 N Miami Ave  Miami, FL 33127",
    "location": "Orange"
  },
  {
    "name": "Collection Mens Wear Inc",
    "description": "Clothing Stores",
    "phone": "(305) 649-7195",
    "address": "780 NW 42nd Ave  Miami, FL 33126",
    "location": "Orange"
  },
  {
    "name": "Follies Boutique",
    "description": "Clothing Stores",
    "phone": "(786) 953-7467",
    "address": "1717 N Bayshore Dr  Miami, FL 33132",
    "location": "Orange"
  },
  {
    "name": "Soigne Clothing Inc",
    "description": "Clothing Stores",
    "phone": "(786) 953-7467",
    "address": "1717 N Bayshore Dr Ste 110  Miami, FL 33132",
    "location": "Orange"
  },
  {
    "name": "AB Hombre",
    "description": "Clothing Stores",
    "phone": "(305) 456-5165",
    "address": "1717 N Bayshore Dr  Miami, FL 33132",
    "location": "Orange"
  },
  {
    "name": "Angelica Boutiques",
    "description": "Clothing Stores",
    "phone": "(786) 671-5288",
    "address": "1870 NW 41st St  Miami, FL 33142",
    "location": "Orange"
  },
  {
    "name": "Xotic Blens LLC",
    "description": "Clothing Stores",
    "phone": "(786) 505-4913",
    "address": "2121 Biscayne Blvd  Miami, FL 33137",
    "location": "Orange"
  },
  {
    "name": "La Moda Hindu",
    "description": "Clothing Stores",
    "phone": "(305) 636-4447",
    "address": "2255 2257th Nw 20 St  Miami, FL 33142",
    "location": "Orange"
  },
  {
    "name": "Suzette Marie Collection",
    "description": "Clothing Stores",
    "phone": "(210) 518-9091",
    "address": "250 NE 25th St Apt 1407  Miami, FL 33137",
    "location": "Orange"
  },
  {
    "name": "Cheryl Fudge Fashion",
    "description": "Clothing Stores",
    "phone": "(786) 618-9891",
    "address": "204 Miracle Mile  Miami, FL 33134",
    "location": "Orange"
  },
  {
    "name": "Field Shops Inc",
    "description": "Clothing Stores",
    "phone": "(305) 887-4112",
    "address": "451 NW 36th St  Miami, FL 33127",
    "location": "Orange"
  },
  {
    "name": "Cattiva Boutique",
    "description": "Clothing Stores",
    "phone": "(305) 774-1733",
    "address": "257 Miracle Mile  Miami, FL 33134",
    "location": "Orange"
  },
  {
    "name": "D's Place Corp",
    "description": "Clothing Stores",
    "phone": "(954) 338-9365",
    "address": "2700 Biscayne Blvd  Miami, FL 33137",
    "location": "Orange"
  },
  {
    "name": "Fashion From New York",
    "description": "Clothing Stores",
    "phone": "(786) 502-2131",
    "address": "4561 NW 7th St  Miami, FL 33126",
    "location": "Orange"
  },
  {
    "name": "Legend & Company Corp",
    "description": "Clothing Stores",
    "phone": "(786) 707-9428",
    "address": "4595 NW 7th St  Miami, FL 33126",
    "location": "Orange"
  },
  {
    "name": "Simons Midtown",
    "description": "Clothing Stores",
    "phone": "(305) 573-4614",
    "address": "3401 N Miami Ave  Miami, FL 33127",
    "location": "Orange"
  },
  {
    "name": "Bethany's Beachwear Linen Clothing and Women's Accessories Miami",
    "description": "Clothing Stores",
    "phone": "(305) 610-1152",
    "address": "3401 N Miami Ave  Miami, FL 33127",
    "location": "Orange"
  },
  {
    "name": "Hot Topic",
    "description": "Clothing Stores",
    "phone": "(305) 256-3840",
    "address": "8888 Center St # 545  Miami, FL 33133",
    "location": "Orange"
  },
  {
    "name": "Akiba Trading",
    "description": "Clothing Stores",
    "phone": "(305) 438-0071",
    "address": "35 NE 38th St  Miami, FL 33137",
    "location": "Orange"
  },
  {
    "name": "Rag & Bone",
    "description": "Clothing Stores",
    "phone": "(786) 798-8586",
    "address": "3814 NE 1st Ave Ste 103  Miami, FL 33137",
    "location": "Orange"
  },
  {
    "name": "Anya Ponorovskaya",
    "description": "Clothing Stores",
    "phone": "(305) 677-5008",
    "address": "35 NE 40th St  Miami, FL 33137",
    "location": "Orange"
  },
  {
    "name": "AMIRI Miami",
    "description": "Clothing Stores",
    "phone": "(786) 744-6500",
    "address": "106 NE 39th St  Miami, FL 33137",
    "location": "Orange"
  },
  {
    "name": "Burberry",
    "description": "Clothing Stores",
    "phone": "(305) 423-0078",
    "address": "112 NE 39th St  Miami, FL 33137",
    "location": "Orange"
  },
  {
    "name": "Ksubi",
    "description": "Clothing Stores",
    "phone": "(305) 364-5827",
    "address": "74 NE 40th St  Miami, FL 33137",
    "location": "Orange"
  },
  {
    "name": "Lanvin",
    "description": "Clothing Stores",
    "phone": "(305) 864-4250",
    "address": "107 NE 39th St  Miami, FL 33137",
    "location": "Orange"
  },
  {
    "name": "Saint Laurent",
    "description": "Clothing Stores",
    "phone": "(305) 704-4144",
    "address": "140 NE 39th St Ste PC-106  Miami, FL 33137",
    "location": "Orange"
  },
  {
    "name": "Valentino",
    "description": "Clothing Stores",
    "phone": "(305) 639-8851",
    "address": "140 NE 39th St  Miami, FL 33137",
    "location": "Orange"
  },
  {
    "name": "Givenchy",
    "description": "Clothing Stores",
    "phone": "(305) 576-6289",
    "address": "140 NE 39th St  Miami, FL 33137",
    "location": "Orange"
  },
  {
    "name": "Tighemi",
    "description": "Clothing Stores",
    "phone": "(786) 536-7005",
    "address": "140 NE 39th St  Miami, FL 33137",
    "location": "Orange"
  },
  {
    "name": "Dior",
    "description": "Clothing Stores",
    "phone": "(305) 576-4632",
    "address": "162 NE 39th St  Miami, FL 33137",
    "location": "Orange"
  },
  {
    "name": "Alo",
    "description": "Clothing Stores",
    "phone": "(786) 347-5888",
    "address": "101 NE 40th St  Miami, FL 33137",
    "location": "Orange"
  },
  {
    "name": "Theory",
    "description": "Clothing Stores",
    "phone": "(305) 576-0741",
    "address": "101 NE 40th St  Miami, FL 33137",
    "location": "Orange"
  },
  {
    "name": "H&M",
    "description": "Clothing Stores",
    "phone": "(201) 428-2242",
    "address": "3915 NE 1st Ave  Miami, FL 33137",
    "location": "Orange"
  },
  {
    "name": "COS",
    "description": "Clothing Stores",
    "phone": "(786) 857-5922",
    "address": "3915 NE 1st Ave  Miami, FL 33137",
    "location": "Orange"
  },
  {
    "name": "Raiza Fashion",
    "description": "Clothing Stores",
    "phone": "(305) 573-7117",
    "address": "130 NE 40th St  Miami, FL 33137",
    "location": "Orange"
  },
  {
    "name": "On Store Miami Design District",
    "description": "Clothing Stores",
    "phone": "(786) 615-7946",
    "address": "125 NE 40th St  Miami, FL 33137",
    "location": "Orange"
  },
  {
    "name": "Ralph Lauren",
    "description": "Clothing Stores",
    "phone": "(786) 826-9199",
    "address": "170 NE 40th St  Miami, FL 33137",
    "location": "Orange"
  },
  {
    "name": "John Elliott",
    "description": "Clothing Stores",
    "phone": "(786) 409-2591",
    "address": "119 NE 41st St  Miami, FL 33137",
    "location": "Orange"
  },
  {
    "name": "Rick Owens",
    "description": "Clothing Stores",
    "phone": "(786) 703-2950",
    "address": "131 NE 41st St  Miami, FL 33137",
    "location": "Orange"
  },
  {
    "name": "Balenciaga",
    "description": "Clothing Stores",
    "phone": "(305) 908-4242",
    "address": "151 NE 41st St Ste 125  Miami, FL 33137",
    "location": "Orange"
  },
  {
    "name": "Divine Clothes",
    "description": "Clothing Stores",
    "phone": "(305) 569-0339",
    "address": "3015 Grand Ave  Miami, FL 33133",
    "location": "Orange"
  },
  {
    "name": "Europann Saint Tropez",
    "description": "Clothing Stores",
    "phone": "(786) 353-2253",
    "address": "3015 Grand Ave Ste 160  Miami, FL 33133",
    "location": "Orange"
  },
  {
    "name": "Malbon Golf",
    "description": "Clothing Stores",
    "phone": "(786) 432-6922",
    "address": "3034 Grand Ave Spc 3  Miami, FL 33133",
    "location": "Orange"
  },
  {
    "name": "Ultimate Fashions",
    "description": "Clothing Stores",
    "phone": "(305) 759-4030",
    "address": "1172 NW 54th St  Miami, FL 33127",
    "location": "Orange"
  },
  {
    "name": "South Mehari",
    "description": "Clothing Stores",
    "phone": "(786) 899-0285",
    "address": "4304 NE 2nd Ave  Miami, FL 33137",
    "location": "Orange"
  },
  {
    "name": "Christian Garcia Bespoke Tailors & Shirtmake",
    "description": "Clothing Stores",
    "phone": "(305) 567-1324",
    "address": "147 Alhambra Cir  Coral Gables, FL 33134",
    "location": "Orange"
  },
  {
    "name": "Roxana Zubia",
    "description": "Clothing Stores",
    "phone": "(305) 728-7113",
    "address": "2332 Galiano St  Coral Gables, FL 33134",
    "location": "Orange"
  },
  {
    "name": "Kiki Nyc",
    "description": "Clothing Stores",
    "phone": "(786) 773-2910",
    "address": "88 Miracle Mile  Coral Gables, FL 33134",
    "location": "Orange"
  },
  {
    "name": "El Cubanaso Fashions",
    "description": "Clothing Stores",
    "phone": "(786) 703-3617",
    "address": "4605 W Flagler St  Coral Gables, FL 33134",
    "location": "Orange"
  },
  {
    "name": "Arissa Couture",
    "description": "Clothing Stores",
    "phone": "(786) 534-8243",
    "address": "357 Miracle Mile  Coral Gables, FL 33134",
    "location": "Orange"
  },
  {
    "name": "1024 Inc",
    "description": "Clothing Stores",
    "phone": "(305) 448-5053",
    "address": "2912 Ponce De Leon Blvd  Coral Gables, FL 33134",
    "location": "Orange"
  },
  {
    "name": "Savvy Bling",
    "description": "Clothing Stores",
    "phone": "(786) 208-1663",
    "address": "401 Coral Way Ste 106  Coral Gables, FL 33134",
    "location": "Orange"
  },
  {
    "name": "Jgh Clothing",
    "description": "Clothing Stores",
    "phone": "(305) 640-8745",
    "address": "350 Sevilla Ave Ste 106  Coral Gables, FL 33134",
    "location": "Orange"
  },
  {
    "name": "Netmailingcorp",
    "description": "Clothing Stores",
    "phone": "(786) 325-7376",
    "address": "117 Cadima Ave  Coral Gables, FL 33134",
    "location": "Orange"
  },
  {
    "name": "Vince.",
    "description": "Clothing Stores",
    "phone": "(305) 445-4752",
    "address": "3444 Main Hwy Ste 2  Coconut Grove, FL 33133",
    "location": "Orange"
  },
  {
    "name": "Thomas Pink",
    "description": "Clothing Stores",
    "phone": "(305) 888-4662",
    "address": "4299 NW 36th St  Miami Springs, FL 33166",
    "location": "Orange"
  },
  {
    "name": "Elisset Fashions",
    "description": "Clothing Stores",
    "phone": "(305) 447-4181",
    "address": "4750 NW 7th St  Miami, FL 33126",
    "location": "Orange"
  },
  {
    "name": "Upscale Fashion Clothing",
    "description": "Clothing Stores",
    "phone": "(786) 344-1396",
    "address": "4717 NW 7th St  Miami, FL 33126",
    "location": "Orange"
  },
  {
    "name": "Inka Group",
    "description": "Clothing Stores",
    "phone": "(305) 526-8227",
    "address": "4298 NW South Tamiami Canal Dr  Miami, FL 33126",
    "location": "Orange"
  },
  {
    "name": "Scotch and Soda",
    "description": "Clothing Stores",
    "phone": "(305) 573-1668",
    "address": "130 NE 40th St  Miami, FL 33137",
    "location": "Orange"
  },
  {
    "name": "Diesel",
    "description": "Clothing Stores",
    "phone": "(786) 718-1932",
    "address": "3930 NE 2nd Ave  Miami, FL 33137",
    "location": "Orange"
  },
  {
    "name": "StraVaganze Made in Italy",
    "description": "Clothing Stores",
    "phone": "(786) 310-7776",
    "address": "3015 Grand Ave  Miami, FL 33133",
    "location": "Orange"
  },
  {
    "name": "American Apparel",
    "description": "Clothing Stores",
    "phone": "(305) 442-7550",
    "address": "3030 Grand Ave  Miami, FL 33133",
    "location": "Orange"
  },
  {
    "name": "Big & Tall",
    "description": "Clothing Stores",
    "phone": "(305) 649-3337",
    "address": "487 NW 42nd Ave  Miami, FL 33126",
    "location": "Orange"
  },
  {
    "name": "Aly's Closet",
    "description": "Clothing Stores",
    "phone": "(786) 456-7693",
    "address": "5805 Waterford District Dr  Miami, FL 33126",
    "location": "Orange"
  },
  {
    "name": "Hook & Tackle Outfitters",
    "description": "Clothing Stores",
    "phone": "(305) 754-6559",
    "address": "6501 NE 2nd Ct  Miami, FL 33138",
    "location": "Orange"
  },
  {
    "name": "Online Jamaica Store",
    "description": "Clothing Stores",
    "phone": "(876) 433-8141",
    "address": "11 NW 57th Ct  Miami, FL 33126",
    "location": "Orange"
  },
  {
    "name": "Field Shop Inc",
    "description": "Clothing Stores",
    "phone": "(305) 887-4112",
    "address": "4551 NW 36th St  Miami Springs, FL 33166",
    "location": "Orange"
  },
  {
    "name": "Roots Collective",
    "description": "Clothing Stores",
    "phone": "(786) 530-8695",
    "address": "5525 NW 7th Ave  Miami, FL 33127",
    "location": "Orange"
  },
  {
    "name": "Lidia's Cuban Fashion",
    "description": "Clothing Stores",
    "phone": "(305) 297-9216",
    "address": "5422 W Flagler St  Miami, FL 33134",
    "location": "Orange"
  },
  {
    "name": "Qnic13",
    "description": "Clothing Stores",
    "phone": "(305) 748-3175",
    "address": "2240 NW 61st St  Miami, FL 33142",
    "location": "Orange"
  },
  {
    "name": "Pacinca",
    "description": "Clothing Stores",
    "phone": "(305) 635-2004",
    "address": "3737 NW 53rd St  Miami, FL 33142",
    "location": "Orange"
  },
  {
    "name": "Ropa Usada Miami",
    "description": "Clothing Stores",
    "phone": "(786) 671-8271",
    "address": "3737 NW 53rd St  Miami, FL 33142",
    "location": "Orange"
  },
  {
    "name": "Miracle of Christ",
    "description": "Clothing Stores",
    "phone": "(786) 357-3171",
    "address": "5900 NW 6th Ave Apt 209  Miami, FL 33127",
    "location": "Orange"
  },
  {
    "name": "Bhoom Shanti Inc",
    "description": "Clothing Stores",
    "phone": "(305) 758-8282",
    "address": "5050 Biscayne Blvd Ste 100  Miami, FL 33137",
    "location": "Orange"
  },
  {
    "name": "Crystal Clothing Inc",
    "description": "Clothing Stores",
    "phone": "(786) 360-5692",
    "address": "6109 NW 6th Ct  Miami, FL 33127",
    "location": "Orange"
  },
  {
    "name": "Prezi Apparel LLC",
    "description": "Clothing Stores",
    "phone": "(786) 967-1113",
    "address": "1738 SW 57th Ave #414  Miami, FL 33155",
    "location": "Orange"
  },
  {
    "name": "Name Brand Fashions Outlet",
    "description": "Clothing Stores",
    "phone": "(305) 635-8484",
    "address": "3690 NW 62nd St  Miami, FL 33147",
    "location": "Orange"
  },
  {
    "name": "Anatomie Fashion",
    "description": "Clothing Stores",
    "phone": "(305) 576-1900",
    "address": "6701 NW 4th Ave  Miami, FL 33150",
    "location": "Orange"
  },
  {
    "name": "Built Different",
    "description": "Clothing Stores",
    "phone": "(305) 487-3936",
    "address": "6889 NW 7th Ave  Miami, FL 33150",
    "location": "Orange"
  },
  {
    "name": "Citi Trends",
    "description": "Clothing Stores",
    "phone": "(786) 401-4876",
    "address": "901 E 10th Ave Ste 25  Hialeah, FL 33010",
    "location": "Orange"
  },
  {
    "name": "Calypso St Barth",
    "description": "Clothing Stores",
    "phone": "(305) 448-7642",
    "address": "320 San Lorenzo Ave Ste 1220  Coral Gables, FL 33146",
    "location": "Orange"
  },
  {
    "name": "Johnny Was",
    "description": "Clothing Stores",
    "phone": "(305) 351-4037",
    "address": "342 San Lorenzo Ave Ste 1035  Coral Gables, FL 33146",
    "location": "Orange"
  },
  {
    "name": "Faconnable",
    "description": "Clothing Stores",
    "phone": "(305) 774-5868",
    "address": "342 San Lorenzo Ave Ste 1005  Coral Gables, FL 33146",
    "location": "Orange"
  },
  {
    "name": "J. Crew",
    "description": "Clothing Stores",
    "phone": "(305) 567-0781",
    "address": "342 San Lorenzo Ave  Coral Gables, FL 33146",
    "location": "Orange"
  },
  {
    "name": "120 Lino",
    "description": "Clothing Stores",
    "phone": "(305) 774-1212",
    "address": "342 San Lorenzo Ave  Coral Gables, FL 33146",
    "location": "Orange"
  },
  {
    "name": "Banana Republic",
    "description": "Clothing Stores",
    "phone": "(305) 448-9263",
    "address": "350 San Lorenzo Ave  Coral Gables, FL 33146",
    "location": "Orange"
  },
  {
    "name": "Splendid",
    "description": "Clothing Stores",
    "phone": "(305) 465-1551",
    "address": "350 San Lorenzo Ave Ste 2025  Coral Gables, FL 33146",
    "location": "Orange"
  },
  {
    "name": "Shops at Merrick Park",
    "description": "Clothing Stores",
    "phone": "(305) 529-1215",
    "address": "358 San Lorenzo Ave  Coral Gables, FL 33146",
    "location": "Orange"
  },
  {
    "name": "UNTUCKit",
    "description": "Clothing Stores",
    "phone": "(305) 908-4594",
    "address": "358 San Lorenzo Ave Spc 1105  Coral Gables, FL 33146",
    "location": "Orange"
  },
  {
    "name": "Vineyard Vines",
    "description": "Clothing Stores",
    "phone": "(305) 442-1580",
    "address": "358 San Lorenzo Ave Ste 1045  Coral Gables, FL 33146",
    "location": "Orange"
  },
  {
    "name": "Lacoste *Closed*",
    "description": "Clothing Stores",
    "phone": "(305) 460-9901",
    "address": "360 San Lorenzo Ave Ste 1515  Coral Gables, FL 33146",
    "location": "Orange"
  },
  {
    "name": "Lucertola Corp Inc",
    "description": "Clothing Stores",
    "phone": "(305) 930-3296",
    "address": "5545 SW 8th St  Coral Gables, FL 33134",
    "location": "Orange"
  },
  {
    "name": "Neology",
    "description": "Clothing Stores",
    "phone": "(786) 614-6166",
    "address": "1149 Oakwood Dr  Miami Springs, FL 33166",
    "location": "Orange"
  },
  {
    "name": "Jaimie Nicole",
    "description": "Clothing Stores",
    "phone": "(305) 351-7704",
    "address": "4649 Ponce De Leon Blvd  Coral Gables, FL 33146",
    "location": "Orange"
  },
  {
    "name": "Inkt-Shirt",
    "description": "Clothing Stores",
    "phone": "(305) 988-8424",
    "address": "521 SE 6th St  Hialeah, FL 33010",
    "location": "Orange"
  },
  {
    "name": "Florencia USA Inc",
    "description": "Clothing Stores",
    "phone": "(305) 662-6233",
    "address": "4030 Granada Blvd  Coral Gables, FL 33146",
    "location": "Orange"
  },
  {
    "name": "Brito Rodriguez Fashion Inc",
    "description": "Clothing Stores",
    "phone": "(786) 378-0640",
    "address": "570 Hialeah Dr  Hialeah, FL 33010",
    "location": "Orange"
  },
  {
    "name": "Jiby",
    "description": "Clothing Stores",
    "phone": "(786) 716-3606",
    "address": "1014 E 8th Ave  Hialeah, FL 33010",
    "location": "Orange"
  },
  {
    "name": "West2East Co.",
    "description": "Clothing Stores",
    "phone": "(786) 406-5393",
    "address": "170 Hialeah Dr Fl 33010  Hialeah, FL 33010",
    "location": "Orange"
  },
  {
    "name": "Mr Black Clothing",
    "description": "Clothing Stores",
    "phone": "(305) 635-8008",
    "address": "2210 NW 62nd St  Miami, FL 33147",
    "location": "Orange"
  },
  {
    "name": "J.Crew",
    "description": "Clothing Stores",
    "phone": "(305) 444-3162",
    "address": "350 San Lorenzo Ave Ste 2205  Coral Gables, FL 33146",
    "location": "Orange"
  },
  {
    "name": "ANA Fashion Store",
    "description": "Clothing Stores",
    "phone": "(305) 266-8984",
    "address": "6105 SW 8th St  West Miami, FL 33144",
    "location": "Orange"
  },
  {
    "name": "Upstairs Basement",
    "description": "Clothing Stores",
    "phone": "(305) 774-0802",
    "address": "321 San Lorenzo Ave  Coral Gables, FL 33146",
    "location": "Orange"
  },
  {
    "name": "July's Clothing",
    "description": "Clothing Stores",
    "phone": "(305) 264-7442",
    "address": "5755 W Flagler St  Miami, FL 33144",
    "location": "Orange"
  },
  {
    "name": "Diane Von Furstenberg The Shop",
    "description": "Clothing Stores",
    "phone": "(305) 446-4003",
    "address": "320 San Lorenzo Ave  Coral Gables, FL 33146",
    "location": "Orange"
  },
  {
    "name": "United Colors of Benetton",
    "description": "Clothing Stores",
    "phone": "(786) 552-7901",
    "address": "350 San Lorenzo Ave  Coral Gables, FL 33146",
    "location": "Orange"
  },
  {
    "name": "Lisa Todd, Inc.",
    "description": "Clothing Stores",
    "phone": "(305) 448-0880",
    "address": "350 San Lorenzo Ave Ste 2035  Coral Gables, FL 33146",
    "location": "Orange"
  },
  {
    "name": "La Casa De Las Guayaberas",
    "description": "Clothing Stores",
    "phone": "(305) 266-9683",
    "address": "5840 SW 8th St  West Miami, FL 33144",
    "location": "Orange"
  },
  {
    "name": "Hemworld",
    "description": "Clothing Stores",
    "phone": "(305) 477-4193",
    "address": "7400 Biscayne Blvd  Miami, FL 33138",
    "location": "Orange"
  },
  {
    "name": "Armani Exchange",
    "description": "Clothing Stores",
    "phone": "(305) 531-5900",
    "address": "760 Collins Ave  Miami Beach, FL 33139",
    "location": "Orange"
  },
  {
    "name": "Miami Twice",
    "description": "Clothing Stores",
    "phone": "(305) 666-0127",
    "address": "6562 Bird Rd  Miami, FL 33155",
    "location": "Orange"
  },
  {
    "name": "Mother Goose",
    "description": "Clothing Stores",
    "phone": "(786) 233-2037",
    "address": "4910 SW 72nd Ave  Miami, FL 33155",
    "location": "Orange"
  },
  {
    "name": "Ohm Boutique",
    "description": "Clothing Stores",
    "phone": "(305) 284-8455",
    "address": "1561 Sunset Dr  Miami, FL 33143",
    "location": "Orange"
  },
  {
    "name": "MNG by Mango",
    "description": "Clothing Stores",
    "phone": "(305) 534-5433",
    "address": "550 Collins Ave  Miami Beach, FL 33139",
    "location": "Orange"
  },
  {
    "name": "Bikini.Com",
    "description": "Clothing Stores",
    "phone": "(305) 932-6655",
    "address": "2001 Meridian Ave  Miami Beach, FL 33139",
    "location": "Orange"
  },
  {
    "name": "Club Monaco",
    "description": "Clothing Stores",
    "phone": "(305) 674-7446",
    "address": "624 Collins Ave  Miami Beach, FL 33139",
    "location": "Orange"
  },
  {
    "name": "Kristina Milu Kollection",
    "description": "Clothing Stores",
    "phone": "(305) 456-4916",
    "address": "861 NE 79th St  Miami, FL 33138",
    "location": "Orange"
  },
  {
    "name": "KMG TRADING LLC",
    "description": "Clothing Stores",
    "phone": "(786) 472-9570",
    "address": "777 NW 72nd Ave  Miami, FL 33126",
    "location": "Orange"
  },
  {
    "name": "Mercyda Fashion",
    "description": "Clothing Stores",
    "phone": "(786) 388-4818",
    "address": "8078 NW 10th St  Miami, FL 33126",
    "location": "Orange"
  },
  {
    "name": "DD's Discounts",
    "description": "Clothing Stores",
    "phone": "(305) 836-9130",
    "address": "7900 NW 27th Ave  Miami, FL 33147",
    "location": "Orange"
  },
  {
    "name": "Queen Sweet Clothing & Apparel",
    "description": "Clothing Stores",
    "phone": "(786) 558-5541",
    "address": "6601 SW 8th St  Miami, FL 33144",
    "location": "Orange"
  },
  {
    "name": "Carzulas Fashion",
    "description": "Clothing Stores",
    "phone": "(305) 381-0839",
    "address": "777 NW 72nd Ave  Miami, FL 33126",
    "location": "Orange"
  },
  {
    "name": "Movaz Tech",
    "description": "Clothing Stores",
    "phone": "(786) 838-8811",
    "address": "4797 NW 72nd Ave  Miami, FL 33166",
    "location": "Orange"
  },
  {
    "name": "Alkov Fashion",
    "description": "Clothing Stores",
    "phone": "(786) 285-0363",
    "address": "3545 NW 71st St  Miami, FL 33147",
    "location": "Orange"
  },
  {
    "name": "Dweebz Apparel",
    "description": "Clothing Stores",
    "phone": "(786) 502-6971",
    "address": "440 NW 73rd Ter  Miami, FL 33150",
    "location": "Orange"
  },
  {
    "name": "JAH FORTUNE Incorporated",
    "description": "Clothing Stores",
    "phone": "(954) 477-9833",
    "address": "7632 NW 22nd Ave  Miami, FL 33147",
    "location": "Orange"
  },
  {
    "name": "Eyers One Inc",
    "description": "Clothing Stores",
    "phone": "(305) 693-8400",
    "address": "7401 NW 32nd Ave  Miami, FL 33147",
    "location": "Orange"
  },
  {
    "name": "American Eagle Outfitters",
    "description": "Clothing Stores",
    "phone": "(786) 558-8158",
    "address": "565 NE 69th St  Miami, FL 33138",
    "location": "Orange"
  },
  {
    "name": "Pixie Market",
    "description": "Clothing Stores",
    "phone": "(305) 960-7481",
    "address": "7307 NE 1st Pl  Miami, FL 33138",
    "location": "Orange"
  },
  {
    "name": "La Revoltosa",
    "description": "Clothing Stores",
    "phone": "(305) 262-7142",
    "address": "1012 SW 67th Ave  Miami, FL 33144",
    "location": "Orange"
  },
  {
    "name": "KD Urban Wear",
    "description": "Clothing Stores",
    "phone": "(786) 899-0622",
    "address": "7900 NW 27th Ave  Miami, FL 33147",
    "location": "Orange"
  },
  {
    "name": "Julian Chang",
    "description": "Clothing Stores",
    "phone": "(786) 360-2631",
    "address": "7416 Biscayne Blvd  Miami, FL 33138",
    "location": "Orange"
  },
  {
    "name": "Bootyful Roses",
    "description": "Clothing Stores",
    "phone": "(305) 778-1393",
    "address": "3010 NW 83rd Ter  Miami, FL 33147",
    "location": "Orange"
  },
  {
    "name": "Da Bottom Clothing",
    "description": "Clothing Stores",
    "phone": "(954) 249-6834",
    "address": "7814 NE 4th Ct  Miami, FL 33138",
    "location": "Orange"
  },
  {
    "name": "8&9 Clothing",
    "description": "Clothing Stores",
    "phone": "(786) 409-2538",
    "address": "7814 NE 4th Ct  Miami, FL 33138",
    "location": "Orange"
  },
  {
    "name": "BEFOREourtime Retail Group",
    "description": "Clothing Stores",
    "phone": "(888) 843-4996",
    "address": "8163 NE 2nd Ave  Miami, FL 33138",
    "location": "Orange"
  },
  {
    "name": "Cool J's",
    "description": "Clothing Stores",
    "phone": "(305) 754-4571",
    "address": "8040 NE 5th Ave  Miami, FL 33138",
    "location": "Orange"
  },
  {
    "name": "Ranees",
    "description": "Clothing Stores",
    "phone": "(305) 265-8262",
    "address": "755 NW 72nd Ave  Miami, FL 33126",
    "location": "Orange"
  },
  {
    "name": "Scagati Group",
    "description": "Clothing Stores",
    "phone": "(786) 717-7244",
    "address": "755 NW 72nd Ave  Miami, FL 33126",
    "location": "Orange"
  },
  {
    "name": "Hidalgo's Children's Wear",
    "description": "Clothing Stores",
    "phone": "(305) 599-8717",
    "address": "777 NW 72nd Ave  Miami, FL 33126",
    "location": "Orange"
  },
  {
    "name": "Cano Bueno Group",
    "description": "Clothing Stores",
    "phone": "(786) 536-7650",
    "address": "777 NW 72nd Ave  Miami, FL 33126",
    "location": "Orange"
  },
  {
    "name": "NF Fashion",
    "description": "Clothing Stores",
    "phone": "(786) 803-8023",
    "address": "777 NW 72nd Ave  Miami, FL 33126",
    "location": "Orange"
  },
  {
    "name": "Canonlybeboutique",
    "description": "Clothing Stores",
    "phone": "(877) 890-7820",
    "address": "1150 NW 72nd Ave  Miami, FL 33126",
    "location": "Orange"
  },
  {
    "name": "Peppermintsblur Boutique",
    "description": "Clothing Stores",
    "phone": "(954) 354-3980",
    "address": "20 Northwest Blvd  Miami, FL 33126",
    "location": "Orange"
  },
  {
    "name": "Felix High Fashion",
    "description": "Clothing Stores",
    "phone": "(305) 263-1157",
    "address": "7301 W Flagler St  Miami, FL 33144",
    "location": "Orange"
  },
  {
    "name": "Clothing & More",
    "description": "Clothing Stores",
    "phone": "(786) 254-7188",
    "address": "471 NE 81st St  Miami, FL 33138",
    "location": "Orange"
  },
  {
    "name": "Mabel Love Boutique",
    "description": "Clothing Stores",
    "phone": "(305) 766-8530",
    "address": "8375 NE 2nd Ave  Miami, FL 33138",
    "location": "Orange"
  },
  {
    "name": "BOSS Travel Shop",
    "description": "Clothing Stores",
    "phone": "(305) 876-0775",
    "address": "5200 Nw 21st Street Terminal J 2nd Floor Suite #E2693  Miami, FL 33122",
    "location": "Orange"
  }
]