[
  {
    "name": "Loro Piana",
    "description": "Clothing Stores",
    "phone": "(561) 833-7016",
    "address": "244 Worth Ave  Palm Beach, FL 33480",
    "location": "Palm_Beach"
  },
  {
    "name": "Peter Millar",
    "description": "Clothing Stores",
    "phone": "(561) 833-8332",
    "address": "313 Worth Ave  Palm Beach, FL 33480",
    "location": "Palm_Beach"
  },
  {
    "name": "Pastel Palm Beach",
    "description": "Clothing Stores",
    "phone": "(561) 655-7995",
    "address": "139 N County Rd Ste 5  Palm Beach, FL 33480",
    "location": "Palm_Beach"
  },
  {
    "name": "Calypso St Barth",
    "description": "Clothing Stores",
    "phone": "(561) 832-5006",
    "address": "247b Worth Ave  Palm Beach, FL 33480",
    "location": "Palm_Beach"
  },
  {
    "name": "Trillion Sartoria",
    "description": "Clothing Stores",
    "phone": "(561) 833-6158",
    "address": "326 Peruvian Ave  Palm Beach, FL 33480",
    "location": "Palm_Beach"
  },
  {
    "name": "Lilly Pulitzer Clothing",
    "description": "Clothing Stores",
    "phone": "(561) 659-1284",
    "address": "336 S County Rd  Palm Beach, FL 33480",
    "location": "Palm_Beach"
  },
  {
    "name": "Vince.",
    "description": "Clothing Stores",
    "phone": "(561) 659-5300",
    "address": "326 S County Rd  Palm Beach, FL 33480",
    "location": "Palm_Beach"
  },
  {
    "name": "Tommy Hilfiger",
    "description": "Clothing Stores",
    "phone": "(561) 688-1133",
    "address": "Palm Beach Outlets 1771 Palm Beach Lakes Blvd Ste W317  West Palm Beach, FL 33401",
    "location": "Palm_Beach"
  },
  {
    "name": "Jackie Rogers Inc",
    "description": "Clothing Stores",
    "phone": "(561) 469-9950",
    "address": "256 Worth Ave  Palm Beach, FL 33480",
    "location": "Palm_Beach"
  },
  {
    "name": "Valentino",
    "description": "Clothing Stores",
    "phone": "(561) 659-7533",
    "address": "204 Worth Ave  Palm Beach, FL 33480",
    "location": "Palm_Beach"
  },
  {
    "name": "Maus And Hoffman",
    "description": "Clothing Stores",
    "phone": "(561) 655-1141",
    "address": "312 Worth Ave  Palm Beach, FL 33480",
    "location": "Palm_Beach"
  },
  {
    "name": "Urban Outfitters",
    "description": "Clothing Stores",
    "phone": "(561) 625-5304",
    "address": "700 S Rosemary Ave Ste 120  West Palm Beach, FL 33401",
    "location": "Palm_Beach"
  },
  {
    "name": "Donald's Fashion & Alterations Inc",
    "description": "Clothing Stores",
    "phone": "(561) 514-9878",
    "address": "350 S County Rd  Palm Beach, FL 33480",
    "location": "Palm_Beach"
  },
  {
    "name": "Ralph Lauren",
    "description": "Clothing Stores",
    "phone": "(561) 651-3900",
    "address": "300 Worth Ave  Palm Beach, FL 33480",
    "location": "Palm_Beach"
  },
  {
    "name": "God's Holy Armor",
    "description": "Clothing Stores",
    "phone": "(347) 625-7687",
    "address": "3460 S Ocean Blvd  Palm Beach, FL 33480",
    "location": "Palm_Beach"
  },
  {
    "name": "American Eagle Outfitters Inc",
    "description": "Clothing Stores",
    "phone": "(561) 273-1409",
    "address": "150 Worth Ave  Palm Beach, FL 33480",
    "location": "Palm_Beach"
  },
  {
    "name": "Vineyard Vines",
    "description": "Clothing Stores",
    "phone": "(561) 659-5900",
    "address": "305 Worth Ave  Palm Beach, FL 33480",
    "location": "Palm_Beach"
  },
  {
    "name": "Theory",
    "description": "Clothing Stores",
    "phone": "(561) 227-0029",
    "address": "340 Royal Poinciana Way  Palm Beach, FL 33480",
    "location": "Palm_Beach"
  },
  {
    "name": "H&M (Hennes & Mauritz)",
    "description": "Clothing Stores",
    "phone": "(855) 466-7467",
    "address": "700 S Rosemary Ave  West Palm Beach, FL 33401",
    "location": "Palm_Beach"
  },
  {
    "name": "Sandro",
    "description": "Clothing Stores",
    "phone": "(561) 650-0371",
    "address": "247 Worth Ave  Palm Beach, FL 33480",
    "location": "Palm_Beach"
  },
  {
    "name": "Kapsiki",
    "description": "Clothing Stores",
    "phone": "(561) 832-7432",
    "address": "235 Worth Ave  Palm Beach, FL 33480",
    "location": "Palm_Beach"
  },
  {
    "name": "Escada + Escada Sport Store",
    "description": "Clothing Stores",
    "phone": "(561) 835-9700",
    "address": "222 Worth Ave  Palm Beach, FL 33480",
    "location": "Palm_Beach"
  },
  {
    "name": "Mario Romano Capri Palm Beach",
    "description": "Clothing Stores",
    "phone": "(561) 207-7583",
    "address": "306 S County Rd  Palm Beach, FL 33480",
    "location": "Palm_Beach"
  },
  {
    "name": "Vlfm",
    "description": "Clothing Stores",
    "phone": "(561) 475-6010",
    "address": "209A Worth Ave  Palm Beach, FL 33480",
    "location": "Palm_Beach"
  },
  {
    "name": "Brioni Clothing",
    "description": "Clothing Stores",
    "phone": "(561) 650-0038",
    "address": "251 Worth Ave  Palm Beach, FL 33480",
    "location": "Palm_Beach"
  },
  {
    "name": "Brunello Cucinelli Palm Beach",
    "description": "Clothing Stores",
    "phone": "(561) 671-5977",
    "address": "216 Worth Ave  Palm Beach, FL 33480",
    "location": "Palm_Beach"
  },
  {
    "name": "B F Enterprises Inc",
    "description": "Clothing Stores",
    "phone": "(561) 833-7001",
    "address": "125 Worth Ave Ste 219  Palm Beach, FL 33480",
    "location": "Palm_Beach"
  },
  {
    "name": "Palladium Moda SRL",
    "description": "Clothing Stores",
    "phone": "(305) 371-6564",
    "address": "333 Worth Ave  Palm Beach, FL 33480",
    "location": "Palm_Beach"
  },
  {
    "name": "Pool Lab Show",
    "description": "Clothing Stores",
    "phone": "(561) 249-0041",
    "address": "450 S County Rd  Palm Beach, FL 33480",
    "location": "Palm_Beach"
  },
  {
    "name": "Eleventy USA",
    "description": "Clothing Stores",
    "phone": "(561) 429-6382",
    "address": "450 S County Rd  Palm Beach, FL 33480",
    "location": "Palm_Beach"
  },
  {
    "name": "Anatomie",
    "description": "Clothing Stores",
    "phone": "(561) 766-2218",
    "address": "118 N County Rd  Palm Beach, FL 33480",
    "location": "Palm_Beach"
  },
  {
    "name": "Fine Stitch Of The Palm Beaches 2",
    "description": "Clothing Stores",
    "phone": "(561) 721-9040",
    "address": "340 Royal Poinciana Way  Palm Beach, FL 33480",
    "location": "Palm_Beach"
  },
  {
    "name": "Cynthis Rowley",
    "description": "Clothing Stores",
    "phone": "(561) 517-0576",
    "address": "340 Royal Poinciana Way  Palm Beach, FL 33480",
    "location": "Palm_Beach"
  },
  {
    "name": "Insit Outfit",
    "description": "Clothing Stores",
    "phone": "(561) 659-9900",
    "address": "255 Evernia St  West Palm Beach, FL 33401",
    "location": "Palm_Beach"
  },
  {
    "name": "American Soul",
    "description": "Clothing Stores",
    "phone": "(561) 557-4832",
    "address": "701 S Rosemary Ave Ste 117  West Palm Beach, FL 33401",
    "location": "Palm_Beach"
  },
  {
    "name": "Shop Reluxe",
    "description": "Clothing Stores",
    "phone": "(561) 355-0450",
    "address": "2514 Florida Ave  West Palm Beach, FL 33401",
    "location": "Palm_Beach"
  },
  {
    "name": "Sweet Possession Clothing",
    "description": "Clothing Stores",
    "phone": "(561) 444-3671",
    "address": "712 Belvedere Rd  West Palm Beach, FL 33405",
    "location": "Palm_Beach"
  },
  {
    "name": "Alex Fashions Inc",
    "description": "Clothing Stores",
    "phone": "(561) 659-2243",
    "address": "640 Belvedere Rd  West Palm Beach, FL 33405",
    "location": "Palm_Beach"
  },
  {
    "name": "Roberta Roller Rabbit",
    "description": "Clothing Stores",
    "phone": "(561) 833-4643",
    "address": "150 Worth Ave Ste 131  Palm Beach, FL 33480",
    "location": "Palm_Beach"
  },
  {
    "name": "Fashion Group",
    "description": "Clothing Stores",
    "phone": "(561) 659-9875",
    "address": "150 Worth Ave  Palm Beach, FL 33480",
    "location": "Palm_Beach"
  },
  {
    "name": "Tommy Bahama",
    "description": "Clothing Stores",
    "phone": "(561) 803-4696",
    "address": "701 S Rosemary Ave Ste 137  West Palm Beach, FL 33401",
    "location": "Palm_Beach"
  },
  {
    "name": "Kanvas Clothier",
    "description": "Clothing Stores",
    "phone": "(561) 228-8680",
    "address": "301 Clematis St Ste 3000  West Palm Beach, FL 33401",
    "location": "Palm_Beach"
  },
  {
    "name": "Macy's",
    "description": "Clothing Stores",
    "phone": "(561) 242-4085",
    "address": "575 S Rosemary Ave  West Palm Beach, FL 33401",
    "location": "Palm_Beach"
  },
  {
    "name": "Aristokids",
    "description": "Clothing Stores",
    "phone": "(561) 832-3596",
    "address": "309A S County Rd  Palm Beach, FL 33480",
    "location": "Palm_Beach"
  },
  {
    "name": "Unsubscribed Store",
    "description": "Clothing Stores",
    "phone": "(561) 273-1409",
    "address": "150 Worth Ave Ste 131  Palm Beach, FL 33480",
    "location": "Palm_Beach"
  },
  {
    "name": "Max Mara",
    "description": "Clothing Stores",
    "phone": "(561) 832-0069",
    "address": "206 Worth Ave  Palm Beach, FL 33480",
    "location": "Palm_Beach"
  },
  {
    "name": "Greyson Clothiers",
    "description": "Clothing Stores",
    "phone": "(313) 307-4733",
    "address": "700 S Rosemary Ave Ste 126  West Palm Beach, FL 33401",
    "location": "Palm_Beach"
  },
  {
    "name": "J.McLaughlin",
    "description": "Clothing Stores",
    "phone": "(561) 655-5973",
    "address": "225 Worth Ave  Palm Beach, FL 33480",
    "location": "Palm_Beach"
  },
  {
    "name": "Ferragamo",
    "description": "Clothing Stores",
    "phone": "(561) 659-0602",
    "address": "200 Worth Ave  Palm Beach, FL 33480",
    "location": "Palm_Beach"
  },
  {
    "name": "UNTUCKit",
    "description": "Clothing Stores",
    "phone": "(561) 420-0566",
    "address": "700 S Rosemary Ave  West Palm Beach, FL 33401",
    "location": "Palm_Beach"
  },
  {
    "name": "Tory Burch",
    "description": "Clothing Stores",
    "phone": "(561) 366-9629",
    "address": "255 Worth Ave  Palm Beach, FL 33480",
    "location": "Palm_Beach"
  },
  {
    "name": "Lilly Pulitzer",
    "description": "Clothing Stores",
    "phone": "(561) 653-8282",
    "address": "240 Worth Ave  Palm Beach, FL 33480",
    "location": "Palm_Beach"
  },
  {
    "name": "Marley's Palm Beach Collection",
    "description": "Clothing Stores",
    "phone": "(561) 721-1022",
    "address": "256 Worth Ave Ste R  Palm Beach, FL 33480",
    "location": "Palm_Beach"
  },
  {
    "name": "Vilebrequin",
    "description": "Clothing Stores",
    "phone": "(561) 835-0170",
    "address": "335 Worth Ave  Palm Beach, FL 33480",
    "location": "Palm_Beach"
  },
  {
    "name": "Saint Laurent",
    "description": "Clothing Stores",
    "phone": "(561) 614-3900",
    "address": "340 Poinciana Way Suite M300palm Beach Florida United States 33480  Palm Beach, FL 33480",
    "location": "Palm_Beach"
  },
  {
    "name": "Dolce & Gabbana",
    "description": "Clothing Stores",
    "phone": "(561) 408-1010",
    "address": "C/O The Colony Hotel 155 Hammon Ave  Palm Beach, FL 33480",
    "location": "Palm_Beach"
  },
  {
    "name": "Gucci - 150 Worth Shops",
    "description": "Clothing Stores",
    "phone": "(561) 655-6955",
    "address": "225 Worth Ave Ste C  Palm Beach, FL 33480",
    "location": "Palm_Beach"
  },
  {
    "name": "T-Shirt Express",
    "description": "Clothing Stores",
    "phone": "(561) 258-9066",
    "address": "777 S Flagler Dr Ste 800  West Palm Beach, FL 33401",
    "location": "Palm_Beach"
  },
  {
    "name": "Beach by Everything But Water",
    "description": "Clothing Stores",
    "phone": "(561) 820-1564",
    "address": "340 Royal Poinciana Way  Palm Beach, FL 33480",
    "location": "Palm_Beach"
  },
  {
    "name": "Herm√®s",
    "description": "Clothing Stores",
    "phone": "(561) 514-0288",
    "address": "340 Royal Poinciana Way  Palm Beach, FL 33480",
    "location": "Palm_Beach"
  },
  {
    "name": "Journeys",
    "description": "Clothing Stores",
    "phone": "(561) 832-6880",
    "address": "550 S Rosemary Ave Ste 162  West Palm Beach, FL 33401",
    "location": "Palm_Beach"
  },
  {
    "name": "120 Percent Lino",
    "description": "Clothing Stores",
    "phone": "(561) 833-0711",
    "address": "333 Worth Ave  Palm Beach, FL 33480",
    "location": "Palm_Beach"
  },
  {
    "name": "Versace",
    "description": "Clothing Stores",
    "phone": "(561) 925-7337",
    "address": "243 Worth Ave Ste A  Palm Beach, FL 33480",
    "location": "Palm_Beach"
  },
  {
    "name": "Trillion",
    "description": "Clothing Stores",
    "phone": "(561) 832-3525",
    "address": "315 Worth Ave  Palm Beach, FL 33480",
    "location": "Palm_Beach"
  },
  {
    "name": "Zadig & Voltaire",
    "description": "Clothing Stores",
    "phone": "(561) 514-0497",
    "address": "340 Royal Poinciana Way Ste M322B  Palm Beach, FL 33480",
    "location": "Palm_Beach"
  },
  {
    "name": "Eye of the Needle Palm Beach, Inc.",
    "description": "Clothing Stores",
    "phone": "(561) 833-4533",
    "address": "313 1/2 Worth Ave Ste C2  Palm Beach, FL 33480",
    "location": "Palm_Beach"
  },
  {
    "name": "Sears",
    "description": "Clothing Stores",
    "phone": "(561) 844-1192",
    "address": "1220 Lake Ave  West Palm Beach, FL 33401",
    "location": "Palm_Beach"
  },
  {
    "name": "C Orrico Clothing Company",
    "description": "Clothing Stores",
    "phone": "(561) 659-7820",
    "address": "336 S County Rd  Palm Beach, FL 33480",
    "location": "Palm_Beach"
  },
  {
    "name": "Socapri Holdings USA",
    "description": "Clothing Stores",
    "phone": "(561) 802-9940",
    "address": "235 Worth Ave  Palm Beach, FL 33480",
    "location": "Palm_Beach"
  },
  {
    "name": "Giorgio Armani",
    "description": "Clothing Stores",
    "phone": "(561) 655-1641",
    "address": "243 Worth Ave  Palm Beach, FL 33480",
    "location": "Palm_Beach"
  },
  {
    "name": "St. John Knits Boutique",
    "description": "Clothing Stores",
    "phone": "(561) 833-5564",
    "address": "256 Worth Ave  Palm Beach, FL 33480",
    "location": "Palm_Beach"
  },
  {
    "name": "Stongboalt",
    "description": "Clothing Stores",
    "phone": "(561) 530-7333",
    "address": "326 Peruvian Ave  Palm Beach, FL 33480",
    "location": "Palm_Beach"
  },
  {
    "name": "Spring Flowers Inc",
    "description": "Clothing Stores",
    "phone": "(561) 832-0131",
    "address": "320 Worth Ave  Palm Beach, FL 33480",
    "location": "Palm_Beach"
  },
  {
    "name": "Style Paris",
    "description": "Clothing Stores",
    "phone": "(561) 820-8084",
    "address": "337 Worth Ave  Palm Beach, FL 33480",
    "location": "Palm_Beach"
  },
  {
    "name": "Free-est",
    "description": "Clothing Stores",
    "phone": "(754) 318-2367",
    "address": "245 Royal Poinciana Way  Palm Beach, FL 33480",
    "location": "Palm_Beach"
  },
  {
    "name": "Roller Rabbit",
    "description": "Clothing Stores",
    "phone": "(561) 833-4643",
    "address": "340 Royal Poinciana Way  Palm Beach, FL 33480",
    "location": "Palm_Beach"
  },
  {
    "name": "Ricardo Inc",
    "description": "Clothing Stores",
    "phone": "(561) 370-3552",
    "address": "423 S Olive Ave  West Palm Beach, FL 33401",
    "location": "Palm_Beach"
  },
  {
    "name": "Altona",
    "description": "Clothing Stores",
    "phone": "(561) 832-0303",
    "address": "413 Australian Avenue Dock  Palm Beach, FL 33480",
    "location": "Palm_Beach"
  },
  {
    "name": "Cache",
    "description": "Clothing Stores",
    "phone": "(561) 802-1751",
    "address": "701 S Rosemary Ave Ste 123  West Palm Beach, FL 33401",
    "location": "Palm_Beach"
  },
  {
    "name": "Urban Wear Connection Inc",
    "description": "Clothing Stores",
    "phone": "(561) 835-4944",
    "address": "1417 N Tamarind Ave  West Palm Beach, FL 33401",
    "location": "Palm_Beach"
  },
  {
    "name": "Zegna Boutique",
    "description": "Clothing Stores",
    "phone": "(561) 327-9447",
    "address": "212 Worth Ave  Palm Beach, FL 33480",
    "location": "Palm_Beach"
  },
  {
    "name": "Cruciani Paml Beach",
    "description": "Clothing Stores",
    "phone": "(561) 833-3373",
    "address": "313 Worth Ave  Palm Beach, FL 33480",
    "location": "Palm_Beach"
  },
  {
    "name": "Biba",
    "description": "Clothing Stores",
    "phone": "(561) 249-2739",
    "address": "323 Worth Ave  Palm Beach, FL 33480",
    "location": "Palm_Beach"
  },
  {
    "name": "Tomas Maier Beach Wear",
    "description": "Clothing Stores",
    "phone": "(561) 650-1221",
    "address": "38 Via Mizner  Palm Beach, FL 33480",
    "location": "Palm_Beach"
  },
  {
    "name": "Kirna Zabete",
    "description": "Clothing Stores",
    "phone": "(561) 791-6075",
    "address": "340 Royal Poinciana Way  Palm Beach, FL 33480",
    "location": "Palm_Beach"
  },
  {
    "name": "Lucky Brand Jeans",
    "description": "Clothing Stores",
    "phone": "(561) 366-4596",
    "address": "700 S Rosemary Ave Ste 126  West Palm Beach, FL 33401",
    "location": "Palm_Beach"
  },
  {
    "name": "Chanel",
    "description": "Clothing Stores",
    "phone": "(561) 655-1550",
    "address": "301 Worth Ave  Palm Beach, FL 33480",
    "location": "Palm_Beach"
  },
  {
    "name": "Bottega Veneta Palm Beach Worth Avenue",
    "description": "Clothing Stores",
    "phone": "(561) 833-3701",
    "address": "239 Worth Ave  Palm Beach, FL 33480",
    "location": "Palm_Beach"
  },
  {
    "name": "Leggiadro of Palm Beach Inc",
    "description": "Clothing Stores",
    "phone": "(561) 655-7105",
    "address": "317 Worth Ave  Palm Beach, FL 33480",
    "location": "Palm_Beach"
  },
  {
    "name": "Bertex",
    "description": "Clothing Stores",
    "phone": "(561) 795-4040",
    "address": "411 7th St  West Palm Beach, FL 33401",
    "location": "Palm_Beach"
  },
  {
    "name": "P B Boys Club Surf Report",
    "description": "Clothing Stores",
    "phone": "(561) 832-9299",
    "address": "307 S County Rd  Palm Beach, FL 33480",
    "location": "Palm_Beach"
  },
  {
    "name": "RICARDO Custom Clothing for Men",
    "description": "Men's Clothing",
    "phone": "(561) 370-3552",
    "address": "423 S Olive Ave  West Palm Beach, FL 33401",
    "location": "Palm_Beach"
  },
  {
    "name": "Run and Roll",
    "description": "Sporting Goods",
    "phone": "(561) 650-1200",
    "address": "330 Clematis St Ste 118  West Palm Beach, FL 33401",
    "location": "Palm_Beach"
  },
  {
    "name": "Giorgio's of Palm Beach",
    "description": "Department Stores",
    "phone": "(561) 655-2446",
    "address": "211 Worth Avenue  Palm Beach, FL 33480",
    "location": "Palm_Beach"
  },
  {
    "name": "Saks Fifth Avenue",
    "description": "Department Stores",
    "phone": "(561) 833-2551",
    "address": "172 Worth Ave  Palm Beach, FL 33480",
    "location": "Palm_Beach"
  },
  {
    "name": "Raymonde G. Couture",
    "description": "Women's Clothing",
    "phone": "(561) 833-9526",
    "address": "150 Worth Ave  Palm Beach, FL 33480",
    "location": "Palm_Beach"
  },
  {
    "name": "Island Company - Palm Beach",
    "description": "Men's Clothing",
    "phone": "(561) 655-3231",
    "address": "256 Worth Ave Ste 33480  Palm Beach, FL 33480",
    "location": "Palm_Beach"
  },
  {
    "name": "Hermes",
    "description": "Department Stores",
    "phone": "(561) 514-0288",
    "address": "340 Royal Poinciana Way  Palm Beach, FL 33480",
    "location": "Palm_Beach"
  },
  {
    "name": "Stoney Clover Lane",
    "description": "Department Stores",
    "phone": "(561) 440-2040",
    "address": "340 Royal Poinciana Way  Palm Beach, FL 33480",
    "location": "Palm_Beach"
  },
  {
    "name": "Lots of Yachts",
    "description": "Department Stores",
    "phone": "(917) 691-5688",
    "address": "401 Clematis St  West Palm Beach, FL 33401",
    "location": "Palm_Beach"
  },
  {
    "name": "Lululemon",
    "description": "Sportswear",
    "phone": "(561) 621-3431",
    "address": "701 S Rosemary Ave Ste 141  West Palm Beach, FL 33401",
    "location": "Palm_Beach"
  },
  {
    "name": "Carrie-Me Couture",
    "description": "Business Coaches & Consultants",
    "phone": "(561) 655-6244",
    "address": "223 Worth Ave  Palm Beach, FL 33480",
    "location": "Palm_Beach"
  },
  {
    "name": "Gucci",
    "description": "Women's Clothing",
    "phone": "(561) 655-7070",
    "address": "150 Worth Ave  Palm Beach, FL 33480",
    "location": "Palm_Beach"
  },
  {
    "name": "poeta",
    "description": "Women's Clothing",
    "phone": "(561) 207-7274",
    "address": "21 Via Mizner  Palm Beach, FL 33480",
    "location": "Palm_Beach"
  },
  {
    "name": "Oshun Hair Bar & Shhh Our Little Secret",
    "description": "Hair Stylists",
    "phone": "(561) 574-9670",
    "address": "410 Evernia St ste 114  West Palm Beach, FL 33401",
    "location": "Palm_Beach"
  },
  {
    "name": "Dina C's Fab & Funky Consignment Boutique",
    "description": "Consignment Service",
    "phone": "(561) 659-1420",
    "address": "1609 S Dixie Hwy Ste 2  West Palm Beach, FL 33401",
    "location": "Palm_Beach"
  },
  {
    "name": "Anthropologie",
    "description": "Women's Clothing",
    "phone": "(561) 805-8770",
    "address": "465 S Rosemary Ave  West Palm Beach, FL 33401",
    "location": "Palm_Beach"
  },
  {
    "name": "La Boutique Bellissima",
    "description": "Lingerie",
    "phone": "(561) 747-7809",
    "address": "1551 N Flagler Dr Ste 103  West Palm Beach, FL 33401",
    "location": "Palm_Beach"
  },
  {
    "name": "Neiman Marcus",
    "description": "Department Stores",
    "phone": "(800) 884-6137",
    "address": "151 Worth Ave  Palm Beach, FL 33480",
    "location": "Palm_Beach"
  },
  {
    "name": "HPB Island",
    "description": "Women's Clothing",
    "phone": "(561) 631-8946",
    "address": "209 Royal Poinciana Way  Palm Beach, FL 33480",
    "location": "Palm_Beach"
  },
  {
    "name": "Maje",
    "description": "Women's Clothing",
    "phone": "(561) 366-8313",
    "address": "249 Worth Ave  Palm Beach, FL 33480",
    "location": "Palm_Beach"
  },
  {
    "name": "Lifestyle So Chic",
    "description": "Department Stores",
    "phone": "(561) 946-2442",
    "address": "326 S County Rd  Palm Beach, FL 33480",
    "location": "Palm_Beach"
  },
  {
    "name": "Eye of the Needle Palm Beach",
    "description": "Shoe Stores",
    "phone": "(561) 833-4533",
    "address": "313 Worth Ave  Palm Beach, FL 33480",
    "location": "Palm_Beach"
  },
  {
    "name": "Mariko, Inc.",
    "description": "Department Stores",
    "phone": "(561) 655-5770",
    "address": "329 Worth Ave  Palm Beach, FL 33480",
    "location": "Palm_Beach"
  },
  {
    "name": "Aerin",
    "description": "Department Stores",
    "phone": "(561) 623-0906",
    "address": "33 Via Mizner  Palm Beach, FL 33480",
    "location": "Palm_Beach"
  },
  {
    "name": "Calle Gato Ocho",
    "description": "General Merchandise",
    "phone": "(561) 832-9101",
    "address": "303 Evernia St  West Palm Beach, FL 33401",
    "location": "Palm_Beach"
  },
  {
    "name": "Trea Sole At City Center",
    "description": "Department Stores",
    "phone": "(561) 671-1937",
    "address": "499 Evernia St  West Palm Beach, FL 33401",
    "location": "Palm_Beach"
  },
  {
    "name": "C Orrico",
    "description": "Department Stores",
    "phone": "(561) 619-9437",
    "address": "502 Palm St  West Palm Beach, FL 33401",
    "location": "Palm_Beach"
  },
  {
    "name": "Action Sports",
    "description": "Sportswear",
    "phone": "(561) 249-1531",
    "address": "537 Clematis St  West Palm Beach, FL 33401",
    "location": "Palm_Beach"
  },
  {
    "name": "Roebuck Property Corp",
    "description": "Department Stores",
    "phone": "(561) 655-6353",
    "address": "1241 Roebuck Ct  West Palm Beach, FL 33401",
    "location": "Palm_Beach"
  },
  {
    "name": "Evelyn & Arthur Inc",
    "description": "Women's Clothing",
    "phone": "(561) 833-1551",
    "address": "239 S County Rd  Palm Beach, FL 33480",
    "location": "Palm_Beach"
  },
  {
    "name": "JoS. A. Bank",
    "description": "Men's Clothing",
    "phone": "(561) 805-7364",
    "address": "251 Royal Palm Way  Palm Beach, FL 33480",
    "location": "Palm_Beach"
  },
  {
    "name": "kim renk",
    "description": "Women's Clothing",
    "phone": "(561) 429-8105",
    "address": "219 Worth Ave  Palm Beach, FL 33480",
    "location": "Palm_Beach"
  },
  {
    "name": "Juicy Couture",
    "description": "Women's Clothing",
    "phone": "(561) 868-7813",
    "address": "225 Worth Ave  Palm Beach, FL 33480",
    "location": "Palm_Beach"
  },
  {
    "name": "Kate Spade",
    "description": "Women's Clothing",
    "phone": "(561) 366-1384",
    "address": "225 Worth Ave  Palm Beach, FL 33480",
    "location": "Palm_Beach"
  },
  {
    "name": "55 Croisette",
    "description": "Women's Clothing",
    "phone": "(561) 355-4244",
    "address": "237 Worth Ave  Palm Beach, FL 33480",
    "location": "Palm_Beach"
  },
  {
    "name": "Badgley Mischka",
    "description": "Women's Clothing",
    "phone": "(561) 655-0724",
    "address": "251 Worth Ave  Palm Beach, FL 33480",
    "location": "Palm_Beach"
  },
  {
    "name": "Herve Leger",
    "description": "Women's Clothing",
    "phone": "(561) 366-1266",
    "address": "206 Worth Ave  Palm Beach, FL 33480",
    "location": "Palm_Beach"
  },
  {
    "name": "Intermix",
    "description": "Women's Fashion Accessories",
    "phone": "(561) 832-4606",
    "address": "218 Worth Ave  Palm Beach, FL 33480",
    "location": "Palm_Beach"
  },
  {
    "name": "Mif Made In France",
    "description": "Women's Clothing",
    "phone": "(561) 820-0818",
    "address": "226 Worth Ave  Palm Beach, FL 33480",
    "location": "Palm_Beach"
  },
  {
    "name": "Michael Kors",
    "description": "Women's Clothing",
    "phone": "(561) 659-2929",
    "address": "226 Worth Ave  Palm Beach, FL 33480",
    "location": "Palm_Beach"
  },
  {
    "name": "Just Chic",
    "description": "Women's Fashion Accessories",
    "phone": "(561) 653-3913",
    "address": "240 Worth Ave  Palm Beach, FL 33480",
    "location": "Palm_Beach"
  },
  {
    "name": "Sabella Mikesell Couture",
    "description": "Women's Clothing",
    "phone": "(561) 318-8311",
    "address": "240 Worth Ave Unit 114  Palm Beach, FL 33480",
    "location": "Palm_Beach"
  },
  {
    "name": "Ladeda Limited Inc",
    "description": "Women's Clothing",
    "phone": "(561) 318-8311",
    "address": "256 Worth Ave  Palm Beach, FL 33480",
    "location": "Palm_Beach"
  },
  {
    "name": "Candi Cisco",
    "description": "Women's Clothing",
    "phone": "(561) 802-3333",
    "address": "150 Worth Ave Ste 214  Palm Beach, FL 33480",
    "location": "Palm_Beach"
  },
  {
    "name": "Anne Fontaine",
    "description": "Women's Clothing",
    "phone": "(561) 355-1373",
    "address": "150 Worth Ave  Palm Beach, FL 33480",
    "location": "Palm_Beach"
  },
  {
    "name": "Cashmere Beach",
    "description": "Women's Clothing",
    "phone": "(561) 802-3300",
    "address": "313 Worth Ave  Palm Beach, FL 33480",
    "location": "Palm_Beach"
  },
  {
    "name": "Coastal Girls Co",
    "description": "Women's Clothing",
    "phone": "(561) 619-5389",
    "address": "313 1/2 Worth Ave  Palm Beach, FL 33480",
    "location": "Palm_Beach"
  },
  {
    "name": "Sharis Place",
    "description": "Boutique Items",
    "phone": "(561) 855-2910",
    "address": "331 Worth Ave  Palm Beach, FL 33480",
    "location": "Palm_Beach"
  },
  {
    "name": "Gypsy",
    "description": "Women's Clothing",
    "phone": "(561) 832-1333",
    "address": "450 S County Rd  Palm Beach, FL 33480",
    "location": "Palm_Beach"
  },
  {
    "name": "Stubbs & Wootton",
    "description": "Men's Clothing",
    "phone": "(561) 655-6857",
    "address": "1 Via Parigi  Palm Beach, FL 33480",
    "location": "Palm_Beach"
  },
  {
    "name": "Cashmere Palm Beach",
    "description": "Women's Clothing",
    "phone": "(561) 659-5010",
    "address": "9 Via Parigi  Palm Beach, FL 33480",
    "location": "Palm_Beach"
  },
  {
    "name": "Muse of Generosity, Inc.",
    "description": "Greeting Cards",
    "phone": "(866) 565-4429",
    "address": "777 S Flagler Dr  West Palm Beach, FL 33401",
    "location": "Palm_Beach"
  },
  {
    "name": "Goop Inc",
    "description": "Women's Clothing",
    "phone": "(561) 366-1275",
    "address": "150 Royal Poinciana Plz  Palm Beach, FL 33480",
    "location": "Palm_Beach"
  },
  {
    "name": "Palm Produce Resortwear",
    "description": "Women's Clothing",
    "phone": "(561) 835-9777",
    "address": "217 Royal Poinciana Way  Palm Beach, FL 33480",
    "location": "Palm_Beach"
  },
  {
    "name": "Maxim's of Palm Beach",
    "description": "Consignment Service",
    "phone": "(561) 653-8181",
    "address": "219 Royal Poinciana Way  Palm Beach, FL 33480",
    "location": "Palm_Beach"
  },
  {
    "name": "Diane Firsten",
    "description": "Women's Clothing",
    "phone": "(561) 249-2492",
    "address": "249 Royal Poinciana Way  Palm Beach, FL 33480",
    "location": "Palm_Beach"
  },
  {
    "name": "Repunzels Closet",
    "description": "Women's Clothing",
    "phone": "(561) 659-3131",
    "address": "251 Royal Poinciana Way  Palm Beach, FL 33480",
    "location": "Palm_Beach"
  },
  {
    "name": "Couture & More",
    "description": "Women's Clothing",
    "phone": "(561) 835-9979",
    "address": "255 Royal Poinciana Way  Palm Beach, FL 33480",
    "location": "Palm_Beach"
  },
  {
    "name": "Evelyn & Arthur",
    "description": "Women's Clothing",
    "phone": "(561) 833-1551",
    "address": "100 N County Rd  Palm Beach, FL 33480",
    "location": "Palm_Beach"
  },
  {
    "name": "Cremieux",
    "description": "Men's Clothing",
    "phone": "(561) 225-1884",
    "address": "340 Royal Poinciana Way  Palm Beach, FL 33480",
    "location": "Palm_Beach"
  },
  {
    "name": "Orlebar Brown",
    "description": "Men's Clothing",
    "phone": "(561) 328-3204",
    "address": "340 Royal Poinciana Way  Palm Beach, FL 33480",
    "location": "Palm_Beach"
  },
  {
    "name": "Alice & Olivia",
    "description": "Women's Clothing",
    "phone": "(561) 412-2205",
    "address": "340 Royal Poinciana Way  Palm Beach, FL 33480",
    "location": "Palm_Beach"
  },
  {
    "name": "Hoit Mildred Inc",
    "description": "Women's Clothing",
    "phone": "(561) 833-6010",
    "address": "265 Sunrise Ave  Palm Beach, FL 33480",
    "location": "Palm_Beach"
  },
  {
    "name": "Back On the Rack Consignment",
    "description": "Consignment Service",
    "phone": "(561) 835-0006",
    "address": "219 S Olive Ave  West Palm Beach, FL 33401",
    "location": "Palm_Beach"
  },
  {
    "name": "Helga Wagner Boutique",
    "description": "Boutique Items",
    "phone": "(561) 655-6811",
    "address": "1400 Alabama Ave Ste 9  West Palm Beach, FL 33401",
    "location": "Palm_Beach"
  },
  {
    "name": "Victoria's Secret",
    "description": "Lingerie",
    "phone": "(561) 833-4248",
    "address": "700 S Rosemary Ave  West Palm Beach, FL 33401",
    "location": "Palm_Beach"
  },
  {
    "name": "Nine West",
    "description": "Shoe Stores",
    "phone": "(561) 655-2995",
    "address": "700 S Rosemary Ave  West Palm Beach, FL 33401",
    "location": "Palm_Beach"
  },
  {
    "name": "BCBGMAXAZRIA",
    "description": "Women's Clothing",
    "phone": "(561) 514-0181",
    "address": "700 S Rosemary Ave  West Palm Beach, FL 33401",
    "location": "Palm_Beach"
  },
  {
    "name": "Francesca's",
    "description": "Women's Clothing",
    "phone": "(561) 650-0320",
    "address": "700 S Rosemary Ave  West Palm Beach, FL 33401",
    "location": "Palm_Beach"
  },
  {
    "name": "Charming Charlie",
    "description": "Women's Clothing",
    "phone": "(561) 355-4070",
    "address": "701 S Rosemary Ave  West Palm Beach, FL 33401",
    "location": "Palm_Beach"
  },
  {
    "name": "Showcase Consignment Boutique and Hair Salon",
    "description": "Consignment Service",
    "phone": "(561) 444-2863",
    "address": "1007 N Dixie Hwy  west palm beach, FL 33401",
    "location": "Palm_Beach"
  },
  {
    "name": "Destination XL",
    "description": "Men's Clothing",
    "phone": "(561) 683-1515",
    "address": "9887 Palm Beach Lakes Blvd  West Palm Beach, FL 33401",
    "location": "Palm_Beach"
  },
  {
    "name": "After Hours By Mitchell's",
    "description": "Men's Clothing",
    "phone": "(561) 712-8307",
    "address": "Cross County Plaza  West Palm Beach, FL 33401",
    "location": "Palm_Beach"
  },
  {
    "name": "Striker Soccer Supply",
    "description": "Clothing Stores",
    "phone": "(561) 296-4625",
    "address": "4047 Okeechobee Blvd Ste 305  West Palm Beach, FL 33409",
    "location": "Palm_Beach"
  },
  {
    "name": "Verdes Tropicana Bowling Lanes",
    "description": "Clothing Stores",
    "phone": "(561) 683-5424",
    "address": "2500 N Florida Mango Rd  West Palm Beach, FL 33409",
    "location": "Palm_Beach"
  },
  {
    "name": "Hanesbrands",
    "description": "Clothing Stores",
    "phone": "(561) 640-9762",
    "address": "1721 Palm Beach Lakes Blvd  West Palm Beach, FL 33401",
    "location": "Palm_Beach"
  },
  {
    "name": "J.Crew Factory",
    "description": "Clothing Stores",
    "phone": "(561) 249-8307",
    "address": "1781 Palm Beach Lakes Blvd Unit W217  West Palm Beach, FL 33401",
    "location": "Palm_Beach"
  },
  {
    "name": "Nautica",
    "description": "Clothing Stores",
    "phone": "(561) 687-2661",
    "address": "1781 Palm Beach Lakes Blvd Unit W247  West Palm Beach, FL 33401",
    "location": "Palm_Beach"
  },
  {
    "name": "Rue21",
    "description": "Clothing Stores",
    "phone": "(561) 234-4447",
    "address": "1721 Presidential Way # E409  West Palm Beach, FL 33401",
    "location": "Palm_Beach"
  },
  {
    "name": "Columbia Factory Store",
    "description": "Clothing Stores",
    "phone": "(561) 223-4368",
    "address": "1793 Palm Beach Lakes Blvd  West Palm Beach, FL 33401",
    "location": "Palm_Beach"
  },
  {
    "name": "T.J. Maxx",
    "description": "Clothing Stores",
    "phone": "(561) 615-8798",
    "address": "1865 Palm Beach Lakes Blvd  West Palm Beach, FL 33401",
    "location": "Palm_Beach"
  },
  {
    "name": "Tillys",
    "description": "Clothing Stores",
    "phone": "(561) 227-0615",
    "address": "1731 Palm Beach Lakes Blvd  West Palm Beach, FL 33401",
    "location": "Palm_Beach"
  },
  {
    "name": "Banana Republic",
    "description": "Clothing Stores",
    "phone": "(561) 688-9721",
    "address": "1755 Palm Beach Lakes Blvd Unit W117  West Palm Beach, FL 33401",
    "location": "Palm_Beach"
  },
  {
    "name": "J. Crew Factory Store",
    "description": "Clothing Stores",
    "phone": "(561) 249-8307",
    "address": "1781 Palm Beach Lakes Blvd  West Palm Beach, FL 33401",
    "location": "Palm_Beach"
  },
  {
    "name": "Express Factory Outlet",
    "description": "Clothing Stores",
    "phone": "(561) 693-0166",
    "address": "1801 Palm Beach Lakes Blvd  West Palm Beach, FL 33401",
    "location": "Palm_Beach"
  },
  {
    "name": "Burlington Coat Factory",
    "description": "Clothing Stores",
    "phone": "(561) 683-9851",
    "address": "2601 Okeechobee Blvd  West Palm Beach, FL 33409",
    "location": "Palm_Beach"
  },
  {
    "name": "Charlotte Russe",
    "description": "Clothing Stores",
    "phone": "(561) 616-0071",
    "address": "1721 Palm Beach Lakes Blvd  West Palm Beach, FL 33401",
    "location": "Palm_Beach"
  },
  {
    "name": "Chico's Off The Rack",
    "description": "Clothing Stores",
    "phone": "(561) 328-2168",
    "address": "1771 Palm Beach Lakes Blvd  West Palm Beach, FL 33401",
    "location": "Palm_Beach"
  },
  {
    "name": "LOFT Outlet",
    "description": "Clothing Stores",
    "phone": "(561) 688-9861",
    "address": "1781 Palm Beach Lakes Blvd  West Palm Beach, FL 33401",
    "location": "Palm_Beach"
  },
  {
    "name": "Jockey",
    "description": "Clothing Stores",
    "phone": "(561) 689-7646",
    "address": "1781 Palm Beach Lakes Blvd  West Palm Beach, FL 33401",
    "location": "Palm_Beach"
  },
  {
    "name": "Vera Bradley Factory Outlet",
    "description": "Clothing Stores",
    "phone": "(561) 615-8737",
    "address": "1781 Palm Beach Lakes Blvd Space 234  West Palm Beach, FL 33401",
    "location": "Palm_Beach"
  },
  {
    "name": "Bloombowlicious",
    "description": "Clothing Stores",
    "phone": "(561) 797-7064",
    "address": "509 Franklin Rd  West Palm Beach, FL 33405",
    "location": "Palm_Beach"
  },
  {
    "name": "PacSun",
    "description": "Clothing Stores",
    "phone": "(561) 616-0778",
    "address": "1741 Palm Beach Lakes Blvd  West Palm Beach, FL 33401",
    "location": "Palm_Beach"
  },
  {
    "name": "Gap",
    "description": "Clothing Stores",
    "phone": "(561) 616-0422",
    "address": "1755 Palm Beach Lakes Blvd  West Palm Beach, FL 33401",
    "location": "Palm_Beach"
  },
  {
    "name": "Aeropostale",
    "description": "Clothing Stores",
    "phone": "(561) 689-9524",
    "address": "1751 Palm Beach Lakes Blvd  West Palm Beach, FL 33401",
    "location": "Palm_Beach"
  },
  {
    "name": "Old Navy",
    "description": "Clothing Stores",
    "phone": "(561) 615-8776",
    "address": "1865 Palm Beach Lakes Blvd Unit B28  West Palm Beach, FL 33401",
    "location": "Palm_Beach"
  },
  {
    "name": "Revirve Boutique",
    "description": "Clothing Stores",
    "phone": "(561) 319-2580",
    "address": "4713 Broadway  West Palm beach, FL 33407",
    "location": "Palm_Beach"
  },
  {
    "name": "The Bombshell Boutique",
    "description": "Clothing Stores",
    "phone": "(561) 309-7028",
    "address": "435 25th St Unit A  West Palm Beach, FL 33407",
    "location": "Palm_Beach"
  },
  {
    "name": "Kandis kicks",
    "description": "Clothing Stores",
    "phone": "(561) 797-7499",
    "address": "1710 45th St  West palm beach, FL 33407",
    "location": "Palm_Beach"
  },
  {
    "name": "Sly Apparel",
    "description": "Clothing Stores",
    "phone": "(561) 855-4926",
    "address": "1236 Palm Beach Lakes Blvd  West Palm Beach, FL 33401",
    "location": "Palm_Beach"
  },
  {
    "name": "Eminent By Buera",
    "description": "Clothing Stores",
    "phone": "(561) 907-7697",
    "address": "525 25th St  West Palm Beach, FL 33407",
    "location": "Palm_Beach"
  },
  {
    "name": "5.11 Tactical",
    "description": "Clothing Stores",
    "phone": "(561) 508-3128",
    "address": "2272 Okeechobee Blvd  West Palm Beach, FL 33409",
    "location": "Palm_Beach"
  },
  {
    "name": "Eleven30 Apparel",
    "description": "Clothing Stores",
    "phone": "(561) 257-1212",
    "address": "1700 Palm Beach Lakes Blvd  West Palm Beach, FL 33401",
    "location": "Palm_Beach"
  },
  {
    "name": "Hurley",
    "description": "Clothing Stores",
    "phone": "(561) 687-2870",
    "address": "1731 Palm Beach Lakes Blvd Unit E305  West Palm Beach, FL 33401",
    "location": "Palm_Beach"
  },
  {
    "name": "US Polo Association",
    "description": "Clothing Stores",
    "phone": "(561) 682-1020",
    "address": "1741 Palm Beach Lakes Blvd  West Palm Beach, FL 33401",
    "location": "Palm_Beach"
  },
  {
    "name": "G B Clothing",
    "description": "Clothing Stores",
    "phone": "(561) 469-7056",
    "address": "2424 N Congress Ave  West Palm Beach, FL 33409",
    "location": "Palm_Beach"
  },
  {
    "name": "Calvin Klein",
    "description": "Clothing Stores",
    "phone": "(561) 640-9426",
    "address": "1771 Palm Beach Lakes Blvd  West Palm Beach, FL 33401",
    "location": "Palm_Beach"
  },
  {
    "name": "Greg Norman Collection",
    "description": "Clothing Stores",
    "phone": "(561) 697-3739",
    "address": "1781 Palm Beach Lakes Blvd  West Palm Beach, FL 33401",
    "location": "Palm_Beach"
  },
  {
    "name": "Lacoste",
    "description": "Clothing Stores",
    "phone": "(562) 640-0926",
    "address": "1781 Palm Beach Lakes Blvd Unit W213  West Palm Beach, FL 33401",
    "location": "Palm_Beach"
  },
  {
    "name": "Haggar Clothing Co",
    "description": "Clothing Stores",
    "phone": "(561) 686-2595",
    "address": "1791 Palm Beach Lakes Blvd  West Palm Beach, FL 33401",
    "location": "Palm_Beach"
  },
  {
    "name": "Crown & Buckle",
    "description": "Clothing Stores",
    "phone": "(561) 288-0166",
    "address": "931 Village Blvd  West Palm Beach, FL 33409",
    "location": "Palm_Beach"
  },
  {
    "name": "Slimply",
    "description": "Clothing Stores",
    "phone": "(561) 429-2570",
    "address": "1710 45th St  West Palm Beach, FL 33407",
    "location": "Palm_Beach"
  },
  {
    "name": "Topic Marinko",
    "description": "Clothing Stores",
    "phone": "(561) 833-9818",
    "address": "226 28th St  West Palm Beach, FL 33407",
    "location": "Palm_Beach"
  },
  {
    "name": "Levi's",
    "description": "Clothing Stores",
    "phone": "(561) 640-5787",
    "address": "1793 Palm Beach Lakes Blvd Unit E309  West Palm Beach, FL 33401",
    "location": "Palm_Beach"
  },
  {
    "name": "American Eagle",
    "description": "Clothing Stores",
    "phone": "(561) 616-0307",
    "address": "1751 Palm Beach Lakes Blvd Unit E103  West Palm Beach, FL 33401",
    "location": "Palm_Beach"
  },
  {
    "name": "Cole Haan Outlet",
    "description": "Clothing Stores",
    "phone": "(561) 253-7881",
    "address": "1781 Palm Beach Lakes Blvd Unit W237  West Palm Beach, FL 33401",
    "location": "Palm_Beach"
  },
  {
    "name": "DXL Big + Tall",
    "description": "Clothing Stores",
    "phone": "(561) 683-1515",
    "address": "1855 Palm Beach Lakes Blvd Unit B19  West Palm Beach, FL 33401",
    "location": "Palm_Beach"
  },
  {
    "name": "Kate Spade Outlet",
    "description": "Clothing Stores",
    "phone": "(561) 683-2145",
    "address": "1751 Palm Beach Lakes Blvd Ste W303  West Palm Beach, FL 33401",
    "location": "Palm_Beach"
  },
  {
    "name": "Aerie",
    "description": "Clothing Stores",
    "phone": "(561) 273-6341",
    "address": "1751 Palm Beach Lakes Blvd Unit E115  West Palm Beach, FL 33401",
    "location": "Palm_Beach"
  },
  {
    "name": "Emporio Armani",
    "description": "Clothing Stores",
    "phone": "(561) 625-2000",
    "address": "Palm Beach Lakes Blvd  West Palm Beach, FL 33409",
    "location": "Palm_Beach"
  },
  {
    "name": "Karl Lagerfeld Paris",
    "description": "Clothing Stores",
    "phone": "(561) 223-1388",
    "address": "1791 Palm Beach Lakes Blvd Unit W105  West Palm Beach, FL 33401",
    "location": "Palm_Beach"
  },
  {
    "name": "Brooks Brothers",
    "description": "Clothing Stores",
    "phone": "(561) 615-8598",
    "address": "1751 Palm Beach Lakes Blvd Ste W233  West Palm Beach, FL 33401",
    "location": "Palm_Beach"
  },
  {
    "name": "COACH Outlet",
    "description": "Clothing Stores",
    "phone": "(561) 615-4500",
    "address": "1791 Palm Beach Lakes Blvd Unit W103  West Palm Beach, FL 33401",
    "location": "Palm_Beach"
  },
  {
    "name": "Muay Thai Addict, Inc.",
    "description": "Clothing Stores",
    "phone": "(650) 843-9135",
    "address": "1645 Palm Beach Lakes Blvd  West Palm Beach, FL 33401",
    "location": "Palm_Beach"
  },
  {
    "name": "Five Below",
    "description": "Clothing Stores",
    "phone": "(561) 689-9556",
    "address": "1875 Palm Beach Lakes Blvd  West Palm Beach, FL 33401",
    "location": "Palm_Beach"
  },
  {
    "name": "GUESS Factory",
    "description": "Clothing Stores",
    "phone": "(561) 689-7367",
    "address": "1741 Palm Beach Lakes Blvd Unit E229  West Palm Beach, FL 33401",
    "location": "Palm_Beach"
  },
  {
    "name": "Forever 21",
    "description": "Clothing Stores",
    "phone": "(561) 273-0590",
    "address": "1751 Palm Beach Lakes Blvd # W500  West Palm Beach, FL 33401",
    "location": "Palm_Beach"
  },
  {
    "name": "White House | Black Market",
    "description": "Clothing Stores",
    "phone": "(561) 688-0503",
    "address": "1771 Palm Beach Lakes Blvd  West Palm Beach, FL 33401",
    "location": "Palm_Beach"
  },
  {
    "name": "Oshkosh B'Gosh",
    "description": "Clothing Stores",
    "phone": "(561) 689-7239",
    "address": "1741 Palm Beach Lakes Blvd Unit E209  West Palm Beach, FL 33401",
    "location": "Palm_Beach"
  },
  {
    "name": "Polo Ralph Lauren Factory Store",
    "description": "Clothing Stores",
    "phone": "(561) 683-2569",
    "address": "1751 Palm Beach Lakes Blvd Ste W  West Palm Beach, FL 33401",
    "location": "Palm_Beach"
  },
  {
    "name": "Puma Outlet",
    "description": "Clothing Stores",
    "phone": "(561) 615-8575",
    "address": "1791 Palm Beach Lakes Blvd  West Palm Beach, FL 33401",
    "location": "Palm_Beach"
  },
  {
    "name": "Old Navy Outlet",
    "description": "Clothing Stores",
    "phone": "(561) 615-8776",
    "address": "1865 Palm Beach Lakes Blvd  West Palm Beach, FL 33401",
    "location": "Palm_Beach"
  },
  {
    "name": "Zumiez",
    "description": "Clothing Stores",
    "phone": "(561) 640-9033",
    "address": "1741 Palm Beach Lakes Blvd  West Palm Beach, FL 33401",
    "location": "Palm_Beach"
  },
  {
    "name": "S.A. Elite",
    "description": "Clothing Stores",
    "phone": "(561) 242-7000",
    "address": "1875 Palm Beach Lakes Blvd Unit A07  West Palm Beach, FL 33401",
    "location": "Palm_Beach"
  },
  {
    "name": "Papaya Clothing",
    "description": "Clothing Stores",
    "phone": "(561) 727-8212",
    "address": "1751 Palm Beach Lakes Blvd  West Palm Beach, FL 33401",
    "location": "Palm_Beach"
  },
  {
    "name": "Van Heusen",
    "description": "Clothing Stores",
    "phone": "(561) 686-2070",
    "address": "1751 Palm Beach Lakes Blvd  West Palm Beach, FL 33401",
    "location": "Palm_Beach"
  },
  {
    "name": "O'Neill",
    "description": "Clothing Stores",
    "phone": "(657) 859-3728",
    "address": "1741 Palm Beach Lakes Blvd  West Palm Beach, FL 33401",
    "location": "Palm_Beach"
  },
  {
    "name": "GARAGE",
    "description": "Clothing Stores",
    "phone": "(561) 232-2932",
    "address": "1255 Palm Beach Lakes Blvd  West Palm Beach, FL 33401",
    "location": "Palm_Beach"
  },
  {
    "name": "Carlos Amorin",
    "description": "Clothing Stores",
    "phone": "(561) 805-8696",
    "address": "408 Northwood Rd  West Palm Beach, FL 33407",
    "location": "Palm_Beach"
  },
  {
    "name": "New York & Company",
    "description": "Clothing Stores",
    "phone": "(561) 687-2913",
    "address": "1721 Palm Beach Lakes Blvd  West Palm Beach, FL 33401",
    "location": "Palm_Beach"
  },
  {
    "name": "Perry Ellis",
    "description": "Clothing Stores",
    "phone": "(561) 486-5711",
    "address": "1731 Palm Beach Lakes Blvd  West Palm Beach, FL 33401",
    "location": "Palm_Beach"
  },
  {
    "name": "Loft",
    "description": "Clothing Stores",
    "phone": "(561) 712-1772",
    "address": "1771 Palm Beach Lakes Blvd  West Palm Beach, FL 33401",
    "location": "Palm_Beach"
  },
  {
    "name": "Brooks Brothers Factory Outlet",
    "description": "Clothing Stores",
    "phone": "(561) 615-8598",
    "address": "1781 Palm Beach Lakes Blvd  West Palm Beach, FL 33401",
    "location": "Palm_Beach"
  },
  {
    "name": "Torrid",
    "description": "Clothing Stores",
    "phone": "(561) 686-6040",
    "address": "1791 Palm Beach Lakes Blvd  West Palm Beach, FL 33401",
    "location": "Palm_Beach"
  },
  {
    "name": "Servi America",
    "description": "Clothing Stores",
    "phone": "(561) 863-5059",
    "address": "4311 Broadway  West Palm Beach, FL 33407",
    "location": "Palm_Beach"
  },
  {
    "name": "The Children's Place",
    "description": "Clothing Stores",
    "phone": "(561) 832-6185",
    "address": "2309 Ponce De Leon Ave  West Palm Beach, FL 33407",
    "location": "Palm_Beach"
  },
  {
    "name": "Ashley Wholesale",
    "description": "Clothing Stores",
    "phone": "(561) 629-7220",
    "address": "5707 1/2 S Dixie Hwy  West Palm Beach, FL 33405",
    "location": "Palm_Beach"
  },
  {
    "name": "Justice",
    "description": "Clothing Stores",
    "phone": "(561) 687-2363",
    "address": "1741 Palm Beach Lakes Blvd  West Palm Beach, FL 33401",
    "location": "Palm_Beach"
  },
  {
    "name": "Izod",
    "description": "Clothing Stores",
    "phone": "(561) 640-9730",
    "address": "1741 Palm Beach Lakes Blvd Unit E239  West Palm Beach, FL 33401",
    "location": "Palm_Beach"
  },
  {
    "name": "PacSun Outlet",
    "description": "Clothing Stores",
    "phone": "(561) 616-0778",
    "address": "1741 Palm Beach Lakes Blvd  West Palm Beach, FL 33401",
    "location": "Palm_Beach"
  },
  {
    "name": "Kenneth Cole",
    "description": "Clothing Stores",
    "phone": "(561) 615-8972",
    "address": "1771 Palm Beach Lakes Blvd  West Palm Beach, FL 33401",
    "location": "Palm_Beach"
  },
  {
    "name": "True Religion",
    "description": "Clothing Stores",
    "phone": "(561) 686-2724",
    "address": "1781 Palm Beach Lakes Blvd  West Palm Beach, FL 33401",
    "location": "Palm_Beach"
  },
  {
    "name": "Ross Dress for Less",
    "description": "Clothing Stores",
    "phone": "(561) 640-0575",
    "address": "1875 Palm Beach Lakes Blvd  West Palm Beach, FL 33401",
    "location": "Palm_Beach"
  },
  {
    "name": "Fifty Apparel",
    "description": "Clothing Stores",
    "phone": "(561) 660-7862",
    "address": "2724 Shawnee Ave  West Palm Beach, FL 33409",
    "location": "Palm_Beach"
  },
  {
    "name": "Lizzie D Shoes Boutique",
    "description": "Clothing Stores",
    "phone": "(561) 822-3758",
    "address": "5100 S Dixie Hwy Ste 5  West Palm Beach, FL 33405",
    "location": "Palm_Beach"
  },
  {
    "name": "Raza Fashion Republic Inc",
    "description": "Health & Wellness Products",
    "phone": "(561) 881-9799",
    "address": "1744 45th St  West Palm Beach, FL 33407",
    "location": "Palm_Beach"
  },
  {
    "name": "Stambo's Shoppe",
    "description": "Department Stores",
    "phone": "(561) 328-7613",
    "address": "511 Northwood Rd  West Palm Beach, FL 33407",
    "location": "Palm_Beach"
  },
  {
    "name": "Anthonys Ladies Apparel",
    "description": "Women's Clothing",
    "phone": "(561) 588-7336",
    "address": "5000 Georgia Ave  West Palm Beach, FL 33405",
    "location": "Palm_Beach"
  },
  {
    "name": "Rack Room Shoes",
    "description": "Shoe Stores",
    "phone": "(561) 687-9371",
    "address": "1721 Palm Beach Lakes Blvd Unit E405  West Palm Beach, FL 33401",
    "location": "Palm_Beach"
  },
  {
    "name": "DTLR",
    "description": "Shoe Stores",
    "phone": "(561) 863-4131",
    "address": "1239 45th St  Mangonia Park, FL 33407",
    "location": "Palm_Beach"
  },
  {
    "name": "Vans",
    "description": "Shoe Stores",
    "phone": "(561) 408-9020",
    "address": "1751 Palm Beach Lakes Blvd Spc E415  West Palm Beach, FL 33401",
    "location": "Palm_Beach"
  },
  {
    "name": "American Freight - Appliance, Furniture, Mattress",
    "description": "Discount Stores",
    "phone": "(561) 642-9319",
    "address": "2031 Okeechobee Blvd  West Palm Beach, FL 33409",
    "location": "Palm_Beach"
  },
  {
    "name": "Columbia Sportswear",
    "description": "Sportswear",
    "phone": "(561) 223-4368",
    "address": "1751 Palm Beach Lakes Blvd  West Palm Beach, FL 33401",
    "location": "Palm_Beach"
  },
  {
    "name": "Under Armour Factory House",
    "description": "Sportswear",
    "phone": "(561) 693-0000",
    "address": "1791 Palm Beach Lakes Blvd  West Palm Beach, FL 33401",
    "location": "Palm_Beach"
  },
  {
    "name": "Sears Hometown Stores",
    "description": "Department Stores",
    "phone": "(561) 242-1801",
    "address": "2505 Okeechobee Blvd Ste W  West Palm Beach, FL 33409",
    "location": "Palm_Beach"
  },
  {
    "name": "Soma Intimates",
    "description": "Lingerie",
    "phone": "(561) 402-8852",
    "address": "1771 Palm Beach Lakes Blvd Unit W305  West Palm Beach, FL 33401",
    "location": "Palm_Beach"
  },
  {
    "name": "Michael Kors Outlet",
    "description": "Women's Clothing",
    "phone": "(561) 689-2315",
    "address": "1791 Palm Beach Lakes Blvd Unit W113  West Palm Beach, FL 33401",
    "location": "Palm_Beach"
  },
  {
    "name": "Anthony's Inc",
    "description": "Women's Clothing",
    "phone": "(561) 588-7336",
    "address": "5000 Georgia Ave  West Palm Beach, FL 33405",
    "location": "Palm_Beach"
  },
  {
    "name": "Talbots",
    "description": "Women's Clothing",
    "phone": "(561) 293-4330",
    "address": "1781 Palm Beach Lakes Blvd  West Palm Beach, FL 33401",
    "location": "Palm_Beach"
  },
  {
    "name": "Motherhood Maternity",
    "description": "Maternity Clothes",
    "phone": "(561) 640-9535",
    "address": "1781 Palm Beach Lakes Blvd  West Palm Beach, FL 33401",
    "location": "Palm_Beach"
  },
  {
    "name": "Marketplace At The Outlets",
    "description": "Women's Clothing",
    "phone": "(561) 688-0632",
    "address": "1855 Palm Beach Lakes Blvd  West Palm Beach, FL 33401",
    "location": "Palm_Beach"
  },
  {
    "name": "Players of Palm Beach",
    "description": "Sportswear",
    "phone": "(561) 842-2228",
    "address": "1239 45th St  Mangonia Park, FL 33407",
    "location": "Palm_Beach"
  },
  {
    "name": "Run Appeal",
    "description": "Running Stores",
    "phone": "(561) 683-4044",
    "address": "1900 Okeechobee Blvd Unit 2  West Palm Beach, FL 33409",
    "location": "Palm_Beach"
  },
  {
    "name": "West Marine",
    "description": "Boat Equipment & Supplies",
    "phone": "(561) 202-0119",
    "address": "1389 S Dixie Highway Lantana Fl  West Palm Beach, FL 33405",
    "location": "Palm_Beach"
  },
  {
    "name": "Reebok Outlet",
    "description": "Shoe Stores",
    "phone": "(561) 615-8855",
    "address": "1721 Palm Beach Lakes Blvd  West Palm Beach, FL 33401",
    "location": "Palm_Beach"
  },
  {
    "name": "Adidas Outlet Store",
    "description": "Outlet Stores",
    "phone": "(561) 615-8932",
    "address": "1731 Palm Beach Lakes Blvd  West Palm Beach, FL 33401",
    "location": "Palm_Beach"
  },
  {
    "name": "SKECHERS Factory Outlet",
    "description": "Shoe Stores",
    "phone": "(561) 686-2127",
    "address": "1741 Palm Beach Lakes Blvd  West Palm Beach, FL 33401",
    "location": "Palm_Beach"
  },
  {
    "name": "Lids",
    "description": "Hat Shops",
    "phone": "(561) 682-1940",
    "address": "1751 Palm Beach Lakes Blvd  West Palm Beach, FL 33401",
    "location": "Palm_Beach"
  },
  {
    "name": "ASICS Outlet",
    "description": "Shoe Stores",
    "phone": "(561) 687-3029",
    "address": "1781 Palm Beach Lakes Blvd  West Palm Beach, FL 33401",
    "location": "Palm_Beach"
  },
  {
    "name": "Famous Footwear",
    "description": "Shoe Stores",
    "phone": "(561) 615-8160",
    "address": "1791 Palm Beach Lakes Blvd  West Palm Beach, FL 33401",
    "location": "Palm_Beach"
  },
  {
    "name": "The PUMA Store",
    "description": "Shoe Stores",
    "phone": "(561) 615-8575",
    "address": "1791 Palm Beach Lakes Blvd Unit W101  West Palm Beach, FL 33401",
    "location": "Palm_Beach"
  },
  {
    "name": "Jamestown Village Commons",
    "description": "Department Stores",
    "phone": "(561) 720-2142",
    "address": "971 Village Blvd  West Palm Beach, FL 33409",
    "location": "Palm_Beach"
  },
  {
    "name": "Authenticsoccer.com",
    "description": "Sportswear",
    "phone": "(561) 296-4625",
    "address": "4047 Okeechobee Blvd Ste 305  West Palm Beach, FL 33409",
    "location": "Palm_Beach"
  },
  {
    "name": "Carleen Ligozio",
    "description": "Women's Clothing",
    "phone": "(561) 841-6097",
    "address": "3727 S Dixie Hwy  West Palm Beach, FL 33405",
    "location": "Palm_Beach"
  },
  {
    "name": "Jj Fashions",
    "description": "Women's Clothing",
    "phone": "(561) 249-0411",
    "address": "4121 Parker Ave  West Palm Beach, FL 33405",
    "location": "Palm_Beach"
  },
  {
    "name": "Gap Outlet",
    "description": "Women's Clothing",
    "phone": "(561) 616-0422",
    "address": "1755 Palm Beach Lakes Blvd  West Palm Beach, FL 33401",
    "location": "Palm_Beach"
  },
  {
    "name": "Men's Wearhouse & Tux",
    "description": "Men's Clothing",
    "phone": "(561) 615-6515",
    "address": "1751 Palm Beach Lakes Blvd  West Palm Beach, FL 33401",
    "location": "Palm_Beach"
  },
  {
    "name": "DressBarn",
    "description": "Women's Clothing",
    "phone": "(561) 687-9419",
    "address": "1751 Palm Beach Lakes Blvd  West Palm Beach, FL 33401",
    "location": "Palm_Beach"
  },
  {
    "name": "Dkny",
    "description": "Women's Clothing",
    "phone": "(561) 689-7149",
    "address": "1771 Palm Beach Lakes Blvd Unit W303  West Palm Beach, FL 33401",
    "location": "Palm_Beach"
  },
  {
    "name": "Johnston & Murphy",
    "description": "Shoe Stores",
    "phone": "(561) 687-9892",
    "address": "1781 Palm Beach Lakes Blvd  West Palm Beach, FL 33401",
    "location": "Palm_Beach"
  },
  {
    "name": "Brooks Brothers Factory Store",
    "description": "Outlet Stores",
    "phone": "(561) 615-8598",
    "address": "1781 Palm Beach Lakes Blvd  West Palm Beach, FL 33401",
    "location": "Palm_Beach"
  },
  {
    "name": "Saks Off 5th",
    "description": "Women's Clothing",
    "phone": "(561) 683-0016",
    "address": "1793 Palm Beach Lakes Blvd  West Palm Beach, FL 33401",
    "location": "Palm_Beach"
  },
  {
    "name": "Versona",
    "description": "Women's Clothing",
    "phone": "(561) 640-0320",
    "address": "1855 Palm Beach Lakes Blvd  West Palm Beach, FL 33401",
    "location": "Palm_Beach"
  },
  {
    "name": "Dina",
    "description": "Women's Clothing",
    "phone": "(561) 659-1420",
    "address": "6405 S Dixie Hwy  West Palm Beach, FL 33405",
    "location": "Palm_Beach"
  },
  {
    "name": "Royal Kids Consignment Boutique",
    "description": "Consignment Service",
    "phone": "(561) 232-3181",
    "address": "6903 S Dixie Hwy  West Palm Beach, FL 33405",
    "location": "Palm_Beach"
  },
  {
    "name": "Simply Fashion",
    "description": "Women's Clothing",
    "phone": "(561) 494-0705",
    "address": "1225 45th St  West Palm Beach, FL 33407",
    "location": "Palm_Beach"
  },
  {
    "name": "Girls Night Out Boutique",
    "description": "Boutique Items",
    "phone": "(561) 255-1933",
    "address": "1701 45th St Suite F11  West Palm Beach, FL 33407",
    "location": "Palm_Beach"
  },
  {
    "name": "Special Occasions Couture",
    "description": "Women's Clothing",
    "phone": "(561) 242-0361",
    "address": "4047 Okeechobee Blvd  West Palm Beach, FL 33409",
    "location": "Palm_Beach"
  },
  {
    "name": "Tulle Dance & Fitness",
    "description": "Clothing Stores",
    "phone": "(561) 532-6316",
    "address": "3962 Northlake Boulevard  Palm Beach Gardens, FL 33403",
    "location": "Palm_Beach"
  },
  {
    "name": "Soccer Fiesta",
    "description": "Clothing Stores",
    "phone": "(561) 968-6600",
    "address": "3485 Lake Worth Rd  Palm Springs, FL 33461",
    "location": "Palm_Beach"
  },
  {
    "name": "Dee T-Shirts",
    "description": "Clothing Stores",
    "phone": "(561) 842-5800",
    "address": "2120 Broadway  Riviera Beach, FL 33404",
    "location": "Palm_Beach"
  }
]