[
  {
    "name": "Elise, the Boutique",
    "description": "Clothing Stores",
    "phone": "(850) 995-8050",
    "address": "4616 Woodbine Rd  Milton, FL 32571",
    "location": "Pasco"
  },
  {
    "name": "T.J. Maxx",
    "description": "Clothing Stores",
    "phone": "(850) 995-4819",
    "address": "4731 Highway 90  Pace, FL 32571",
    "location": "Pasco"
  },
  {
    "name": "Blackwater Company",
    "description": "Clothing Stores",
    "phone": "(850) 889-4463",
    "address": "4577 Watkins St  Milton, FL 32571",
    "location": "Pasco"
  },
  {
    "name": "Rue 21",
    "description": "Clothing Stores",
    "phone": "(850) 995-1969",
    "address": "4737 Highway 90  Milton, FL 32571",
    "location": "Pasco"
  },
  {
    "name": "Maurices - Closed",
    "description": "Clothing Stores",
    "phone": "(850) 995-9066",
    "address": "4733 Highway 90  Pace, FL 32571",
    "location": "Pasco"
  },
  {
    "name": "Helping Hand Missions",
    "description": "Clothing Stores",
    "phone": "(850) 994-9813",
    "address": "4686 Highway 90  Milton, FL 32571",
    "location": "Pasco"
  },
  {
    "name": "Middleton Clothiers",
    "description": "Clothing Stores",
    "phone": "(850) 994-1355",
    "address": "4847 W Spencer Field Rd  Milton, FL 32571",
    "location": "Pasco"
  },
  {
    "name": "Vintage Vibe Something for Everyone",
    "description": "Clothing Stores",
    "phone": "(850) 910-4733",
    "address": "4212 Highway 90  Milton, FL 32571",
    "location": "Pasco"
  },
  {
    "name": "Middleton's Prom and Pageant",
    "description": "Clothing Stores",
    "phone": "(850) 994-1355",
    "address": "4847 W Spencer Field Rd  Pace, FL 32571",
    "location": "Pasco"
  },
  {
    "name": "Emilee's Closet",
    "description": "Consignment Service",
    "phone": "(850) 994-7955",
    "address": "4430 Highway 90 Ste F  Pace, FL 32571",
    "location": "Pasco"
  },
  {
    "name": "Target",
    "description": "General Merchandise",
    "phone": "(850) 995-7820",
    "address": "4727 Highway 90  Pace, FL 32571",
    "location": "Pasco"
  },
  {
    "name": "2nd fold mens resale clothing",
    "description": "Clothing Stores",
    "phone": "(850) 450-3717",
    "address": "5186 Highway 90 Suite 1  milton, FL 32571",
    "location": "Pasco"
  },
  {
    "name": "Sears",
    "description": "Clothing Stores",
    "phone": "(850) 995-4289",
    "address": "4563 Bell Ln  Milton, FL 32571",
    "location": "Pasco"
  },
  {
    "name": "Shoe Show",
    "description": "Clothing Stores",
    "phone": "(850) 432-0325",
    "address": "3300 N Pace Blvd Suite 31 Town & Country Plaza  Pensacola, FL 32505",
    "location": "Pasco"
  },
  {
    "name": "Sears Hometown Stores",
    "description": "Department Stores",
    "phone": "(850) 995-5012",
    "address": "4563 Bell Ln  Milton, FL 32571",
    "location": "Pasco"
  },
  {
    "name": "Emblems, Ehly",
    "description": "Sportswear",
    "phone": "(850) 994-8413",
    "address": "4713 Hamilton Bridge Rd  Milton, FL 32571",
    "location": "Pasco"
  },
  {
    "name": "Citi Trends",
    "description": "Clothing Stores",
    "phone": "(850) 332-4411",
    "address": "3 W Nine Mile Rd  Pensacola, FL 32534",
    "location": "Pasco"
  },
  {
    "name": "Burlington Coat Factory",
    "description": "Clothing Stores",
    "phone": "(850) 475-0528",
    "address": "7171 N Davis Hwy Ste 8400  Pensacola, FL 32504",
    "location": "Pasco"
  },
  {
    "name": "Bealls Department Store",
    "description": "Clothing Stores",
    "phone": "(850) 479-3313",
    "address": "6241 N Davis Hwy  Pensacola, FL 32504",
    "location": "Pasco"
  },
  {
    "name": "2nd fold menâ€™s clothing and shoes",
    "description": "Clothing Stores",
    "phone": "(850) 450-3717",
    "address": "5198 Willing St  Milton, FL 32570",
    "location": "Pasco"
  },
  {
    "name": "CornBred USA Decals",
    "description": "Clothing Stores",
    "phone": "(850) 281-9312",
    "address": "5600 Woodcrest Dr  Milton, FL 32583",
    "location": "Pasco"
  },
  {
    "name": "D & J's Favorite Things",
    "description": "Clothing Stores",
    "phone": "(850) 312-9516",
    "address": "8917 N Davis Hwy  Pensacola, FL 32514",
    "location": "Pasco"
  },
  {
    "name": "Rainbow Shops",
    "description": "Clothing Stores",
    "phone": "(850) 484-8100",
    "address": "2620 Creighton Rd  Pensacola, FL 32504",
    "location": "Pasco"
  },
  {
    "name": "K K Closet",
    "description": "Clothing Stores",
    "phone": "(850) 626-0044",
    "address": "5155 Dogwood Dr  Milton, FL 32570",
    "location": "Pasco"
  },
  {
    "name": "Deep South Clothing",
    "description": "Clothing Stores",
    "phone": "(850) 564-0372",
    "address": "6719 Park Ave  Milton, FL 32570",
    "location": "Pasco"
  },
  {
    "name": "Shoe Station",
    "description": "Clothing Stores",
    "phone": "(850) 474-9311",
    "address": "6601 N Davis Hwy  Pensacola, FL 32504",
    "location": "Pasco"
  },
  {
    "name": "SEPHORA at Kohl's",
    "description": "Clothing Stores",
    "phone": "(850) 478-3250",
    "address": "9300 Baldridge Dr  Pensacola, FL 32514",
    "location": "Pasco"
  },
  {
    "name": "Two Times A Lady",
    "description": "Clothing Stores",
    "phone": "(850) 474-3778",
    "address": "2755 E Olive Rd  Pensacola, FL 32514",
    "location": "Pasco"
  },
  {
    "name": "Little Angel Boutique",
    "description": "Clothing Stores",
    "phone": "(850) 626-1899",
    "address": "4601 W Bushnell Rd  Milton, FL 32583",
    "location": "Pasco"
  },
  {
    "name": "JCPenney",
    "description": "Clothing Stores",
    "phone": "(850) 478-4500",
    "address": "7171 N Davis Hwy  Pensacola, FL 32504",
    "location": "Pasco"
  },
  {
    "name": "Helping Hand Mission",
    "description": "Clothing Stores",
    "phone": "(850) 983-1720",
    "address": "5879 Stewart St  Milton, FL 32570",
    "location": "Pasco"
  },
  {
    "name": "T.J. Maxx & HomeGoods",
    "description": "Clothing Stores",
    "phone": "(850) 476-0333",
    "address": "6625 N Davis Hwy  Pensacola, FL 32504",
    "location": "Pasco"
  },
  {
    "name": "Kmart",
    "description": "Clothing Stores",
    "phone": "(850) 626-7653",
    "address": "6050 Highway 90  Milton, FL 32570",
    "location": "Pasco"
  },
  {
    "name": "Bealls",
    "description": "Clothing Stores",
    "phone": "(850) 983-0132",
    "address": "6548 Caroline St  Milton, FL 32570",
    "location": "Pasco"
  },
  {
    "name": "Nixon's",
    "description": "Clothing Stores",
    "phone": "(850) 623-8624",
    "address": "5061 Dogwood Dr  Milton, FL 32570",
    "location": "Pasco"
  },
  {
    "name": "La Di Da Boutique Inc",
    "description": "Clothing Stores",
    "phone": "(850) 525-3261",
    "address": "875 E Nine Mile Rd, Suite 13  Pensacola, FL 32514",
    "location": "Pasco"
  },
  {
    "name": "Logo Masters International Inc",
    "description": "Clothing Stores",
    "phone": "(850) 937-6770",
    "address": "3018 Stefani Road, Bldg. 2  Cantonment, FL 32533",
    "location": "Pasco"
  },
  {
    "name": "Bealls Outlet Stores",
    "description": "Clothing Stores",
    "phone": "(850) 983-0132",
    "address": "6548 Caroline St  Milton, FL 32570",
    "location": "Pasco"
  },
  {
    "name": "Gent's Formal Wear",
    "description": "Clothing Stores",
    "phone": "(850) 969-0397",
    "address": "1340 E Nine Mile Rd  Pensacola, FL 32514",
    "location": "Pasco"
  },
  {
    "name": "Ross Dress for Less",
    "description": "Clothing Stores",
    "phone": "(850) 471-0554",
    "address": "8102 N Davis Hwy  Pensacola, FL 32514",
    "location": "Pasco"
  },
  {
    "name": "Dirt Cheap",
    "description": "Clothing Stores",
    "phone": "(850) 477-4543",
    "address": "8102 N Davis Hwy  Pensacola, FL 32514",
    "location": "Pasco"
  },
  {
    "name": "Currin Graphics",
    "description": "Clothing Stores",
    "phone": "(850) 505-0955",
    "address": "2814 Copter Rd  Pensacola, FL 32514",
    "location": "Pasco"
  },
  {
    "name": "Cato Fashions",
    "description": "Women's Clothing",
    "phone": "(850) 479-8440",
    "address": "6245 N Davis Hwy  Pensacola, FL 32504",
    "location": "Pasco"
  },
  {
    "name": "The Bridal Suite",
    "description": "Bridal Shops",
    "phone": "(850) 494-9989",
    "address": "1340 E Nine Mile Rd  Pensacola, FL 32514",
    "location": "Pasco"
  },
  {
    "name": "American Freight - Appliance, Furniture, Mattress",
    "description": "Discount Stores",
    "phone": "(850) 474-0948",
    "address": "6235 N Davis Hwy Ste 101  Pensacola, FL 32504",
    "location": "Pasco"
  },
  {
    "name": "Walmart Supercenter",
    "description": "General Merchandise",
    "phone": "(850) 479-2101",
    "address": "2650 Creighton Rd  Pensacola, FL 32504",
    "location": "Pasco"
  },
  {
    "name": "Academy Sports + Outdoors",
    "description": "Sporting Goods",
    "phone": "(850) 473-3800",
    "address": "7171 N Davis Hwy  Pensacola, FL 32504",
    "location": "Pasco"
  },
  {
    "name": "Hibbett Sports",
    "description": "Sporting Goods",
    "phone": "(850) 477-9600",
    "address": "3 W Nine Mile Rd Ste 11  Pensacola, FL 32534",
    "location": "Pasco"
  },
  {
    "name": "Bealls Florida",
    "description": "Home Furnishings",
    "phone": "(850) 479-3313",
    "address": "6241 N Davis Hwy  Pensacola, FL 32504",
    "location": "Pasco"
  },
  {
    "name": "Motherhood Maternity",
    "description": "Maternity Clothes",
    "phone": "(850) 475-2626",
    "address": "7175C N Davis Hwy  Pensacola, FL 32504",
    "location": "Pasco"
  },
  {
    "name": "Rack Room Shoes",
    "description": "Shoe Stores",
    "phone": "(850) 341-1952",
    "address": "6410 Highway 90 Ste D  Milton, FL 32570",
    "location": "Pasco"
  },
  {
    "name": "Walmart Grocery Pickup",
    "description": "Department Stores",
    "phone": "(850) 208-2103",
    "address": "1525 E Nine Mile Rd  Pensacola, FL 32514",
    "location": "Pasco"
  },
  {
    "name": "Pace Coins",
    "description": "General Merchandise",
    "phone": "(850) 564-4670",
    "address": "6559 Caroline St  Milton, FL 32570",
    "location": "Pasco"
  },
  {
    "name": "Channel Control Merchants",
    "description": "Discount Stores",
    "phone": "(850) 477-4543",
    "address": "8102 N Davis Hwy  Pensacola, FL 32514",
    "location": "Pasco"
  },
  {
    "name": "McRae's Department Store",
    "description": "Department Stores",
    "phone": "(850) 494-6221",
    "address": "7171 N Davis Hwy  Pensacola, FL 32504",
    "location": "Pasco"
  },
  {
    "name": "Ministry Village Bargain Center",
    "description": "Department Stores",
    "phone": "(850) 912-8222",
    "address": "92 E Nine Mile Rd  Pensacola, FL 32534",
    "location": "Pasco"
  },
  {
    "name": "Famous Footwear",
    "description": "Shoe Stores",
    "phone": "(850) 476-2946",
    "address": "7171 N Davis Hwy  Pensacola, FL 32504",
    "location": "Pasco"
  },
  {
    "name": "Finish Line",
    "description": "Shoe Stores",
    "phone": "(850) 478-5040",
    "address": "7171 N Davis Hwy Ste 1013  Pensacola, FL 32504",
    "location": "Pasco"
  },
  {
    "name": "West Marine",
    "description": "Boat Equipment & Supplies",
    "phone": "(850) 476-2774",
    "address": "7160 N Davis Hwy  Pensacola, FL 32504",
    "location": "Pasco"
  },
  {
    "name": "Sears Outlet",
    "description": "Discount Stores",
    "phone": "(850) 474-0949",
    "address": "6235 N Davis Hwy Ste 101  Pensacola, FL 32504",
    "location": "Pasco"
  },
  {
    "name": "Yeagle & Patterson-Reece",
    "description": "Women's Clothing",
    "phone": "(850) 497-6090",
    "address": "8800 University Pkwy  Pensacola, FL 32514",
    "location": "Pasco"
  },
  {
    "name": "Drift Boutique",
    "description": "Boutique Items",
    "phone": "(850) 332-5126",
    "address": "955 E Nine Mile Rd Ste 105  Pensacola, FL 32514",
    "location": "Pasco"
  },
  {
    "name": "AVON",
    "description": "Gift Baskets",
    "phone": "(850) 696-9030",
    "address": "8311 Beal St  Pensacola, FL 32514",
    "location": "Pasco"
  },
  {
    "name": "Cato",
    "description": "Women's Clothing",
    "phone": "(850) 665-4600",
    "address": "6827 Caroline St  Milton, FL 32570",
    "location": "Pasco"
  },
  {
    "name": "Runway Chic",
    "description": "Women's Clothing",
    "phone": "(850) 332-7200",
    "address": "8084 N Davis Hwy  Pensacola, FL 32514",
    "location": "Pasco"
  },
  {
    "name": "Avon",
    "description": "Skin Care",
    "phone": "(850) 316-1640",
    "address": "6618 Applegate St  Milton, FL 32570",
    "location": "Pasco"
  },
  {
    "name": "Bridal Suite",
    "description": "Women's Clothing",
    "phone": "(850) 494-9989",
    "address": "2401 Langley Ave  Pensacola, FL 32504",
    "location": "Pasco"
  },
  {
    "name": "Lovin Mood Lingerie",
    "description": "Sporting Goods",
    "phone": "(850) 462-5548",
    "address": "5104 N W St  Pensacola, FL 32505",
    "location": "Pasco"
  },
  {
    "name": "Old Navy",
    "description": "Clothing Stores",
    "phone": "(850) 475-1302",
    "address": "5100 N 9th Ave Ste C315A  Pensacola, FL 32504",
    "location": "Pasco"
  },
  {
    "name": "DD's Discounts",
    "description": "Clothing Stores",
    "phone": "(850) 438-2668",
    "address": "3300 N Pace Blvd  Pensacola, FL 32505",
    "location": "Pasco"
  },
  {
    "name": "Toad Hall Antiques & Gifts",
    "description": "Clothing Stores",
    "phone": "(850) 542-7548",
    "address": "824 E Belmont St  Pensacola, FL 32501",
    "location": "Pasco"
  },
  {
    "name": "Nearly Dead Threads",
    "description": "Clothing Stores",
    "phone": "(850) 748-5400",
    "address": "4006 N 9th Ave  Pensacola, FL 32503",
    "location": "Pasco"
  },
  {
    "name": "Charlotte Tilbury",
    "description": "Clothing Stores",
    "phone": "(850) 473-0083",
    "address": "5100 N 9th Ave  Pensacola, FL 32504",
    "location": "Pasco"
  },
  {
    "name": "Guess",
    "description": "Clothing Stores",
    "phone": "(850) 786-1252",
    "address": "5100 N 9th Ave Ste C337A  Pensacola, FL 32504",
    "location": "Pasco"
  },
  {
    "name": "H&M",
    "description": "Clothing Stores",
    "phone": "(855) 466-7467",
    "address": "5100 N 9th Ave  Pensacola, FL 32504",
    "location": "Pasco"
  },
  {
    "name": "Cotton On",
    "description": "Clothing Stores",
    "phone": "(850) 475-4145",
    "address": "5100 N 9th Ave  Pensacola, FL 32504",
    "location": "Pasco"
  },
  {
    "name": "CiCi Fashionista Closet",
    "description": "Clothing Stores",
    "phone": "(866) 727-9323",
    "address": "1820 N W St  Pensacola, FL 32505",
    "location": "Pasco"
  },
  {
    "name": "Angela's All That and More",
    "description": "Clothing Stores",
    "phone": "(850) 586-8813",
    "address": "1607 Gary Ave  Pensacola, FL 32505",
    "location": "Pasco"
  },
  {
    "name": "Undergound by Journeys",
    "description": "Clothing Stores",
    "phone": "(850) 474-1918",
    "address": "5100 N 9th Ave  Pensacola, FL 32504",
    "location": "Pasco"
  },
  {
    "name": "Libertatum Apparel Co",
    "description": "Clothing Stores",
    "phone": "(919) 685-5597",
    "address": "6876 Trading Post Ln  Milton, FL 32570",
    "location": "Pasco"
  },
  {
    "name": "Ubu Fahions",
    "description": "Clothing Stores",
    "phone": "(217) 530-6303",
    "address": "862 N Highway 29  Cantonment, FL 32533",
    "location": "Pasco"
  },
  {
    "name": "Go Fish Clothing & Jewelry Company",
    "description": "Clothing Stores",
    "phone": "(850) 479-7498",
    "address": "2172 W Nine Mile Rd Ste 342  Pensacola, FL 32534",
    "location": "Pasco"
  },
  {
    "name": "Sanders",
    "description": "Clothing Stores",
    "phone": "(850) 434-1616",
    "address": "4504 E Montclair Rd  Pensacola, FL 32505",
    "location": "Pasco"
  },
  {
    "name": "Game Ready Clothing",
    "description": "Clothing Stores",
    "phone": "(850) 332-5309",
    "address": "934 Lucerne Ave  Pensacola, FL 32505",
    "location": "Pasco"
  },
  {
    "name": "Dope Shopping Made Easy",
    "description": "Clothing Stores",
    "phone": "(877) 336-0121",
    "address": "2355 W. Michigan Ave Ste 2355  Pensacola, FL 32526",
    "location": "Pasco"
  },
  {
    "name": "Oxford House Waltham",
    "description": "Clothing Stores",
    "phone": "(850) 857-8196",
    "address": "2111 Waltham St  Pensacola, FL 32505",
    "location": "Pasco"
  },
  {
    "name": "Goddessglitz",
    "description": "Clothing Stores",
    "phone": "(850) 610-3053",
    "address": "8 Wisconsin Dr  Pensacola, FL 32505",
    "location": "Pasco"
  },
  {
    "name": "Stein Mart",
    "description": "Clothing Stores",
    "phone": "(850) 484-2607",
    "address": "1660 Airport Blvd  Pensacola, FL 32504",
    "location": "Pasco"
  },
  {
    "name": "Tillys",
    "description": "Clothing Stores",
    "phone": "(850) 477-4754",
    "address": "5100 N 9th Ave  Pensacola, FL 32504",
    "location": "Pasco"
  },
  {
    "name": "Jimmy Jazz",
    "description": "Clothing Stores",
    "phone": "(850) 969-0422",
    "address": "5100 N 9th Ave  Pensacola, FL 32504",
    "location": "Pasco"
  },
  {
    "name": "American Eagle",
    "description": "Clothing Stores",
    "phone": "(850) 857-6621",
    "address": "5100 N 9th Ave  Pensacola, FL 32504",
    "location": "Pasco"
  },
  {
    "name": "Man Alive",
    "description": "Clothing Stores",
    "phone": "(850) 969-0422",
    "address": "5100 N 9th Ave  Pensacola, FL 32504",
    "location": "Pasco"
  },
  {
    "name": "I Have Skills Inc",
    "description": "Clothing Stores",
    "phone": "(850) 791-6567",
    "address": "2704 W Avery St  Pensacola, FL 32505",
    "location": "Pasco"
  },
  {
    "name": "Hollister",
    "description": "Clothing Stores",
    "phone": "(850) 471-9108",
    "address": "5100 N 9th Ave Ste F627  Pensacola, FL 32504",
    "location": "Pasco"
  },
  {
    "name": "Rue21",
    "description": "Clothing Stores",
    "phone": "(850) 476-2562",
    "address": "5100 N 9th Ave Spc D404  Pensacola, FL 32504",
    "location": "Pasco"
  },
  {
    "name": "Intracoastal Outfitters",
    "description": "Clothing Stores",
    "phone": "(850) 432-8638",
    "address": "701 E Gregory St  Pensacola, FL 32502",
    "location": "Pasco"
  },
  {
    "name": "Hot Topic",
    "description": "Clothing Stores",
    "phone": "(850) 471-2344",
    "address": "5100 N 9th Ave  Pensacola, FL 32504",
    "location": "Pasco"
  },
  {
    "name": "PacSun",
    "description": "Clothing Stores",
    "phone": "(850) 476-8550",
    "address": "5100 N 9th Ave  Pensacola, FL 32504",
    "location": "Pasco"
  },
  {
    "name": "Underground Station",
    "description": "Clothing Stores",
    "phone": "(850) 474-1918",
    "address": "5100 N 9th Ave  Pensacola, FL 32504",
    "location": "Pasco"
  },
  {
    "name": "Express",
    "description": "Clothing Stores",
    "phone": "(850) 475-5946",
    "address": "5100 N 9th Ave  Pensacola, FL 32504",
    "location": "Pasco"
  },
  {
    "name": "Jacqueline Britts Apparels",
    "description": "Clothing Stores",
    "phone": "(850) 456-3388",
    "address": "1102 Webster Dr  Pensacola, FL 32505",
    "location": "Pasco"
  },
  {
    "name": "Buckle",
    "description": "Clothing Stores",
    "phone": "(850) 473-1007",
    "address": "5100 N 9th Ave  Pensacola, FL 32504",
    "location": "Pasco"
  },
  {
    "name": "Ole Time Leather",
    "description": "Clothing Stores",
    "phone": "(850) 438-7133",
    "address": "115 Beverly Pkwy  Pensacola, FL 32505",
    "location": "Pasco"
  },
  {
    "name": "Marshalls",
    "description": "Clothing Stores",
    "phone": "(850) 478-7407",
    "address": "1650 Airport Blvd  Pensacola, FL 32504",
    "location": "Pasco"
  },
  {
    "name": "Justice",
    "description": "Clothing Stores",
    "phone": "(850) 479-7378",
    "address": "5100 N 9th Ave Ste F609  Pensacola, FL 32504",
    "location": "Pasco"
  },
  {
    "name": "Running Wild",
    "description": "Clothing Stores",
    "phone": "(850) 435-9222",
    "address": "3012 E Cervantes St  Pensacola, FL 32503",
    "location": "Pasco"
  },
  {
    "name": "City Gear",
    "description": "Clothing Stores",
    "phone": "(850) 696-2398",
    "address": "3300 N Pace Blvd Ste 180  Pensacola, FL 32505",
    "location": "Pasco"
  },
  {
    "name": "Big Rhino Screen Printing",
    "description": "Clothing Stores",
    "phone": "(850) 469-9028",
    "address": "2709 N Pace Blvd  Pensacola, FL 32505",
    "location": "Pasco"
  },
  {
    "name": "Loft",
    "description": "Clothing Stores",
    "phone": "(850) 477-1992",
    "address": "5100 N 9th Ave  Pensacola, FL 32504",
    "location": "Pasco"
  },
  {
    "name": "Uniformly Yours",
    "description": "Clothing Stores",
    "phone": "(850) 432-6533",
    "address": "103 Beverly Pkwy  Pensacola, FL 32505",
    "location": "Pasco"
  },
  {
    "name": "Catherines Plus Sizes",
    "description": "Clothing Stores",
    "phone": "(850) 483-8082",
    "address": "5010 Bayou Blvd Ste 3  Pensacola, FL 32503",
    "location": "Pasco"
  },
  {
    "name": "Wet Seal",
    "description": "Clothing Stores",
    "phone": "(850) 478-0011",
    "address": "5100 N 9th Ave Ste B217  Pensacola, FL 32504",
    "location": "Pasco"
  },
  {
    "name": "Zumiez",
    "description": "Clothing Stores",
    "phone": "(850) 478-6104",
    "address": "5100 N 9th Ave Ste E517  Pensacola, FL 32504",
    "location": "Pasco"
  },
  {
    "name": "Lids",
    "description": "Hat Shops",
    "phone": "(850) 476-6553",
    "address": "5100 N 9th Ave  Pensacola, FL 32504",
    "location": "Pasco"
  },
  {
    "name": "Simply 6",
    "description": "Women's Fashion Accessories",
    "phone": "(850) 432-5711",
    "address": "3300 N Pace Blvd  Pensacola, FL 32505",
    "location": "Pasco"
  },
  {
    "name": "Belk",
    "description": "Department Stores",
    "phone": "(850) 484-3300",
    "address": "5100 N 9th Ave  Pensacola, FL 32504",
    "location": "Pasco"
  },
  {
    "name": "Lane Bryant - Closed",
    "description": "Women's Clothing",
    "phone": "(850) 466-4994",
    "address": "5100 N 9th Ave  Pensacola, FL 32504",
    "location": "Pasco"
  },
  {
    "name": "Aerie",
    "description": "Women's Clothing",
    "phone": "(850) 483-6048",
    "address": "5100 N 9th Ave Ste D421A  Pensacola, FL 32504",
    "location": "Pasco"
  },
  {
    "name": "Beauty Town",
    "description": "Barbers Equipment & Supplies",
    "phone": "(850) 434-5633",
    "address": "3300 N Pace Blvd Ste 20  Pensacola, FL 32505",
    "location": "Pasco"
  },
  {
    "name": "Lady Foot Locker",
    "description": "Shoe Stores",
    "phone": "(850) 478-4855",
    "address": "5100 N 9th Ave  Pensacola, FL 32504",
    "location": "Pasco"
  },
  {
    "name": "Vans",
    "description": "Shoe Stores",
    "phone": "(850) 477-4900",
    "address": "5100 N 9th Ave Ste A122  Pensacola, FL 32504",
    "location": "Pasco"
  },
  {
    "name": "Edwin Watts Golf",
    "description": "Golf Equipment & Supplies",
    "phone": "(850) 477-0519",
    "address": "5717 N Davis Hwy  Pensacola, FL 32503",
    "location": "Pasco"
  },
  {
    "name": "Dick's Sporting Goods",
    "description": "Sporting Goods",
    "phone": "(850) 478-9605",
    "address": "5100 N 9th Ave  Pensacola, FL 32504",
    "location": "Pasco"
  },
  {
    "name": "Champs Sports",
    "description": "Sportswear",
    "phone": "(850) 474-8886",
    "address": "5100 N 9th Ave  Pensacola, FL 32504",
    "location": "Pasco"
  },
  {
    "name": "Foot Locker",
    "description": "Shoe Stores",
    "phone": "(850) 478-1693",
    "address": "5100 N 9th Ave  Pensacola, FL 32504",
    "location": "Pasco"
  },
  {
    "name": "Lil Johns Big and Tall Mens Fashion and Alteration Shop",
    "description": "Men's Clothing",
    "phone": "(850) 484-0904",
    "address": "5700 N Davis Hwy  Pensacola, FL 32503",
    "location": "Pasco"
  },
  {
    "name": "Men's Wearhouse",
    "description": "Men's Clothing",
    "phone": "(850) 475-5891",
    "address": "5100 N 9th Ave  Pensacola, FL 32504",
    "location": "Pasco"
  },
  {
    "name": "Lee Tracy",
    "description": "Women's Clothing",
    "phone": "(850) 912-8639",
    "address": "701 E Gregory St  Pensacola, FL 32502",
    "location": "Pasco"
  },
  {
    "name": "Versona",
    "description": "Women's Clothing",
    "phone": "(850) 474-9966",
    "address": "5100 N 9th Ave  Pensacola, FL 32504",
    "location": "Pasco"
  },
  {
    "name": "Soma Intimates",
    "description": "Lingerie",
    "phone": "(850) 479-4855",
    "address": "5100 N 9th Ave  Pensacola, FL 32504",
    "location": "Pasco"
  },
  {
    "name": "Victoria's Secret",
    "description": "Lingerie",
    "phone": "(850) 479-8655",
    "address": "5100 N 9th Ave  Pensacola, FL 32504",
    "location": "Pasco"
  },
  {
    "name": "Levels",
    "description": "Women's Clothing",
    "phone": "(850) 332-5514",
    "address": "2829 W Michigan Ave #a  Pensacola, FL 32526",
    "location": "Pasco"
  },
  {
    "name": "Aqua Decor & Design",
    "description": "Interior Designers & Decorators",
    "phone": "(850) 912-4744",
    "address": "1320 N 9th Ave  Pensacola, FL 32503",
    "location": "Pasco"
  },
  {
    "name": "Avon Sales",
    "description": "Women's Clothing",
    "phone": "(850) 321-5032",
    "address": "Ryale Rd  Cantonment, FL 32533",
    "location": "Pasco"
  },
  {
    "name": "Talbots",
    "description": "Women's Clothing",
    "phone": "(850) 494-2667",
    "address": "4411 Bayou Blvd  Pensacola, FL 32503",
    "location": "Pasco"
  },
  {
    "name": "Footaction USA",
    "description": "Shoe Stores",
    "phone": "(850) 478-0872",
    "address": "5100 N 9th Ave  Pensacola, FL 32504",
    "location": "Pasco"
  },
  {
    "name": "Latinos & Parties",
    "description": "General Merchandise",
    "phone": "(850) 637-1075",
    "address": "5222 N W St  Pensacola, FL 32505",
    "location": "Pasco"
  },
  {
    "name": "Hanley's Bargain Merchndise",
    "description": "Department Stores",
    "phone": "(850) 626-4869",
    "address": "8013 Highway 90  Milton, FL 32583",
    "location": "Pasco"
  },
  {
    "name": "Go Fish Clothing & Jewelry Co",
    "description": "Women's Clothing",
    "phone": "(850) 934-5251",
    "address": "6993 Forshalee St  Pensacola, FL 32503",
    "location": "Pasco"
  },
  {
    "name": "JoS. A. Bank",
    "description": "Men's Clothing",
    "phone": "(850) 475-2664",
    "address": "5100 N 9th Ave  Pensacola, FL 32504",
    "location": "Pasco"
  },
  {
    "name": "Francesca's",
    "description": "Women's Clothing",
    "phone": "(850) 262-8829",
    "address": "5100 N 9th Ave  Pensacola, FL 32504",
    "location": "Pasco"
  },
  {
    "name": "Ann Taylor",
    "description": "Women's Clothing",
    "phone": "(850) 477-1992",
    "address": "5100 N 9th Ave Ste E3  Pensacola, FL 32504",
    "location": "Pasco"
  },
  {
    "name": "Christopher & Banks",
    "description": "Women's Clothing",
    "phone": "(850) 477-9903",
    "address": "5100 N 9th Ave  Pensacola, FL 32504",
    "location": "Pasco"
  },
  {
    "name": "Frederick's of Hollywood",
    "description": "Lingerie",
    "phone": "(850) 476-3490",
    "address": "5100 N 9th Ave Ste H805  Pensacola, FL 32504",
    "location": "Pasco"
  },
  {
    "name": "Body Central",
    "description": "Women's Clothing",
    "phone": "(850) 478-4772",
    "address": "5100 N 9th Ave  Pensacola, FL 32504",
    "location": "Pasco"
  },
  {
    "name": "Dan & Joyce Trading Inc",
    "description": "Women's Clothing",
    "phone": "(850) 476-7477",
    "address": "5100 N 9th Ave  Pensacola, FL 32504",
    "location": "Pasco"
  },
  {
    "name": "BCBGMAXAZRIA",
    "description": "Women's Clothing",
    "phone": "(850) 474-1278",
    "address": "5100 N 9th Ave  Pensacola, FL 32504",
    "location": "Pasco"
  },
  {
    "name": "DressBarn",
    "description": "Women's Clothing",
    "phone": "(850) 494-2024",
    "address": "5100 N 9th Ave  Pensacola, FL 32504",
    "location": "Pasco"
  },
  {
    "name": "Rococo",
    "description": "Candles",
    "phone": "(850) 607-6073",
    "address": "4970 Bayou Blvd  Pensacola, FL 32503",
    "location": "Pasco"
  },
  {
    "name": "Gypsi Southern",
    "description": "Women's Clothing",
    "phone": "(850) 332-7042",
    "address": "2600 W Nine Mile Rd  Pensacola, FL 32534",
    "location": "Pasco"
  },
  {
    "name": "Simply Fashion",
    "description": "Women's Clothing",
    "phone": "(850) 432-5711",
    "address": "3300 N Pace Blvd  Pensacola, FL 32505",
    "location": "Pasco"
  },
  {
    "name": "Bodied By Chazz",
    "description": "Women's Clothing",
    "phone": "(850) 741-2615",
    "address": "3300 N Pace Blvd  Pensacola, FL 32505",
    "location": "Pasco"
  },
  {
    "name": "Simply 10",
    "description": "Women's Clothing",
    "phone": "(850) 444-8410",
    "address": "3300 N Pace Blvd Town & Country  Pensacola, FL 32505",
    "location": "Pasco"
  },
  {
    "name": "Michele's Ladies Apparel",
    "description": "Women's Clothing",
    "phone": "(850) 435-2862",
    "address": "2013 N Palafox St  Pensacola, FL 32501",
    "location": "Pasco"
  },
  {
    "name": "Yuhasz Andrew & Deb",
    "description": "Women's Clothing",
    "phone": "(850) 587-5645",
    "address": "990 Daffin Rd  Molino, FL 32577",
    "location": "Pasco"
  },
  {
    "name": "Sobo Boutique",
    "description": "Women's Clothing",
    "phone": "(850) 434-0258",
    "address": "518 N 9th Ave  Pensacola, FL 32501",
    "location": "Pasco"
  },
  {
    "name": "Scout",
    "description": "Women's Clothing",
    "phone": "(850) 607-7105",
    "address": "404 E Wright St  Pensacola, FL 32501",
    "location": "Pasco"
  },
  {
    "name": "Dt Fashion",
    "description": "Women's Clothing",
    "phone": "(850) 435-9804",
    "address": "1119 N 8th Ave  Pensacola, FL 32503",
    "location": "Pasco"
  },
  {
    "name": "Tots Teens and In Betweens",
    "description": "Clothing Stores",
    "phone": "(850) 516-3781",
    "address": "1020 N New Warrington Rd  Pensacola, FL 32506",
    "location": "Pasco"
  },
  {
    "name": "Melobay",
    "description": "Clothing Stores",
    "phone": "(850) 542-0010",
    "address": "34 N Palafox St  Pensacola, FL 32502",
    "location": "Pasco"
  },
  {
    "name": "ML Fashion Inc",
    "description": "Clothing Stores",
    "phone": "(850) 285-0617",
    "address": "4205 Lillian Hwy  Pensacola, FL 32506",
    "location": "Pasco"
  },
  {
    "name": "Its Personal by Sheila",
    "description": "Clothing Stores",
    "phone": "(850) 607-2520",
    "address": "2610 W Cervantes St  Pensacola, FL 32505",
    "location": "Pasco"
  },
  {
    "name": "Kay Fashion",
    "description": "Clothing Stores",
    "phone": "(850) 332-5913",
    "address": "2520 W Cervantes St  Pensacola, FL 32505",
    "location": "Pasco"
  },
  {
    "name": "Innerlight Inc",
    "description": "Clothing Stores",
    "phone": "(850) 495-3507",
    "address": "114 N Palafox St  Pensacola, FL 32502",
    "location": "Pasco"
  },
  {
    "name": "Viola's Mens Apparel",
    "description": "Clothing Stores",
    "phone": "(850) 429-7146",
    "address": "2727 W Cervantes St  Pensacola, FL 32505",
    "location": "Pasco"
  },
  {
    "name": "Wal-Mart SuperCenter",
    "description": "General Merchandise",
    "phone": "(850) 455-9852",
    "address": "4600 Mobile Hwy  Pensacola, FL 32506",
    "location": "Pasco"
  },
  {
    "name": "Renee's Bridal & Special Occasions",
    "description": "Women's Clothing",
    "phone": "(850) 494-7924",
    "address": "811 W Garden St  Pensacola, FL 32502",
    "location": "Pasco"
  },
  {
    "name": "The Market",
    "description": "Women's Clothing",
    "phone": "(850) 434-3012",
    "address": "248 W Garden St  Pensacola, FL 32502",
    "location": "Pasco"
  },
  {
    "name": "Downtown Motorsports",
    "description": "Sportswear",
    "phone": "(850) 637-3867",
    "address": "1299 N W St  Pensacola, FL 32505",
    "location": "Pasco"
  },
  {
    "name": "First National Bank",
    "description": "Discount Stores",
    "phone": "(850) 455-1817",
    "address": "4600 Mobile Hwy  Pensacola, FL 32506",
    "location": "Pasco"
  },
  {
    "name": "Good Times Stop",
    "description": "Department Stores",
    "phone": "(850) 791-6775",
    "address": "3319 Mobile Hwy  Pensacola, FL 32505",
    "location": "Pasco"
  },
  {
    "name": "Kay Fashions",
    "description": "Women's Clothing",
    "phone": "(850) 433-1444",
    "address": "2601 W Cervantes St  Pensacola, FL 32505",
    "location": "Pasco"
  },
  {
    "name": "Bluetique",
    "description": "Women's Clothing",
    "phone": "(850) 432-1264",
    "address": "212 S Alcaniz St  Pensacola, FL 32502",
    "location": "Pasco"
  },
  {
    "name": "Indigeaux Denim Bar & Boutique",
    "description": "Boutique Items",
    "phone": "(850) 607-2255",
    "address": "116 Palafox Pl  Pensacola, FL 32502",
    "location": "Pasco"
  },
  {
    "name": "Eileen Fisher",
    "description": "Women's Clothing",
    "phone": "(850) 434-3012",
    "address": "28 W Garden St  Pensacola, FL 32502",
    "location": "Pasco"
  }
]