[
  {
    "name": "Miche Bag of Daytona Beach",
    "description": "Clothing Stores",
    "phone": "(305) 302-4006",
    "address": "2024 Hibiscus Dr  Edgewater, FL 32141",
    "location": "Putnam"
  },
  {
    "name": "Unique Styles & Fashion Accessories",
    "description": "Clothing Stores",
    "phone": "(954) 880-7572",
    "address": "1856 Sabal Palm Dr  Edgewater, FL 32141",
    "location": "Putnam"
  },
  {
    "name": "Beachwear Outlet",
    "description": "Clothing Stores",
    "phone": "(386) 423-5456",
    "address": "4170 S Atlantic Ave  New Smyrna Beach, FL 32169",
    "location": "Putnam"
  },
  {
    "name": "Bealls Department Store",
    "description": "Clothing Stores",
    "phone": "(386) 427-1358",
    "address": "727 E 3rd Ave  New Smyrna Beach, FL 32169",
    "location": "Putnam"
  },
  {
    "name": "Grom Gear",
    "description": "Clothing Stores",
    "phone": "(386) 423-3004",
    "address": "100 N Cooper St Unit 4  New Smyrna Beach, FL 32169",
    "location": "Putnam"
  },
  {
    "name": "My Girlfriends Closet Inc",
    "description": "Clothing Stores",
    "phone": "(386) 957-4907",
    "address": "320 Flagler Ave  New Smyrna Beach, FL 32169",
    "location": "Putnam"
  },
  {
    "name": "Bealls Outlet Stores",
    "description": "Clothing Stores",
    "phone": "(386) 427-3550",
    "address": "1828 S Ridgewood Ave  Edgewater, FL 32141",
    "location": "Putnam"
  },
  {
    "name": "Firestore Online",
    "description": "Clothing Stores",
    "phone": "(866) 699-8084",
    "address": "205 Parktowne Blvd Ste 1  Edgewater, FL 32132",
    "location": "Putnam"
  },
  {
    "name": "Skid Row Customs",
    "description": "Clothing Stores",
    "phone": "(386) 402-8998",
    "address": "101 S Ridgewood Ave  Edgewater, FL 32132",
    "location": "Putnam"
  },
  {
    "name": "Deep Sea...",
    "description": "Clothing Stores",
    "phone": "(386) 402-8487",
    "address": "501 N Causeway  New Smyrna Beach, FL 32169",
    "location": "Putnam"
  },
  {
    "name": "Wild Side Beachwear",
    "description": "Clothing Stores",
    "phone": "(386) 427-1664",
    "address": "521 Flagler Ave  New Smyrna Beach, FL 32169",
    "location": "Putnam"
  },
  {
    "name": "Lolo's Boutique",
    "description": "Clothing Stores",
    "phone": "(386) 478-0442",
    "address": "384 Flagler Ave  New Smyrna Beach, FL 32169",
    "location": "Putnam"
  },
  {
    "name": "Bealls",
    "description": "Clothing Stores",
    "phone": "(386) 427-8282",
    "address": "727 E 3rd Ave  New Smyrna Beach, FL 32169",
    "location": "Putnam"
  },
  {
    "name": "Art Reflections",
    "description": "Clothing Stores",
    "phone": "(386) 424-0150",
    "address": "4395 Lake Ashby Rd  New Smyrna Beach, FL 32168",
    "location": "Putnam"
  },
  {
    "name": "Needful Things General Store",
    "description": "Variety Stores",
    "phone": "(386) 957-4837",
    "address": "6495 Turtlemound Rd  New Smyrna Beach, FL 32169",
    "location": "Putnam"
  },
  {
    "name": "Hot Bodz Clothing Company",
    "description": "Men's Clothing",
    "phone": "(386) 423-8844",
    "address": "341 Skyway Dr  Edgewater, FL 32132",
    "location": "Putnam"
  },
  {
    "name": "Hello Gorgeous BBW",
    "description": "Consignment Service",
    "phone": "(386) 478-6696",
    "address": "414 N Ridgewood Ave Lot 20  Edgewater, FL 32132",
    "location": "Putnam"
  },
  {
    "name": "Sears Hometown Stores",
    "description": "Department Stores",
    "phone": "(386) 423-8001",
    "address": "1441 S Dixie Fwy  New Smyrna Beach, FL 32168",
    "location": "Putnam"
  },
  {
    "name": "Sue Who",
    "description": "Women's Clothing",
    "phone": "(386) 428-9002",
    "address": "504 Flagler Ave  New Smyrna Beach, FL 32169",
    "location": "Putnam"
  },
  {
    "name": "Sel Swim & Boutique",
    "description": "Women's Clothing",
    "phone": "(386) 428-5433",
    "address": "300 Flagler Ave  New Smyrna Beach, FL 32169",
    "location": "Putnam"
  },
  {
    "name": "Wal-Mart 1079",
    "description": "General Merchandise",
    "phone": "(386) 427-5767",
    "address": "1996 State Road 44  New Smyrna Beach, FL 32168",
    "location": "Putnam"
  },
  {
    "name": "The Ann Anne Market",
    "description": "Women's Fashion Accessories",
    "phone": "(386) 530-5266",
    "address": "700 Canal St  New Smyrna Beach, FL 32168",
    "location": "Putnam"
  },
  {
    "name": "Sea Fox",
    "description": "Women's Clothing",
    "phone": "(386) 428-3577",
    "address": "501 Flagler Ave  New Smyrna Beach, FL 32169",
    "location": "Putnam"
  },
  {
    "name": "Island Soul",
    "description": "Women's Clothing",
    "phone": "(386) 410-3774",
    "address": "311 Flagler Ave Unit 105  New Smyrna Beach, FL 32169",
    "location": "Putnam"
  },
  {
    "name": "Look Charmed",
    "description": "Women's Clothing",
    "phone": "(386) 957-4262",
    "address": "311 Flagler Ave  New Smyrna Beach, FL 32169",
    "location": "Putnam"
  },
  {
    "name": "Angels By The Sea",
    "description": "Women's Clothing",
    "phone": "(386) 427-1977",
    "address": "308 Flagler Ave  New Smyrna Beach, FL 32169",
    "location": "Putnam"
  },
  {
    "name": "Bonnie's Boutique",
    "description": "Boutique Items",
    "phone": "(386) 673-6983",
    "address": "489 Venetian Villa Dr  New Smyrna Beach, FL 32168",
    "location": "Putnam"
  }
]