[
  {
    "name": "Fish Bone collection",
    "description": "Clothing Stores",
    "phone": "(772) 882-1848",
    "address": "1111 N 22nd St  Fort Pierce, FL 34950",
    "location": "St._Lucie"
  },
  {
    "name": "Tori_Jackson",
    "description": "Clothing Stores",
    "phone": "(772) 577-0174",
    "address": "3212 S Lakeview Cir Apt 205  Fort Pierce, FL 34949",
    "location": "St._Lucie"
  },
  {
    "name": "Chico's",
    "description": "Clothing Stores",
    "phone": "(772) 672-4054",
    "address": "2502 Avenue I  Fort Pierce, FL 34947",
    "location": "St._Lucie"
  },
  {
    "name": "West Marine",
    "description": "Boat Equipment & Supplies",
    "phone": "(772) 460-9044",
    "address": "1875 N Us Highway 1  Fort Pierce, FL 34946",
    "location": "St._Lucie"
  },
  {
    "name": "Simply Fashion",
    "description": "Women's Clothing",
    "phone": "(772) 489-8068",
    "address": "2107 N Us Highway 1  Fort Pierce, FL 34946",
    "location": "St._Lucie"
  },
  {
    "name": "Hop Hop Fashion",
    "description": "Clothing Stores",
    "phone": "(772) 464-3733",
    "address": "216 N 25th St  Fort Pierce, FL 34947",
    "location": "St._Lucie"
  },
  {
    "name": "Chubbies Inc",
    "description": "Clothing Stores",
    "phone": "(772) 466-7600",
    "address": "5208 Turnpike Feeder Rd  Fort Pierce, FL 34951",
    "location": "St._Lucie"
  },
  {
    "name": "Whimsy",
    "description": "Clothing Stores",
    "phone": "(772) 882-4397",
    "address": "521 N 2nd St  Fort Pierce, FL 34950",
    "location": "St._Lucie"
  },
  {
    "name": "Ebenezer Fashion",
    "description": "Clothing Stores",
    "phone": "(772) 242-1872",
    "address": "1411 Orange Ave  Fort Pierce, FL 34950",
    "location": "St._Lucie"
  },
  {
    "name": "Providers of Freedom",
    "description": "Clothing Stores",
    "phone": "(772) 475-7956",
    "address": "1 Avenue A  Fort Pierce, FL 34950",
    "location": "St._Lucie"
  },
  {
    "name": "Sara Jane & Co",
    "description": "Clothing Stores",
    "phone": "(404) 384-5148",
    "address": "100 S 2nd St  Fort Pierce, FL 34950",
    "location": "St._Lucie"
  },
  {
    "name": "Classy Chics Couture",
    "description": "Clothing Stores",
    "phone": "(954) 817-8426",
    "address": "850 S 21st St  Fort Pierce, FL 34950",
    "location": "St._Lucie"
  },
  {
    "name": "Everything and More Thrift Store",
    "description": "Clothing Stores",
    "phone": "(772) 461-0656",
    "address": "1102 S Us Highway 1  Fort Pierce, FL 34950",
    "location": "St._Lucie"
  },
  {
    "name": "South Florida Tattoo Company",
    "description": "Clothing Stores",
    "phone": "(772) 465-0012",
    "address": "1717 S US Highway 1  Fort Pierce, FL 34950",
    "location": "St._Lucie"
  },
  {
    "name": "Big John's Feed & Western Supply",
    "description": "Clothing Stores",
    "phone": "(772) 461-7712",
    "address": "6100 Orange Ave  Fort Pierce, FL 34947",
    "location": "St._Lucie"
  },
  {
    "name": "Bealls",
    "description": "Clothing Stores",
    "phone": "(772) 595-1074",
    "address": "4884 N Kings Hwy  Fort Pierce, FL 34951",
    "location": "St._Lucie"
  },
  {
    "name": "Bealls Outlet Stores",
    "description": "Clothing Stores",
    "phone": "(772) 595-1074",
    "address": "4884 N Kings Hwy  Fort Pierce, FL 34951",
    "location": "St._Lucie"
  },
  {
    "name": "Mens Rags, Inc.",
    "description": "Clothing Stores",
    "phone": "(772) 461-3553",
    "address": "2053 S Us Highway 1  Fort Pierce, FL 34950",
    "location": "St._Lucie"
  },
  {
    "name": "Engangered Outlaw",
    "description": "Clothing Stores",
    "phone": "(772) 461-9096",
    "address": "810 S 3rd St  Fort Pierce, FL 34950",
    "location": "St._Lucie"
  },
  {
    "name": "Hibbett Sports",
    "description": "Sporting Goods",
    "phone": "(772) 595-5875",
    "address": "1447 S Us Highway 1  Fort Pierce, FL 34950",
    "location": "St._Lucie"
  },
  {
    "name": "Rosslow's",
    "description": "Women's Clothing",
    "phone": "(772) 461-1222",
    "address": "105 S 2nd St  Fort Pierce, FL 34950",
    "location": "St._Lucie"
  },
  {
    "name": "Hyshe consignment",
    "description": "Consignment Service",
    "phone": "(772) 979-2332",
    "address": "110 US-1  Fort Pierce, FL 34950",
    "location": "St._Lucie"
  },
  {
    "name": "Fiyahtshirts",
    "description": "Men's Clothing",
    "phone": "(888) 600-2330",
    "address": "4888 N Kings Hwy # 101  Fort Pierce, FL 34951",
    "location": "St._Lucie"
  },
  {
    "name": "Williams Dept Store",
    "description": "Department Stores",
    "phone": "(772) 461-1847",
    "address": "1710 Avenue E  Fort Pierce, FL 34950",
    "location": "St._Lucie"
  },
  {
    "name": "Puttin on the Glitz",
    "description": "Women's Clothing",
    "phone": "(772) 595-9206",
    "address": "516 1/2 Means Ct  Fort Pierce, FL 34950",
    "location": "St._Lucie"
  },
  {
    "name": "Zayad Group",
    "description": "Men's Clothing",
    "phone": "(772) 595-6853",
    "address": "1407 Orange Ave  Fort Pierce, FL 34950",
    "location": "St._Lucie"
  },
  {
    "name": "Rupnogor Incorporated",
    "description": "Women's Clothing",
    "phone": "(772) 242-1340",
    "address": "3015 Orange Ave  Fort Pierce, FL 34947",
    "location": "St._Lucie"
  },
  {
    "name": "Catherine's",
    "description": "Women's Clothing",
    "phone": "(772) 345-2695",
    "address": "LANDING At Tradition  Port Saint Lucie, FL 34987",
    "location": "St._Lucie"
  },
  {
    "name": "Rainbow Shops",
    "description": "Clothing Stores",
    "phone": "(772) 429-0089",
    "address": "2517 S Us Highway 1  Fort Pierce, FL 34982",
    "location": "St._Lucie"
  },
  {
    "name": "Stein Mart",
    "description": "Clothing Stores",
    "phone": "(772) 567-2115",
    "address": "1225 S Us Highway 1  Vero Beach, FL 32962",
    "location": "St._Lucie"
  },
  {
    "name": "Marcy White Clothing",
    "description": "Clothing Stores",
    "phone": "(772) 332-1631",
    "address": "2820 Stoneway Ln Apt B  Fort Pierce, FL 34982",
    "location": "St._Lucie"
  },
  {
    "name": "Latina's Boutique",
    "description": "Clothing Stores",
    "phone": "(407) 515-0145",
    "address": "3223 S Us Highway 1  Fort Pierce, FL 34982",
    "location": "St._Lucie"
  },
  {
    "name": "Daheelz and Stuff",
    "description": "Clothing Stores",
    "phone": "(772) 242-8261",
    "address": "4830 S Us Highway 1  Fort Pierce, FL 34982",
    "location": "St._Lucie"
  },
  {
    "name": "Citi Trends",
    "description": "Clothing Stores",
    "phone": "(772) 801-0550",
    "address": "2525 S Us Highway 1  Fort Pierce, FL 34982",
    "location": "St._Lucie"
  },
  {
    "name": "Treasure Coast School Uniform & Apparel",
    "description": "Clothing Stores",
    "phone": "(772) 465-0036",
    "address": "405 Ixoria Ave  Fort Pierce, FL 34982",
    "location": "St._Lucie"
  },
  {
    "name": "All Thru The House",
    "description": "Clothing Stores",
    "phone": "(772) 567-7991",
    "address": "1165 S Us Highway 1  Vero Beach, FL 32962",
    "location": "St._Lucie"
  },
  {
    "name": "Morning Star Personalized Apparel",
    "description": "Clothing Stores",
    "phone": "(772) 569-8412",
    "address": "621 2nd Ln  Vero Beach, FL 32962",
    "location": "St._Lucie"
  },
  {
    "name": "Sears",
    "description": "Clothing Stores",
    "phone": "(847) 286-2500",
    "address": "3207 S US Highway 1  Fort Pierce, FL 34982",
    "location": "St._Lucie"
  },
  {
    "name": "Fleet Feet",
    "description": "Clothing Stores",
    "phone": "(772) 232-9225",
    "address": "2624 S Us Highway 1  Fort Pierce, FL 34982",
    "location": "St._Lucie"
  },
  {
    "name": "GARAGE",
    "description": "Clothing Stores",
    "phone": "(772) 257-5895",
    "address": "420 1st St  Vero Beach, FL 32962",
    "location": "St._Lucie"
  },
  {
    "name": "Walmart Supercenter",
    "description": "General Merchandise",
    "phone": "(772) 468-0880",
    "address": "5100 Okeechobee Rd  Fort Pierce, FL 34947",
    "location": "St._Lucie"
  },
  {
    "name": "A1A Sportswear Inc",
    "description": "Sportswear",
    "phone": "(772) 460-6677",
    "address": "4796 S Us Highway 1  Fort Pierce, FL 34982",
    "location": "St._Lucie"
  },
  {
    "name": "Sears Hometown Stores",
    "description": "Department Stores",
    "phone": "(772) 489-8055",
    "address": "3207 S Us Highway 1  Fort Pierce, FL 34982",
    "location": "St._Lucie"
  },
  {
    "name": "Cato Fashions",
    "description": "Women's Clothing",
    "phone": "(772) 466-1189",
    "address": "5210 Okeechobee Rd  Fort Pierce, FL 34947",
    "location": "St._Lucie"
  },
  {
    "name": "King Carter Aluminum",
    "description": "Aluminum Products",
    "phone": "(772) 466-8999",
    "address": "1503 Edgevale Rd  Fort Pierce, FL 34982",
    "location": "St._Lucie"
  },
  {
    "name": "Diebold",
    "description": "Department Stores",
    "phone": "(479) 204-5010",
    "address": "4001 S Jenkins Rd  Fort Pierce, FL 34981",
    "location": "St._Lucie"
  },
  {
    "name": "Bon Worth",
    "description": "Women's Clothing",
    "phone": "(772) 468-8444",
    "address": "2323 S Us Highway 1  Fort Pierce, FL 34982",
    "location": "St._Lucie"
  },
  {
    "name": "Indulgence 101",
    "description": "Fashion Designers",
    "phone": "(772) 940-6239",
    "address": "403 Mades Dr  Fort Pierce, FL 34947",
    "location": "St._Lucie"
  },
  {
    "name": "Shoppers Galore",
    "description": "Women's Clothing",
    "phone": "(772) 873-8666",
    "address": "5216 NW West Piper Cir  Port Saint Lucie, FL 34986",
    "location": "St._Lucie"
  },
  {
    "name": "Play It Again Consignment Boutique Inc",
    "description": "Consignment Service",
    "phone": "(772) 465-6868",
    "address": "2939 S Us Highway 1  Fort Pierce, FL 34982",
    "location": "St._Lucie"
  },
  {
    "name": "Conreco Shoes",
    "description": "Women's Fashion Accessories",
    "phone": "(772) 258-4022",
    "address": "845 7th Ave  Vero Beach, FL 32960",
    "location": "St._Lucie"
  },
  {
    "name": "Discovery Thrift Store",
    "description": "Clothing Stores",
    "phone": "(772) 777-5425",
    "address": "7190 S Us Highway 1  Port Saint Lucie, FL 34952",
    "location": "St._Lucie"
  },
  {
    "name": "Perkins Medical Supply",
    "description": "Clothing Stores",
    "phone": "(772) 569-3797",
    "address": "4005 20th St  Vero Beach, FL 32960",
    "location": "St._Lucie"
  },
  {
    "name": "Labels Timeless Clothing",
    "description": "Clothing Stores",
    "phone": "(772) 569-7400",
    "address": "2050 6th Ave  Vero Beach, FL 32960",
    "location": "St._Lucie"
  },
  {
    "name": "Kemps Shoe Salon & Boutique",
    "description": "Clothing Stores",
    "phone": "(772) 231-2771",
    "address": "3385 Ocean Dr  Vero Beach, FL 32963",
    "location": "St._Lucie"
  },
  {
    "name": "Bealls Department Store",
    "description": "Clothing Stores",
    "phone": "(772) 569-8173",
    "address": "5900 20th St  Vero Beach, FL 32966",
    "location": "St._Lucie"
  },
  {
    "name": "Rue21",
    "description": "Clothing Stores",
    "phone": "(772) 770-1623",
    "address": "6200 20th St Ste 510  Vero Beach, FL 32966",
    "location": "St._Lucie"
  },
  {
    "name": "T.J. Maxx",
    "description": "Clothing Stores",
    "phone": "(772) 569-3164",
    "address": "405 21st Miricle Mile Ext  Vero Beach, FL 32960",
    "location": "St._Lucie"
  },
  {
    "name": "Burlington Coat Factory",
    "description": "Clothing Stores",
    "phone": "(772) 785-6340",
    "address": "1363 NW Saint Lucie West Blvd  Port Saint Lucie, FL 34986",
    "location": "St._Lucie"
  },
  {
    "name": "PacSun",
    "description": "Clothing Stores",
    "phone": "(772) 978-4322",
    "address": "6200 20th St  Vero Beach, FL 32966",
    "location": "St._Lucie"
  },
  {
    "name": "The Parisian Hostess",
    "description": "Clothing Stores",
    "phone": "(805) 587-5624",
    "address": "2044 14th Ave Ste 13  Vero Beach, FL 32960",
    "location": "St._Lucie"
  },
  {
    "name": "T.J.Maxx",
    "description": "Clothing Stores",
    "phone": "(772) 569-3164",
    "address": "405 21st St  Vero Beach, FL 32960",
    "location": "St._Lucie"
  },
  {
    "name": "Vince.",
    "description": "Clothing Stores",
    "phone": "(772) 231-5686",
    "address": "3227 Ocean Dr  Vero Beach, FL 32963",
    "location": "St._Lucie"
  },
  {
    "name": "Freestyle Clothing",
    "description": "Clothing Stores",
    "phone": "(772) 794-9767",
    "address": "6200 20th St Ste 550  Vero Beach, FL 32966",
    "location": "St._Lucie"
  },
  {
    "name": "Dahittmen",
    "description": "Clothing Stores",
    "phone": "(772) 252-4639",
    "address": "6725 S Us Highway 1  Port Saint Lucie, FL 34952",
    "location": "St._Lucie"
  },
  {
    "name": "Designer Depot",
    "description": "Clothing Stores",
    "phone": "(772) 465-6889",
    "address": "6837 S Us Highway 1  Port Saint Lucie, FL 34952",
    "location": "St._Lucie"
  },
  {
    "name": "Faithfully Chic Boutique",
    "description": "Clothing Stores",
    "phone": "(772) 333-5941",
    "address": "6967 Hancock Dr  Port Saint Lucie, FL 34952",
    "location": "St._Lucie"
  },
  {
    "name": "Chic Couture",
    "description": "Clothing Stores",
    "phone": "(772) 444-2719",
    "address": "8410 S Us Highway 1  Port Saint Lucie, FL 34952",
    "location": "St._Lucie"
  },
  {
    "name": "Lift Goons",
    "description": "Clothing Stores",
    "phone": "(616) 566-7632",
    "address": "271 SW Palm Dr Apt 206  Port Saint Lucie, FL 34986",
    "location": "St._Lucie"
  },
  {
    "name": "Overlook Fashion Inc",
    "description": "Clothing Stores",
    "phone": "(772) 882-2541",
    "address": "1070 SW Bayshore Blvd  Port Saint Lucie, FL 34983",
    "location": "St._Lucie"
  },
  {
    "name": "Living It Fully Everyday",
    "description": "Clothing Stores",
    "phone": "(305) 206-5957",
    "address": "319 SE Fallon Dr  Port Saint Lucie, FL 34983",
    "location": "St._Lucie"
  },
  {
    "name": "Flying Kisses",
    "description": "Clothing Stores",
    "phone": "(772) 626-2265",
    "address": "1361 SE Airoso Blvd  Port Saint Lucie, FL 34983",
    "location": "St._Lucie"
  },
  {
    "name": "Southern Rack & Reel Outfitters",
    "description": "Clothing Stores",
    "phone": "(772) 626-0670",
    "address": "192 SW Grove Ave  Port St Lucie, FL 34983",
    "location": "St._Lucie"
  },
  {
    "name": "Blu' Class",
    "description": "Clothing Stores",
    "phone": "(772) 333-1481",
    "address": "803 SE Walton Lakes Dr  Port Saint Lucie, FL 34952",
    "location": "St._Lucie"
  },
  {
    "name": "Twirl Kids' Boutique",
    "description": "Clothing Stores",
    "phone": "(772) 492-1091",
    "address": "3121 Ocean Dr  Vero Beach, FL 32963",
    "location": "St._Lucie"
  },
  {
    "name": "Tommy Hilfiger",
    "description": "Clothing Stores",
    "phone": "(772) 564-2300",
    "address": "2600 20th St  Vero Beach, FL 32960",
    "location": "St._Lucie"
  },
  {
    "name": "Beach Planet",
    "description": "Clothing Stores",
    "phone": "(772) 999-5771",
    "address": "3425 Ocean Dr  Vero Beach, FL 32963",
    "location": "St._Lucie"
  },
  {
    "name": "Royal Blue of Vero Beach",
    "description": "Clothing Stores",
    "phone": "(772) 564-0230",
    "address": "535 Pittman Ave  Vero Beach, FL 32968",
    "location": "St._Lucie"
  },
  {
    "name": "Express",
    "description": "Clothing Stores",
    "phone": "(772) 562-7411",
    "address": "6200 20th St  Vero Beach, FL 32966",
    "location": "St._Lucie"
  },
  {
    "name": "American Eagle Outfitters",
    "description": "Clothing Stores",
    "phone": "(772) 299-4399",
    "address": "6200 20th St Ste 656  Vero Beach, FL 32966",
    "location": "St._Lucie"
  },
  {
    "name": "HollisterCo",
    "description": "Clothing Stores",
    "phone": "(772) 562-6137",
    "address": "6200 20th St Ste 440  Vero Beach, FL 32966",
    "location": "St._Lucie"
  },
  {
    "name": "Gromswear Inc",
    "description": "Clothing Stores",
    "phone": "(772) 234-1293",
    "address": "926 Tulip Ln  Vero Beach, FL 32963",
    "location": "St._Lucie"
  },
  {
    "name": "Clothing Warehouse",
    "description": "Clothing Stores",
    "phone": "(772) 231-0766",
    "address": "1422 Old Dixie Hwy  Vero Beach, FL 32960",
    "location": "St._Lucie"
  },
  {
    "name": "Charlotte Russe",
    "description": "Clothing Stores",
    "phone": "(772) 563-0518",
    "address": "6200 20th St  Vero Beach, FL 32966",
    "location": "St._Lucie"
  },
  {
    "name": "Aeropostale",
    "description": "Clothing Stores",
    "phone": "(772) 770-9436",
    "address": "6200 20th St  Vero Beach, FL 32966",
    "location": "St._Lucie"
  },
  {
    "name": "Scott's Sporting Goods",
    "description": "Clothing Stores",
    "phone": "(772) 778-0661",
    "address": "1407 20th St  Vero Beach, FL 32960",
    "location": "St._Lucie"
  },
  {
    "name": "Kmart",
    "description": "Clothing Stores",
    "phone": "(772) 562-7801",
    "address": "1501 Us Highway 1  Vero Beach, FL 32960",
    "location": "St._Lucie"
  },
  {
    "name": "JCPenney",
    "description": "Clothing Stores",
    "phone": "(772) 569-1600",
    "address": "6200 20th St Ste 700  Vero Beach, FL 32966",
    "location": "St._Lucie"
  },
  {
    "name": "Alan's Bicycle Center",
    "description": "Clothing Stores",
    "phone": "(772) 562-2453",
    "address": "2020 Commerce Ave  Vero Beach, FL 32960",
    "location": "St._Lucie"
  },
  {
    "name": "Journeys",
    "description": "Clothing Stores",
    "phone": "(772) 299-3974",
    "address": "6200 20th St  Vero Beach, FL 32966",
    "location": "St._Lucie"
  },
  {
    "name": "Marshalls & HomeGoods",
    "description": "Clothing Stores",
    "phone": "(772) 569-2082",
    "address": "5915 20th St  Vero Beach, FL 32966",
    "location": "St._Lucie"
  },
  {
    "name": "Macy's",
    "description": "Clothing Stores",
    "phone": "(772) 564-2300",
    "address": "6200 20th St  Vero Beach, FL 32966",
    "location": "St._Lucie"
  },
  {
    "name": "Five Below",
    "description": "Clothing Stores",
    "phone": "(772) 253-1185",
    "address": "1333 NW Saint Lucie West Blvd  Port St Lucie, FL 34986",
    "location": "St._Lucie"
  },
  {
    "name": "Chico's Off The Rack",
    "description": "Clothing Stores",
    "phone": "(772) 224-3915",
    "address": "1355 NW Saint Lucie West Blvd  Port St Lucie, FL 34986",
    "location": "St._Lucie"
  },
  {
    "name": "White House | Black Market",
    "description": "Clothing Stores",
    "phone": "(772) 778-1246",
    "address": "2013 Indian River Blvd  Vero Beach, FL 32960",
    "location": "St._Lucie"
  },
  {
    "name": "Sassy Boutique",
    "description": "Clothing Stores",
    "phone": "(772) 234-3998",
    "address": "3375 Ocean Dr  Vero Beach, FL 32963",
    "location": "St._Lucie"
  },
  {
    "name": "Fully Promoted Vero Beach, FL",
    "description": "Clothing Stores",
    "phone": "(772) 299-3879",
    "address": "915 17th St  Vero Beach, FL 32960",
    "location": "St._Lucie"
  },
  {
    "name": "S.A. Elite",
    "description": "Clothing Stores",
    "phone": "(772) 562-7304",
    "address": "6560 20th St  Vero Beach, FL 32966",
    "location": "St._Lucie"
  },
  {
    "name": "Anthony's Ladies Apparel",
    "description": "Clothing Stores",
    "phone": "(772) 562-0480",
    "address": "636 21st St  Vero Beach, FL 32960",
    "location": "St._Lucie"
  },
  {
    "name": "Very Fitting",
    "description": "Clothing Stores",
    "phone": "(772) 231-4655",
    "address": "3301 Ocean Dr  Vero Beach, FL 32963",
    "location": "St._Lucie"
  },
  {
    "name": "Tusk Inc",
    "description": "Clothing Stores",
    "phone": "(772) 231-4025",
    "address": "925 Azalea Ln  Vero Beach, FL 32963",
    "location": "St._Lucie"
  },
  {
    "name": "Vernon Scott Menswear",
    "description": "Clothing Stores",
    "phone": "(772) 231-3733",
    "address": "818 Beachland Blvd  Vero Beach, FL 32963",
    "location": "St._Lucie"
  },
  {
    "name": "Maus & Hoffman",
    "description": "Clothing Stores",
    "phone": "(772) 226-5028",
    "address": "981 Beachland Blvd  Vero Beach, FL 32963",
    "location": "St._Lucie"
  },
  {
    "name": "Casablanca Super Wear",
    "description": "Clothing Stores",
    "phone": "(772) 569-9997",
    "address": "6200 20th St  Vero Beach, FL 32966",
    "location": "St._Lucie"
  },
  {
    "name": "Oakley",
    "description": "Clothing Stores",
    "phone": "(772) 461-5826",
    "address": "15455 Orange Ave  Fort Pierce, FL 34945",
    "location": "St._Lucie"
  },
  {
    "name": "Marinas Fashions Y Alteraciones",
    "description": "Clothing Stores",
    "phone": "(772) 231-7220",
    "address": "816 Beachland Blvd  Vero Beach, FL 32963",
    "location": "St._Lucie"
  },
  {
    "name": "Shoe Show",
    "description": "Clothing Stores",
    "phone": "(772) 564-0837",
    "address": "6200 20Th St Ste 424A Indian River Mall  Vero Beach, FL 32966",
    "location": "St._Lucie"
  },
  {
    "name": "Ross Dress for Less",
    "description": "Clothing Stores",
    "phone": "(772) 299-6497",
    "address": "6190 20th St  Vero Beach, FL 32966",
    "location": "St._Lucie"
  },
  {
    "name": "Rhodes GT Men's Wear",
    "description": "Clothing Stores",
    "phone": "(772) 231-6424",
    "address": "1008 Beachland Blvd  Vero Beach, FL 32963",
    "location": "St._Lucie"
  },
  {
    "name": "Walmart Vision & Glasses",
    "description": "General Merchandise",
    "phone": "(772) 873-9223",
    "address": "1675 NW Saint Lucie West Blvd  Port St Lucie, FL 34986",
    "location": "St._Lucie"
  },
  {
    "name": "Target",
    "description": "General Merchandise",
    "phone": "(772) 778-0376",
    "address": "5800 20th St  Vero Beach, FL 32966",
    "location": "St._Lucie"
  },
  {
    "name": "Cato",
    "description": "Women's Clothing",
    "phone": "(772) 335-1602",
    "address": "9026 S Us Highway 1  Port Saint Lucie, FL 34952",
    "location": "St._Lucie"
  },
  {
    "name": "Play It Again Sports",
    "description": "Sporting Goods",
    "phone": "(772) 563-0026",
    "address": "6160 20th St  Vero Beach, FL 32966",
    "location": "St._Lucie"
  },
  {
    "name": "Lazy Daisy",
    "description": "Women's Clothing",
    "phone": "(772) 231-4006",
    "address": "919 Azalea Ln  Vero Beach, FL 32963",
    "location": "St._Lucie"
  },
  {
    "name": "Elizabeth's Fine Consignments",
    "description": "Consignment Service",
    "phone": "(772) 567-5577",
    "address": "877 17th St  Vero Beach, FL 32960",
    "location": "St._Lucie"
  },
  {
    "name": "Coco's Consignment",
    "description": "Women's Clothing",
    "phone": "(772) 770-6030",
    "address": "2308 7th Ave  Vero Beach, FL 32960",
    "location": "St._Lucie"
  },
  {
    "name": "Dillard's",
    "description": "Department Stores",
    "phone": "(772) 770-2141",
    "address": "6200 20th St  Vero Beach, FL 32966",
    "location": "St._Lucie"
  },
  {
    "name": "Lady Foot Locker",
    "description": "Shoe Stores",
    "phone": "(772) 978-0248",
    "address": "6200 20th St Ste 340  Vero Beach, FL 32966",
    "location": "St._Lucie"
  },
  {
    "name": "Studio Gabriel Salon Spa & Boutique",
    "description": "Day Spas",
    "phone": "(772) 234-8105",
    "address": "2855 Ocean Dr  Vero Beach, FL 32963",
    "location": "St._Lucie"
  },
  {
    "name": "Bealls Florida",
    "description": "Home Furnishings",
    "phone": "(772) 344-7288",
    "address": "1713 NW Saint Lucie West Blvd  Port Saint Lucie, FL 34986",
    "location": "St._Lucie"
  },
  {
    "name": "Center Court Tennis Outfitters",
    "description": "Tennis Equipment & Supplies",
    "phone": "(772) 567-8211",
    "address": "935 17th St  Vero Beach, FL 32960",
    "location": "St._Lucie"
  },
  {
    "name": "Aluma Tower Company",
    "description": "Aluminum Products",
    "phone": "(772) 238-6240",
    "address": "1639 Old Dixie Hwy  Vero Beach, FL 32960",
    "location": "St._Lucie"
  },
  {
    "name": "Champs Sports",
    "description": "Sportswear",
    "phone": "(772) 978-1672",
    "address": "6200 20th St  Vero Beach, FL 32966",
    "location": "St._Lucie"
  },
  {
    "name": "Finish Line",
    "description": "Shoe Stores",
    "phone": "(772) 564-2312",
    "address": "6200 20th St  Vero Beach, FL 32966",
    "location": "St._Lucie"
  },
  {
    "name": "Petite Shop",
    "description": "Women's Clothing",
    "phone": "(772) 231-4595",
    "address": "3340 Ocean Dr  Vero Beach, FL 32963",
    "location": "St._Lucie"
  },
  {
    "name": "Sigrid's of Vero",
    "description": "Sportswear",
    "phone": "(772) 231-4396",
    "address": "3337 Ocean Dr  Vero Beach, FL 32963",
    "location": "St._Lucie"
  },
  {
    "name": "The Beach Shop",
    "description": "Sportswear",
    "phone": "(772) 231-6228",
    "address": "3328 Ocean Dr  Vero Beach, FL 32963",
    "location": "St._Lucie"
  },
  {
    "name": "Talbots",
    "description": "Women's Clothing",
    "phone": "(772) 564-7009",
    "address": "6200 20th St  Vero Beach, FL 32966",
    "location": "St._Lucie"
  },
  {
    "name": "Kegel Connection",
    "description": "Sportswear",
    "phone": "(772) 242-1282",
    "address": "6759 S Us Highway 1  Port Saint Lucie, FL 34952",
    "location": "St._Lucie"
  },
  {
    "name": "Ultimate Sportwear",
    "description": "Sportswear",
    "phone": "(772) 237-5545",
    "address": "5882 NW Carovel Ave  Port Saint Lucie, FL 34986",
    "location": "St._Lucie"
  },
  {
    "name": "Stitchworks",
    "description": "Sportswear",
    "phone": "(772) 285-5869",
    "address": "1391 NW Saint Lucie West Blvd  Port Saint Lucie, FL 34986",
    "location": "St._Lucie"
  },
  {
    "name": "Kegel Connections",
    "description": "Sportswear",
    "phone": "(772) 336-2695",
    "address": "1600 NW Courtyard Cir  Port Saint Lucie, FL 34986",
    "location": "St._Lucie"
  },
  {
    "name": "Columbia Sportwear",
    "description": "Sportswear",
    "phone": "(772) 925-3760",
    "address": "490 21st St  Vero Beach, FL 32960",
    "location": "St._Lucie"
  },
  {
    "name": "Pogues",
    "description": "Sportswear",
    "phone": "(772) 234-9966",
    "address": "505 Beachland Blvd  Vero Beach, FL 32963",
    "location": "St._Lucie"
  },
  {
    "name": "Lids",
    "description": "Hat Shops",
    "phone": "(772) 794-1765",
    "address": "6200 20th St Ste 648  Vero Beach, FL 32966",
    "location": "St._Lucie"
  },
  {
    "name": "Sports Heaven",
    "description": "Sportswear",
    "phone": "(772) 794-7743",
    "address": "6200 20th St  Vero Beach, FL 32966",
    "location": "St._Lucie"
  },
  {
    "name": "Rack Room Shoes",
    "description": "Shoe Stores",
    "phone": "(772) 562-6504",
    "address": "6200 20th St  Vero Beach, FL 32966",
    "location": "St._Lucie"
  },
  {
    "name": "Famous Footwear",
    "description": "Shoe Stores",
    "phone": "(772) 410-2857",
    "address": "775 94th Ave SW  Vero Beach, FL 32968",
    "location": "St._Lucie"
  },
  {
    "name": "AVON by Deanie",
    "description": "Skin Care",
    "phone": "(772) 453-0056",
    "address": "205 E Easy St  Fort Pierce, FL 34982",
    "location": "St._Lucie"
  },
  {
    "name": "Fuscia Fashion and Accessories",
    "description": "Women's Clothing",
    "phone": "(772) 257-5900",
    "address": "1185 Old Dixie Hwy Ste A3  Vero Beach, FL 32960",
    "location": "St._Lucie"
  },
  {
    "name": "JoS. A. Bank",
    "description": "Men's Clothing",
    "phone": "(772) 569-6196",
    "address": "2035 Indian River Blvd  Vero Beach, FL 32960",
    "location": "St._Lucie"
  },
  {
    "name": "Soma Intimates",
    "description": "Lingerie",
    "phone": "(772) 564-2902",
    "address": "2053 Indian River Blvd  Vero Beach, FL 32960",
    "location": "St._Lucie"
  },
  {
    "name": "Beach Shop",
    "description": "Swimwear & Accessories",
    "phone": "(772) 562-4559",
    "address": "390 21st St  Vero Beach, FL 32960",
    "location": "St._Lucie"
  },
  {
    "name": "Talulahs Boutique",
    "description": "Boutique Items",
    "phone": "(772) 226-5340",
    "address": "2101 Indian River Blvd Ste 108  Vero Beach, FL 32960",
    "location": "St._Lucie"
  },
  {
    "name": "Kemp's Too",
    "description": "Shoes-Wholesale & Manufacturers",
    "phone": "(772) 567-3998",
    "address": "674 21st St  Vero Beach, FL 32960",
    "location": "St._Lucie"
  },
  {
    "name": "Kemp's Shoe Outlet",
    "description": "Shoe Stores",
    "phone": "(772) 567-3998",
    "address": "674 21st St  Vero Beach, FL 32960",
    "location": "St._Lucie"
  },
  {
    "name": "Coco Couture Consignment",
    "description": "Consignment Service",
    "phone": "(772) 770-6030",
    "address": "680 21st St  Vero Beach, FL 32960",
    "location": "St._Lucie"
  },
  {
    "name": "Biarritz Boutique",
    "description": "Boutique Items",
    "phone": "(772) 538-2739",
    "address": "1925 Old Dixie Hwy  Vero Beach, FL 32960",
    "location": "St._Lucie"
  },
  {
    "name": "Frances Brewster",
    "description": "Women's Clothing",
    "phone": "(772) 231-2051",
    "address": "2903 Cardinal Dr  Vero Beach, FL 32963",
    "location": "St._Lucie"
  },
  {
    "name": "Penelope's Boutique",
    "description": "Boutique Items",
    "phone": "(772) 231-7405",
    "address": "3121 Ocean Dr  Vero Beach, FL 32963",
    "location": "St._Lucie"
  },
  {
    "name": "Lily Pad",
    "description": "Women's Clothing",
    "phone": "(772) 231-7405",
    "address": "3121 Ocean Dr  Vero Beach, FL 32963",
    "location": "St._Lucie"
  },
  {
    "name": "Sara Campbell",
    "description": "Women's Clothing",
    "phone": "(772) 205-2756",
    "address": "3231 Ocean Dr  Vero Beach, FL 32963",
    "location": "St._Lucie"
  },
  {
    "name": "Pineapple",
    "description": "Resale Shops",
    "phone": "(772) 231-1511",
    "address": "3241 Ocean Dr  Vero Beach, FL 32963",
    "location": "St._Lucie"
  },
  {
    "name": "Tusk Clothing & Gifts For Men",
    "description": "Men's Clothing",
    "phone": "(772) 231-4025",
    "address": "925 Azalea Ln  Vero Beach, FL 32963",
    "location": "St._Lucie"
  },
  {
    "name": "Otter Company",
    "description": "Women's Clothing",
    "phone": "(772) 231-5686",
    "address": "923 Azalea Ln  Vero Beach, FL 32963",
    "location": "St._Lucie"
  },
  {
    "name": "Southern Tide Vero Beach",
    "description": "Women's Clothing",
    "phone": "(772) 213-8462",
    "address": "921 Azalea Ln  Vero Beach, FL 32963",
    "location": "St._Lucie"
  },
  {
    "name": "Patchington Inc",
    "description": "Women's Clothing",
    "phone": "(772) 231-3543",
    "address": "3335 Ocean Dr  Vero Beach, FL 32963",
    "location": "St._Lucie"
  },
  {
    "name": "Posh",
    "description": "Women's Clothing",
    "phone": "(772) 234-6111",
    "address": "3349 Ocean Dr  Vero Beach, FL 32963",
    "location": "St._Lucie"
  },
  {
    "name": "Hanlons Mens Shoes & Clothing",
    "description": "Men's Clothing",
    "phone": "(772) 231-2334",
    "address": "3343 Cardinal Dr  Vero Beach, FL 32963",
    "location": "St._Lucie"
  },
  {
    "name": "And Co, Cooper",
    "description": "Women's Clothing",
    "phone": "(772) 231-9889",
    "address": "3435 Ocean Dr  Vero Beach, FL 32963",
    "location": "St._Lucie"
  },
  {
    "name": "Victoria's Secret",
    "description": "Lingerie",
    "phone": "(772) 778-3360",
    "address": "6200 20th St  Vero Beach, FL 32966",
    "location": "St._Lucie"
  },
  {
    "name": "Downtown Divas Inc",
    "description": "Women's Clothing",
    "phone": "(772) 257-6428",
    "address": "6200 20th St  Vero Beach, FL 32966",
    "location": "St._Lucie"
  },
  {
    "name": "L'eggs Hanes Bali Playtex",
    "description": "Clothing Stores",
    "phone": "(772) 978-0003",
    "address": "1735 94th Dr  Vero Beach, FL 32966",
    "location": "St._Lucie"
  },
  {
    "name": "Columbia Factory Store",
    "description": "Clothing Stores",
    "phone": "(772) 925-3760",
    "address": "1659 94th Dr Ste F250  Vero Beach, FL 32966",
    "location": "St._Lucie"
  },
  {
    "name": "Banana Republic",
    "description": "Clothing Stores",
    "phone": "(772) 794-5310",
    "address": "1748 94th Dr  Vero Beach, FL 32966",
    "location": "St._Lucie"
  },
  {
    "name": "Gap",
    "description": "Clothing Stores",
    "phone": "(772) 563-2548",
    "address": "1769 94th Dr  Vero Beach, FL 32966",
    "location": "St._Lucie"
  },
  {
    "name": "J. Crew",
    "description": "Clothing Stores",
    "phone": "(772) 562-3832",
    "address": "1824 94th Dr  Vero Beach, FL 32966",
    "location": "St._Lucie"
  },
  {
    "name": "J. Crew Factory Store",
    "description": "Clothing Stores",
    "phone": "(772) 562-3832",
    "address": "1838 94th Dr  Vero Beach, FL 32966",
    "location": "St._Lucie"
  },
  {
    "name": "DressBarn",
    "description": "Clothing Stores",
    "phone": "(772) 770-6024",
    "address": "1743 94th Dr  Vero Beach, FL 32966",
    "location": "St._Lucie"
  },
  {
    "name": "Jones New York",
    "description": "Clothing Stores",
    "phone": "(772) 567-4111",
    "address": "1794 94th Dr  Vero Beach, FL 32966",
    "location": "St._Lucie"
  },
  {
    "name": "All For Color",
    "description": "Clothing Stores",
    "phone": "(772) 219-7584",
    "address": "23050 SW Accesi Way  Port Saint Lucie, FL 34986",
    "location": "St._Lucie"
  },
  {
    "name": "Veronica P Hunter Fashions",
    "description": "Clothing Stores",
    "phone": "(772) 453-3185",
    "address": "4835 32nd Ave  Vero Beach, FL 32967",
    "location": "St._Lucie"
  },
  {
    "name": "Starwear.us",
    "description": "Clothing Stores",
    "phone": "(772) 321-4246",
    "address": "6700 37th St  Vero Beach, FL 32966",
    "location": "St._Lucie"
  },
  {
    "name": "The Belt and Bag Lady",
    "description": "Clothing Stores",
    "phone": "(772) 999-6674",
    "address": "1455 90th Ave Lot 313  Vero Beach, FL 32966",
    "location": "St._Lucie"
  },
  {
    "name": "VF Outlet",
    "description": "Clothing Stores",
    "phone": "(772) 770-4100",
    "address": "1721 94th Drive, Suite E 110  Vero Beach, FL 32966",
    "location": "St._Lucie"
  },
  {
    "name": "Jockey Store",
    "description": "Clothing Stores",
    "phone": "(772) 562-5304",
    "address": "1828 94th Dr  Vero Beach, FL 32966",
    "location": "St._Lucie"
  },
  {
    "name": "Jockey",
    "description": "Clothing Stores",
    "phone": "(772) 562-5304",
    "address": "1716 94th Dr Suite G-120  Vero Beach, FL 32966",
    "location": "St._Lucie"
  },
  {
    "name": "Ralph Lauren",
    "description": "Clothing Stores",
    "phone": "(772) 562-0737",
    "address": "1812 94th Dr  Vero Beach, FL 32966",
    "location": "St._Lucie"
  },
  {
    "name": "Calvin Klein",
    "description": "Clothing Stores",
    "phone": "(772) 299-7008",
    "address": "1852 94th Dr  Vero Beach, FL 32966",
    "location": "St._Lucie"
  },
  {
    "name": "Gap Factory",
    "description": "Clothing Stores",
    "phone": "(772) 563-2548",
    "address": "1769 94th Dr  Vero Beach, FL 32966",
    "location": "St._Lucie"
  },
  {
    "name": "Jockey Factory Outlet",
    "description": "Clothing Stores",
    "phone": "(772) 562-5304",
    "address": "1716 94th Dr  Vero Beach, FL 32966",
    "location": "St._Lucie"
  },
  {
    "name": "Nike Factory Store - Closed",
    "description": "Clothing Stores",
    "phone": "(772) 770-6370",
    "address": "1788 94th Dr Spc A100  Vero Beach, FL 32966",
    "location": "St._Lucie"
  },
  {
    "name": "Swim Mart",
    "description": "Clothing Stores",
    "phone": "(772) 569-9171",
    "address": "1705 94th Dr Ste F100  Vero Beach, FL 32966",
    "location": "St._Lucie"
  },
  {
    "name": "COACH Outlet",
    "description": "Clothing Stores",
    "phone": "(772) 567-9805",
    "address": "1858 94th Dr Spc C100  Vero Beach, FL 32966",
    "location": "St._Lucie"
  },
  {
    "name": "Michael Kors Outlet",
    "description": "Clothing Stores",
    "phone": "(772) 563-4981",
    "address": "1828 94th Dr Ste B100  Vero Beach, FL 32966",
    "location": "St._Lucie"
  },
  {
    "name": "Oshkosh B'Gosh",
    "description": "Clothing Stores",
    "phone": "(772) 770-9058",
    "address": "1701 94th Dr Space F110  Vero Beach, FL 32966",
    "location": "St._Lucie"
  },
  {
    "name": "LOFT Outlet",
    "description": "Clothing Stores",
    "phone": "(772) 569-4949",
    "address": "1785 94th Dr  Vero Beach, FL 32966",
    "location": "St._Lucie"
  },
  {
    "name": "Polo Ralph Lauren Factory Store",
    "description": "Clothing Stores",
    "phone": "(772) 562-0737",
    "address": "1812 94th Dr Ste A-180  Vero Beach, FL 32966",
    "location": "St._Lucie"
  },
  {
    "name": "Vero Beach Outlets",
    "description": "Clothing Stores",
    "phone": "(772) 770-6097",
    "address": "1824 94th Dr  Vero Beach, FL 32966",
    "location": "St._Lucie"
  },
  {
    "name": "SKECHERS Factory Outlet",
    "description": "Clothing Stores",
    "phone": "(772) 562-3271",
    "address": "1788 94th Dr  Vero Beach, FL 32966",
    "location": "St._Lucie"
  },
  {
    "name": "Van Heusen",
    "description": "Clothing Stores",
    "phone": "(772) 778-2540",
    "address": "1806 94th Dr  Vero Beach, FL 32966",
    "location": "St._Lucie"
  },
  {
    "name": "Kasper",
    "description": "Clothing Stores",
    "phone": "(772) 770-4724",
    "address": "1846 94th Dr # B150  Vero Beach, FL 32966",
    "location": "St._Lucie"
  },
  {
    "name": "Lee Wrangler Outlet",
    "description": "Clothing Stores",
    "phone": "(772) 794-5434",
    "address": "1743 94th Dr Ste D220  Vero Beach, FL 32966",
    "location": "St._Lucie"
  },
  {
    "name": "Loft",
    "description": "Clothing Stores",
    "phone": "(772) 778-2337",
    "address": "1850 94th Dr  Vero Beach, FL 32966",
    "location": "St._Lucie"
  },
  {
    "name": "Prime Source Accessories Inc",
    "description": "Clothing Stores",
    "phone": "(772) 219-7584",
    "address": "23050 SW Accesi Way  Port Saint Lucie, FL 34986",
    "location": "St._Lucie"
  },
  {
    "name": "The Children's Place",
    "description": "Clothing Stores",
    "phone": "(772) 563-0200",
    "address": "1685 94th Dr  Vero Beach, FL 32966",
    "location": "St._Lucie"
  },
  {
    "name": "Justice",
    "description": "Clothing Stores",
    "phone": "(772) 562-8971",
    "address": "1691 94th Dr  Vero Beach, FL 32966",
    "location": "St._Lucie"
  },
  {
    "name": "Izod",
    "description": "Clothing Stores",
    "phone": "(772) 563-2102",
    "address": "1804 94th Dr  Vero Beach, FL 32966",
    "location": "St._Lucie"
  },
  {
    "name": "Casual Male XL Outlet",
    "description": "Men's Clothing",
    "phone": "(772) 567-0131",
    "address": "1757 94th Dr  Vero Beach, FL 32966",
    "location": "St._Lucie"
  },
  {
    "name": "Nike",
    "description": "Sportswear",
    "phone": "(772) 770-6370",
    "address": "1788 94th Dr  Vero Beach, FL 32966",
    "location": "St._Lucie"
  },
  {
    "name": "Lane Bryant",
    "description": "Women's Clothing",
    "phone": "(772) 978-0609",
    "address": "1679 94th Dr Ste F180  Vero Beach, FL 32966",
    "location": "St._Lucie"
  },
  {
    "name": "Columbia Sportswear",
    "description": "Sportswear",
    "phone": "(772) 925-3760",
    "address": "1659 94th Dr Suite F250  Vero Beach, FL 32966",
    "location": "St._Lucie"
  },
  {
    "name": "Adidas Outlet Store",
    "description": "Outlet Stores",
    "phone": "(772) 794-2487",
    "address": "1777 94th Dr  Vero Beach, FL 32966",
    "location": "St._Lucie"
  },
  {
    "name": "Reebok Outlet",
    "description": "Shoe Stores",
    "phone": "(772) 562-2229",
    "address": "1781 94th Dr  Vero Beach, FL 32966",
    "location": "St._Lucie"
  },
  {
    "name": "Pro Image",
    "description": "Sportswear",
    "phone": "(772) 217-3172",
    "address": "1824 94th Dr  Vero Beach, FL 32966",
    "location": "St._Lucie"
  },
  {
    "name": "Three Ladies Accessories and More",
    "description": "Women's Clothing",
    "phone": "(772) 237-4158",
    "address": "1556 SE Faculty Ct  Port Saint Lucie, FL 34952",
    "location": "St._Lucie"
  },
  {
    "name": "Christopher & Banks",
    "description": "Women's Clothing",
    "phone": "(772) 569-8454",
    "address": "1743 94th Dr Ste D220  Vero Beach, FL 32966",
    "location": "St._Lucie"
  },
  {
    "name": "Francesca's",
    "description": "Women's Clothing",
    "phone": "(772) 567-0324",
    "address": "1824 94th Dr Suite B-190  Vero Beach, FL 32966",
    "location": "St._Lucie"
  },
  {
    "name": "Ann Taylor",
    "description": "Women's Clothing",
    "phone": "(773) 469-4949",
    "address": "1785 94th Dr  Vero Beach, FL 32966",
    "location": "St._Lucie"
  },
  {
    "name": "Bcbg Max Azria Factory Store",
    "description": "Outlet Malls",
    "phone": "(772) 562-0094",
    "address": "1832 94th Dr  Vero Beach, FL 32966",
    "location": "St._Lucie"
  }
]