[
  {
    "name": "Stylus Fashion Inc",
    "description": "Clothing Stores",
    "phone": "(352) 243-7130",
    "address": "777 S Highway 27  Clermont, FL 34711",
    "location": "Sumter"
  },
  {
    "name": "A & E Designs",
    "description": "Clothing Stores",
    "phone": "(352) 708-6727",
    "address": "1283 Commons Ct  Clermont, FL 34711",
    "location": "Sumter"
  },
  {
    "name": "Cotton On",
    "description": "Clothing Stores",
    "phone": "(407) 855-0802",
    "address": "Suite 874 8001 South Orange Blossom Trail  Orlando, FL 32809",
    "location": "Sumter"
  },
  {
    "name": "Rue 21",
    "description": "Clothing Stores",
    "phone": "(352) 241-0881",
    "address": "2373 S Highway 27  Clermont, FL 34711",
    "location": "Sumter"
  },
  {
    "name": "T.J. Maxx",
    "description": "Clothing Stores",
    "phone": "(352) 241-0693",
    "address": "2335 S Highway 27  Clermont, FL 34711",
    "location": "Sumter"
  },
  {
    "name": "Sport Styles Inc",
    "description": "Clothing Stores",
    "phone": "(352) 243-0167",
    "address": "2205 Cluster Oak Dr Ste A  Clermont, FL 34711",
    "location": "Sumter"
  },
  {
    "name": "The Moda Shop",
    "description": "Clothing Stores",
    "phone": "(407) 341-4705",
    "address": "13747 Fox Glove St  Winter Garden, FL 34787",
    "location": "Sumter"
  },
  {
    "name": "Tri & Run of West Orange",
    "description": "Clothing Stores",
    "phone": "(407) 905-4786",
    "address": "56 W Plant St  Winter Garden, FL 34787",
    "location": "Sumter"
  },
  {
    "name": "The Sophisticated Closet",
    "description": "Clothing Stores",
    "phone": "(407) 347-0633",
    "address": "112 S Main St  Winter Garden, FL 34787",
    "location": "Sumter"
  },
  {
    "name": "PacSun",
    "description": "Clothing Stores",
    "phone": "(407) 877-0922",
    "address": "3047 Daniels Rd  Winter Garden, FL 34787",
    "location": "Sumter"
  },
  {
    "name": "Old Navy",
    "description": "Clothing Stores",
    "phone": "(407) 861-3571",
    "address": "3361 Daniels Rd  Winter Garden, FL 34787",
    "location": "Sumter"
  },
  {
    "name": "Evelyn's Creations",
    "description": "Clothing Stores",
    "phone": "(407) 292-5551",
    "address": "9401 W Colonial Dr.  Ocoee, FL 34761",
    "location": "Sumter"
  },
  {
    "name": "Rose Donald T Shirts & More",
    "description": "Clothing Stores",
    "phone": "(352) 243-3265",
    "address": "6718 Oil Well Rd  Clermont, FL 34714",
    "location": "Sumter"
  },
  {
    "name": "Clothes Mentor",
    "description": "Clothing Stores",
    "phone": "(407) 532-3030",
    "address": "8929 W Colonial Dr  Ocoee, FL 34761",
    "location": "Sumter"
  },
  {
    "name": "Secret Closet",
    "description": "Clothing Stores",
    "phone": "(352) 272-7246",
    "address": "25102 Betton Hl  Leesburg, FL 34748",
    "location": "Sumter"
  },
  {
    "name": "Exotic Clothing Multiservices",
    "description": "Clothing Stores",
    "phone": "(407) 274-3679",
    "address": "2430 Beach Ave  Apopka, FL 32703",
    "location": "Sumter"
  },
  {
    "name": "Teez & Fashion Inc",
    "description": "Clothing Stores",
    "phone": "(954) 650-0280",
    "address": "3403 Mccormick Woods Dr  Ocoee, FL 34761",
    "location": "Sumter"
  },
  {
    "name": "Miellia's Fashion Boutique",
    "description": "Clothing Stores",
    "phone": "(407) 603-0287",
    "address": "1746 E Silver Star Rd  Ocoee, FL 34761",
    "location": "Sumter"
  },
  {
    "name": "Fancy Frocks & Apparel",
    "description": "Clothing Stores",
    "phone": "(904) 309-2747",
    "address": "444 Lake Johio Dr  Ocoee, FL 34761",
    "location": "Sumter"
  },
  {
    "name": "Underground Station",
    "description": "Clothing Stores",
    "phone": "(407) 299-6299",
    "address": "9401 W Colonial Dr  Ocoee, FL 34761",
    "location": "Sumter"
  },
  {
    "name": "Man Alive",
    "description": "Clothing Stores",
    "phone": "(407) 578-1992",
    "address": "9401 W Colonial Dr  Ocoee, FL 34761",
    "location": "Sumter"
  },
  {
    "name": "Mythic Streetwear",
    "description": "Clothing Stores",
    "phone": "(321) 281-8955",
    "address": "9401 W Colonial Dr  Ocoee, FL 34761",
    "location": "Sumter"
  },
  {
    "name": "Rainbow Shops",
    "description": "Clothing Stores",
    "phone": "(407) 298-6655",
    "address": "9401 W Colonial Dr  Ocoee, FL 34761",
    "location": "Sumter"
  },
  {
    "name": "Express",
    "description": "Clothing Stores",
    "phone": "(407) 299-2244",
    "address": "9401 W Colonial Dr  Ocoee, FL 34761",
    "location": "Sumter"
  },
  {
    "name": "Jimmy Jazz",
    "description": "Clothing Stores",
    "phone": "(407) 578-1992",
    "address": "9401 W Colonial Dr Ste 635  Ocoee, FL 34761",
    "location": "Sumter"
  },
  {
    "name": "Undergound by Journeys",
    "description": "Clothing Stores",
    "phone": "(407) 299-6299",
    "address": "9401 W Colonial Dr  Ocoee, FL 34761",
    "location": "Sumter"
  },
  {
    "name": "Snipes",
    "description": "Clothing Stores",
    "phone": "(407) 578-1992",
    "address": "9401 W Colonial Dr Ste 635  Ocoee, FL 34761",
    "location": "Sumter"
  },
  {
    "name": "Hollister",
    "description": "Clothing Stores",
    "phone": "(407) 295-1149",
    "address": "9401 W Colonial Dr  Ocoee, FL 34761",
    "location": "Sumter"
  },
  {
    "name": "Sharonskidscharacters.org",
    "description": "Clothing Stores",
    "phone": "(407) 489-7664",
    "address": "2116 Switch Grass Cir  Ocoee, FL 34761",
    "location": "Sumter"
  },
  {
    "name": "Bling By Naughty",
    "description": "Clothing Stores",
    "phone": "(407) 675-7394",
    "address": "8016 Cloverglen Cir  Orlando, FL 32818",
    "location": "Sumter"
  },
  {
    "name": "Diesel",
    "description": "Clothing Stores",
    "phone": "(407) 205-0155",
    "address": "4954 International Drive C/o Orlando International Premium Outlets Store 123  Orlando, FL 32818",
    "location": "Sumter"
  },
  {
    "name": "Cockywear",
    "description": "Clothing Stores",
    "phone": "(321) 301-3259",
    "address": "5224 Lorilawn Dr  Orlando, FL 32818",
    "location": "Sumter"
  },
  {
    "name": "Clothing June Batique",
    "description": "Clothing Stores",
    "phone": "(407) 868-9868",
    "address": "7316 Rex Hill Trl  Orlando, FL 32818",
    "location": "Sumter"
  },
  {
    "name": "Fallas",
    "description": "Clothing Stores",
    "phone": "(407) 578-1433",
    "address": "7407 W Colonial Dr  Orlando, FL 32818",
    "location": "Sumter"
  },
  {
    "name": "Bling Couture Dreams",
    "description": "Clothing Stores",
    "phone": "(321) 325-0856",
    "address": "581 N Park Ave  Apopka, FL 32712",
    "location": "Sumter"
  },
  {
    "name": "Kidtastik",
    "description": "Clothing Stores",
    "phone": "(407) 697-2032",
    "address": "2620 N Hiawassee Rd  Orlando, FL 32818",
    "location": "Sumter"
  },
  {
    "name": "Citi Trends",
    "description": "Clothing Stores",
    "phone": "(407) 464-1044",
    "address": "815 E Semoran Blvd  Apopka, FL 32703",
    "location": "Sumter"
  },
  {
    "name": "Yeye's Fashion & Style",
    "description": "Clothing Stores",
    "phone": "(407) 703-8375",
    "address": "925 S Orange Blossom Trl  Apopka, FL 32703",
    "location": "Sumter"
  },
  {
    "name": "K & G Fashion Superstore",
    "description": "Clothing Stores",
    "phone": "(407) 291-2121",
    "address": "7343 W Colonial Dr  Orlando, FL 32818",
    "location": "Sumter"
  },
  {
    "name": "Elegance Boutique",
    "description": "Clothing Stores",
    "phone": "(407) 342-8999",
    "address": "2620 N Hiawassee Rd  orlando, FL 32818",
    "location": "Sumter"
  },
  {
    "name": "Galaxy Screen Printing Inc",
    "description": "Clothing Stores",
    "phone": "(407) 401-7348",
    "address": "925 Sunshine Ln Suite 1040  Altamonte Springs, FL 32714",
    "location": "Sumter"
  },
  {
    "name": "Bodies In Motion Performance Wear",
    "description": "Clothing Stores",
    "phone": "(352) 242-4391",
    "address": "305 E Highway 50  Clermont, FL 34711",
    "location": "Sumter"
  },
  {
    "name": "Bealls",
    "description": "Clothing Stores",
    "phone": "(352) 394-8068",
    "address": "612 E Highway 50  Clermont, FL 34711",
    "location": "Sumter"
  },
  {
    "name": "Bealls Outlet Stores",
    "description": "Clothing Stores",
    "phone": "(352) 394-8068",
    "address": "612 E Highway 50  Clermont, FL 34711",
    "location": "Sumter"
  },
  {
    "name": "Livi and Tate",
    "description": "Clothing Stores",
    "phone": "(352) 404-7387",
    "address": "827 W Montrose St  Clermont, FL 34711",
    "location": "Sumter"
  },
  {
    "name": "Levi & Tate",
    "description": "Clothing Stores",
    "phone": "(352) 404-7387",
    "address": "827 W Montrose St  Clermont, FL 34711",
    "location": "Sumter"
  },
  {
    "name": "Fifth Ave Men's Wear",
    "description": "Clothing Stores",
    "phone": "(352) 432-3924",
    "address": "672 E Highway 50  Clermont, FL 34711",
    "location": "Sumter"
  },
  {
    "name": "JCPenney",
    "description": "Clothing Stores",
    "phone": "(352) 241-0206",
    "address": "2345 S Highway 27  Clermont, FL 34711",
    "location": "Sumter"
  },
  {
    "name": "Ross Dress for Less",
    "description": "Clothing Stores",
    "phone": "(352) 243-1242",
    "address": "2365 S Highway 27  Clermont, FL 34711",
    "location": "Sumter"
  },
  {
    "name": "SEPHORA at Kohl's",
    "description": "Clothing Stores",
    "phone": "(352) 394-0441",
    "address": "12305 Us Highway 27  Clermont, FL 34711",
    "location": "Sumter"
  },
  {
    "name": "Stitching My Memories a division of Specialty Office Systems, Inc.",
    "description": "Clothing Stores",
    "phone": "(352) 394-0862",
    "address": "12739 County Road 561a  Clermont, FL 34715",
    "location": "Sumter"
  },
  {
    "name": "Anderson Marlo",
    "description": "Clothing Stores",
    "phone": "(352) 429-8688",
    "address": "318 Country Lakes Cir  Groveland, FL 34736",
    "location": "Sumter"
  },
  {
    "name": "Chico's",
    "description": "Clothing Stores",
    "phone": "(407) 654-2224",
    "address": "3251 Daniels Rd  Winter Garden, FL 34787",
    "location": "Sumter"
  },
  {
    "name": "Unique Boutique",
    "description": "Clothing Stores",
    "phone": "(407) 654-7006",
    "address": "348 Morning View Dr  Winter Garden, FL 34787",
    "location": "Sumter"
  },
  {
    "name": "Oshkosh B'Gosh",
    "description": "Clothing Stores",
    "phone": "(407) 654-7842",
    "address": "3049 Daniels Rd # 220b  Winter Garden, FL 34787",
    "location": "Sumter"
  },
  {
    "name": "New York & Company",
    "description": "Clothing Stores",
    "phone": "(407) 654-2953",
    "address": "3251 Daniels Rd  Winter Garden, FL 34787",
    "location": "Sumter"
  },
  {
    "name": "Wet Seal",
    "description": "Clothing Stores",
    "phone": "(407) 654-1306",
    "address": "3251 Daniels Rd  Winter Garden, FL 34787",
    "location": "Sumter"
  },
  {
    "name": "Ny and Company",
    "description": "Clothing Stores",
    "phone": "(407) 654-7697",
    "address": "3251 Daniels Rd Ste 120  Winter Garden, FL 34787",
    "location": "Sumter"
  },
  {
    "name": "Charming Charlie",
    "description": "Clothing Stores",
    "phone": "(407) 654-7454",
    "address": "3267 Daniels Rd  Winter Garden, FL 34787",
    "location": "Sumter"
  },
  {
    "name": "Forever 21",
    "description": "Clothing Stores",
    "phone": "(407) 554-0185",
    "address": "3051 Daniels Rd # 220C  Winter Garden, FL 34787",
    "location": "Sumter"
  },
  {
    "name": "Justice",
    "description": "Clothing Stores",
    "phone": "(407) 877-1541",
    "address": "3041 Daniels Rd  Winter Garden, FL 34787",
    "location": "Sumter"
  },
  {
    "name": "Marshalls & HomeGoods",
    "description": "Clothing Stores",
    "phone": "(407) 654-1290",
    "address": "3349 Daniels Rd  Winter Garden, FL 34787",
    "location": "Sumter"
  },
  {
    "name": "S.A. Elite",
    "description": "Clothing Stores",
    "phone": "(407) 656-4077",
    "address": "3373 Daniels Rd  Winter Garden, FL 34787",
    "location": "Sumter"
  },
  {
    "name": "Bealls Department Store",
    "description": "Clothing Stores",
    "phone": "(407) 656-0364",
    "address": "3385 Daniels Rd Bldg H  Winter Garden, FL 34787",
    "location": "Sumter"
  },
  {
    "name": "Economical Quality Products",
    "description": "Clothing Stores",
    "phone": "(407) 497-1351",
    "address": "738 Business Park Blvd  Winter Garden, FL 34787",
    "location": "Sumter"
  },
  {
    "name": "Coopers Tshirts",
    "description": "Clothing Stores",
    "phone": "(407) 905-0069",
    "address": "1331 Green Forest Ct  Winter Garden, FL 34787",
    "location": "Sumter"
  },
  {
    "name": "Tres Banderas Inc",
    "description": "Clothing Stores",
    "phone": "(407) 656-4916",
    "address": "455 W Silver Star Rd  Ocoee, FL 34761",
    "location": "Sumter"
  },
  {
    "name": "Lola's of Windermere",
    "description": "Clothing Stores",
    "phone": "(407) 876-5052",
    "address": "505 Main St  Windermere, FL 34786",
    "location": "Sumter"
  },
  {
    "name": "Journeys",
    "description": "Clothing Stores",
    "phone": "(407) 578-3808",
    "address": "9401 W Colonial Dr Ste 348  Ocoee, FL 34761",
    "location": "Sumter"
  },
  {
    "name": "Zumiez",
    "description": "Clothing Stores",
    "phone": "(407) 523-9348",
    "address": "9401 W Colonial Dr  Ocoee, FL 34761",
    "location": "Sumter"
  },
  {
    "name": "J Riggings",
    "description": "Clothing Stores",
    "phone": "(407) 298-4435",
    "address": "9401 W Colonial Dr  Ocoee, FL 34761",
    "location": "Sumter"
  },
  {
    "name": "Showroom",
    "description": "Clothing Stores",
    "phone": "(407) 297-7557",
    "address": "9401 W Colonial Dr  Ocoee, FL 34761",
    "location": "Sumter"
  },
  {
    "name": "The Children's Place",
    "description": "Clothing Stores",
    "phone": "(407) 521-4500",
    "address": "9401 W Colonial Dr Ste 638  Ocoee, FL 34761",
    "location": "Sumter"
  },
  {
    "name": "Avenue",
    "description": "Clothing Stores",
    "phone": "(407) 520-5303",
    "address": "1024 Vizcaya Lake Rd  Ocoee, FL 34761",
    "location": "Sumter"
  },
  {
    "name": "PurpleGlassBoutque",
    "description": "Clothing Stores",
    "phone": "(407) 601-2641",
    "address": "821 good homes rd  orlando, FL 32818",
    "location": "Sumter"
  },
  {
    "name": "Polson John Sales",
    "description": "Clothing Stores",
    "phone": "(407) 296-9776",
    "address": "268 Baywest Neighbors Cir  Orlando, FL 32835",
    "location": "Sumter"
  },
  {
    "name": "Star Traders",
    "description": "Clothing Stores",
    "phone": "(407) 939-5277",
    "address": "1180 Seven Seas Dr  Lake Buena Vista, FL 32830",
    "location": "Sumter"
  },
  {
    "name": "Suit City of Orlando",
    "description": "Clothing Stores",
    "phone": "(407) 292-1998",
    "address": "7840 W Colonial Dr  Orlando, FL 32818",
    "location": "Sumter"
  },
  {
    "name": "GARAGE",
    "description": "Clothing Stores",
    "phone": "(321) 316-3045",
    "address": "125 E Main St  Apopka, FL 32703",
    "location": "Sumter"
  },
  {
    "name": "Great Lakes Loyalty",
    "description": "Clothing Stores",
    "phone": "(716) 308-3676",
    "address": "8535 Lansmere Ln  Orlando, FL 32835",
    "location": "Sumter"
  },
  {
    "name": "Ashley Stewart",
    "description": "Clothing Stores",
    "phone": "(407) 298-4760",
    "address": "7461 W Colonial Dr  Orlando, FL 32818",
    "location": "Sumter"
  },
  {
    "name": "Las Tres Banderas 2",
    "description": "Clothing Stores",
    "phone": "(407) 464-3647",
    "address": "397 E Main St  Apopka, FL 32703",
    "location": "Sumter"
  },
  {
    "name": "Marshalls",
    "description": "Clothing Stores",
    "phone": "(407) 294-1136",
    "address": "7323 W Colonial Dr  Orlando, FL 32818",
    "location": "Sumter"
  },
  {
    "name": "Pd Mens Wear",
    "description": "Clothing Stores",
    "phone": "(407) 286-1747",
    "address": "2832 N Hiawassee Rd  Orlando, FL 32818",
    "location": "Sumter"
  },
  {
    "name": "Immaculee Fashions",
    "description": "Clothing Stores",
    "phone": "(407) 297-7071",
    "address": "2761 N Hiawassee Rd  Orlando, FL 32818",
    "location": "Sumter"
  },
  {
    "name": "J.McLaughlin",
    "description": "Clothing Stores",
    "phone": "(689) 267-3093",
    "address": "5048 Dr Phillips Blvd  Orlando, FL 32819",
    "location": "Sumter"
  },
  {
    "name": "J's Menswear",
    "description": "Clothing Stores",
    "phone": "(407) 880-8944",
    "address": "755 S Orange Blossom Trl  Apopka, FL 32703",
    "location": "Sumter"
  },
  {
    "name": "Ipanema Girl USA",
    "description": "Clothing Stores",
    "phone": "(407) 989-0451",
    "address": "1013 S Hiawassee Rd  Orlando, FL 32835",
    "location": "Sumter"
  },
  {
    "name": "East Coast T-Shirt Co",
    "description": "Clothing Stores",
    "phone": "(407) 399-5015",
    "address": "174 Semoran Commerce Pl  Apopka, FL 32703",
    "location": "Sumter"
  },
  {
    "name": "Entertainment Apparel",
    "description": "Clothing Stores",
    "phone": "(407) 816-4100",
    "address": "6000 Turkey Lake Rd  Orlando, FL 32819",
    "location": "Sumter"
  },
  {
    "name": "Belk",
    "description": "Department Stores",
    "phone": "(352) 243-2227",
    "address": "270 Citrus Tower Blvd  Clermont, FL 34711",
    "location": "Sumter"
  },
  {
    "name": "Dollarmax Plus",
    "description": "Department Stores",
    "phone": "(352) 243-3891",
    "address": "240 Citrus Tower Blvd  Clermont, FL 34711",
    "location": "Sumter"
  },
  {
    "name": "Mini Showers & More Inc",
    "description": "General Merchandise",
    "phone": "(352) 404-6190",
    "address": "104 E Washington St  Minneola, FL 34715",
    "location": "Sumter"
  },
  {
    "name": "Chantilly",
    "description": "Women's Clothing",
    "phone": "(352) 394-6604",
    "address": "639 8th St  Clermont, FL 34711",
    "location": "Sumter"
  },
  {
    "name": "Finders Keepers",
    "description": "Women's Clothing",
    "phone": "(407) 344-9758",
    "address": "650 8th St  Clermont, FL 34711",
    "location": "Sumter"
  },
  {
    "name": "NuuNaturals Inc.",
    "description": "Skin Care",
    "phone": "(888) 312-2001",
    "address": "877 W Minneola Ave Unit 121671  Clermont, FL 34712",
    "location": "Sumter"
  },
  {
    "name": "Footaction USA",
    "description": "Shoe Stores",
    "phone": "(407) 851-9620",
    "address": "S 8001 Orange Blossom Trl  Orlando, FL 32809",
    "location": "Sumter"
  },
  {
    "name": "Good Vibrations Inc",
    "description": "Sportswear",
    "phone": "(407) 896-5807",
    "address": "FASHION Square Mall  Orlando, FL 32803",
    "location": "Sumter"
  },
  {
    "name": "Avon Diva",
    "description": "Bras",
    "phone": "(407) 601-9442",
    "address": "ORLANDO Fl  Orlando, FL 32810",
    "location": "Sumter"
  },
  {
    "name": "The Limited",
    "description": "Women's Clothing",
    "phone": "(407) 896-3791",
    "address": "FASHION Square Mall  Orlando, FL 32803",
    "location": "Sumter"
  },
  {
    "name": "Kdab, Inc",
    "description": "Men's Clothing",
    "phone": "(407) 331-8001",
    "address": "6869 Stapoint Ct suite 111  Winter Park, FL 32792",
    "location": "Sumter"
  },
  {
    "name": "Target",
    "description": "General Merchandise",
    "phone": "(352) 394-8510",
    "address": "2660 E Highway 50  Clermont, FL 34711",
    "location": "Sumter"
  },
  {
    "name": "BonWorth",
    "description": "Women's Clothing",
    "phone": "(352) 243-2002",
    "address": "2305 S Highway 27  Clermont, FL 34711",
    "location": "Sumter"
  },
  {
    "name": "Famous Footwear",
    "description": "Shoe Stores",
    "phone": "(352) 241-0451",
    "address": "2325 S Highway 27  Clermont, FL 34711",
    "location": "Sumter"
  },
  {
    "name": "Hibbett Sports",
    "description": "Sporting Goods",
    "phone": "(352) 241-6172",
    "address": "2377 S Highway 27  Clermont, FL 34711",
    "location": "Sumter"
  },
  {
    "name": "Walmart Supercenter",
    "description": "General Merchandise",
    "phone": "(352) 243-6151",
    "address": "1450 Johns Lake Rd  Clermont, FL 34711",
    "location": "Sumter"
  },
  {
    "name": "Root 50 Smoke Shop",
    "description": "Department Stores",
    "phone": "(407) 347-3983",
    "address": "16201 State Road 50  Clermont, FL 34711",
    "location": "Sumter"
  },
  {
    "name": "Sears Hometown Stores",
    "description": "Department Stores",
    "phone": "(352) 404-6915",
    "address": "15936 Vinola Dr  Montverde, FL 34756",
    "location": "Sumter"
  },
  {
    "name": "So Enticing LLC",
    "description": "Shoe Stores",
    "phone": "(800) 682-6270",
    "address": "10339 Vista Pines Loop  Clermont, FL 34711",
    "location": "Sumter"
  },
  {
    "name": "Kendrys Furniture",
    "description": "Furniture Stores",
    "phone": "(352) 989-3488",
    "address": "20180 Us Highway 27  Clermont, FL 34715",
    "location": "Sumter"
  },
  {
    "name": "AVON-Michelle",
    "description": "Women's Clothing",
    "phone": "(352) 241-7686",
    "address": "1338 Legendary Blvd  Clermont, FL 34711",
    "location": "Sumter"
  },
  {
    "name": "Dick's Sporting Goods",
    "description": "Sporting Goods",
    "phone": "(352) 404-5354",
    "address": "1325 Sandy Ridge Ave  Clermont, FL 34714",
    "location": "Sumter"
  },
  {
    "name": "Discount Grocery & Things",
    "description": "Discount Stores",
    "phone": "(352) 557-8691",
    "address": "115 W Broad St  Groveland, FL 34736",
    "location": "Sumter"
  },
  {
    "name": "Formal Spot",
    "description": "Bridal Shops",
    "phone": "(407) 578-1896",
    "address": "3251 Daniels Rd Ste 122  Winter Garden, FL 34787",
    "location": "Sumter"
  },
  {
    "name": "Cangar Chic Boutique",
    "description": "Women's Clothing",
    "phone": "(407) 734-1848",
    "address": "15502 Stoneybrook West Pkwy  Winter Garden, FL 34787",
    "location": "Sumter"
  },
  {
    "name": "Scout's",
    "description": "General Merchandise",
    "phone": "(407) 395-8696",
    "address": "13145 W Colonial Dr  Winter Garden, FL 34787",
    "location": "Sumter"
  },
  {
    "name": "Men's Wearhouse",
    "description": "Men's Clothing",
    "phone": "(407) 656-7700",
    "address": "14748 W Colonial Dr  Winter Garden, FL 34787",
    "location": "Sumter"
  },
  {
    "name": "Apricot Lane Boutique",
    "description": "Boutique Items",
    "phone": "(407) 554-2216",
    "address": "264 W Plant St  Winter Garden, FL 34787",
    "location": "Sumter"
  },
  {
    "name": "Heirloom Amish Furniture",
    "description": "Furniture Stores",
    "phone": "(407) 347-8920",
    "address": "121 W Plant St  Winter Garden, FL 34787",
    "location": "Sumter"
  },
  {
    "name": "Dillards Street Citgo",
    "description": "Department Stores",
    "phone": "(407) 654-6230",
    "address": "705 S Dillard St  Winter Garden, FL 34787",
    "location": "Sumter"
  },
  {
    "name": "X Factor Bowling Supply",
    "description": "Bowling Equipment & Accessories",
    "phone": "(407) 656-4110",
    "address": "715 S Dillard St  Winter Garden, FL 34787",
    "location": "Sumter"
  },
  {
    "name": "DressBarn",
    "description": "Women's Clothing",
    "phone": "(407) 656-6872",
    "address": "3179 Daniels Rd  Winter Garden, FL 34787",
    "location": "Sumter"
  },
  {
    "name": "Victoria's Secret & PINK by Victoria's Secret",
    "description": "Lingerie",
    "phone": "(407) 654-8014",
    "address": "3251 Daniels Rd Ste 110  Winter Garden, FL 34787",
    "location": "Sumter"
  },
  {
    "name": "Lane Bryant",
    "description": "Women's Clothing",
    "phone": "(407) 287-7833",
    "address": "3267 Daniels Rd  Winter Garden, FL 34787",
    "location": "Sumter"
  },
  {
    "name": "JoS. A. Bank",
    "description": "Men's Clothing",
    "phone": "(407) 654-5403",
    "address": "3279 Daniels Rd Ste 102  Winter Garden, FL 34787",
    "location": "Sumter"
  },
  {
    "name": "Polka Dotz Chic",
    "description": "Women's Clothing",
    "phone": "(407) 877-2222",
    "address": "3017 Daniels Rd Ste 106  Winter Garden, FL 34787",
    "location": "Sumter"
  },
  {
    "name": "Bealls Florida",
    "description": "Home Furnishings",
    "phone": "(407) 656-0364",
    "address": "3385 Daniels Rd  Winter Garden, FL 34787",
    "location": "Sumter"
  },
  {
    "name": "Multiples & More",
    "description": "General Merchandise",
    "phone": "(352) 227-9716",
    "address": "15025 Margaux Dr  Clermont, FL 34714",
    "location": "Sumter"
  },
  {
    "name": "Dillard's",
    "description": "Department Stores",
    "phone": "(407) 292-6866",
    "address": "9403 W Colonial Dr  Ocoee, FL 34761",
    "location": "Sumter"
  },
  {
    "name": "Kuda Store",
    "description": "Department Stores",
    "phone": "(407) 301-2889",
    "address": "1331 Green Forest Ct  Winter Garden, FL 34787",
    "location": "Sumter"
  },
  {
    "name": "ORod Arms Trade",
    "description": "Gun Safety & Marksmanship Instruction",
    "phone": "(407) 777-2580",
    "address": "1101 Marshall Farms Rd # D264  Ocoee, FL 34761",
    "location": "Sumter"
  },
  {
    "name": "Sunbelt Elc",
    "description": "Department Stores",
    "phone": "(407) 654-0960",
    "address": "6213 Andreozzi Ln  Windermere, FL 34786",
    "location": "Sumter"
  },
  {
    "name": "Cato",
    "description": "Women's Clothing",
    "phone": "(407) 654-0211",
    "address": "11095 W Colonial Dr  Ocoee, FL 34761",
    "location": "Sumter"
  },
  {
    "name": "Foot Locker",
    "description": "Shoe Stores",
    "phone": "(407) 294-8994",
    "address": "No Street Address  Ocoee, FL 34761",
    "location": "Sumter"
  },
  {
    "name": "Corcoran Betsey",
    "description": "Women's Clothing",
    "phone": "(407) 217-5867",
    "address": "12982 Kegan St  Windermere, FL 34786",
    "location": "Sumter"
  },
  {
    "name": "Tres Chic Designer Boutique",
    "description": "Women's Clothing",
    "phone": "(407) 876-9062",
    "address": "503 Main St  Windermere, FL 34786",
    "location": "Sumter"
  },
  {
    "name": "5 Hearts Forever",
    "description": "Women's Clothing",
    "phone": "(407) 274-6074",
    "address": "3428 Valeview Dr  Apopka, FL 32712",
    "location": "Sumter"
  },
  {
    "name": "Jay's Grill Sergeant Sauce",
    "description": "Department Stores",
    "phone": "(407) 968-0105",
    "address": "1174 Turtle Lake Ct  Ocoee, FL 34761",
    "location": "Sumter"
  },
  {
    "name": "Rack Room Shoes",
    "description": "Shoe Stores",
    "phone": "(407) 522-1562",
    "address": "9401 W Colonial Dr Ste 410  Ocoee, FL 34761",
    "location": "Sumter"
  },
  {
    "name": "Champs Sports",
    "description": "Sportswear",
    "phone": "(407) 291-8893",
    "address": "9401 W Colonial Dr  Ocoee, FL 34761",
    "location": "Sumter"
  },
  {
    "name": "Lids",
    "description": "Hat Shops",
    "phone": "(407) 521-6244",
    "address": "9401 W Colonial Dr Ste 616  Ocoee, FL 34761",
    "location": "Sumter"
  },
  {
    "name": "Victoria's Secret",
    "description": "Lingerie",
    "phone": "(407) 522-2800",
    "address": "9401 W Colonial Dr  Ocoee, FL 34761",
    "location": "Sumter"
  },
  {
    "name": "Body Central",
    "description": "Women's Clothing",
    "phone": "(407) 522-8715",
    "address": "9401 W Colonial Dr  Ocoee, FL 34761",
    "location": "Sumter"
  },
  {
    "name": "Cupid Fashion J Ewelry",
    "description": "Women's Fashion Accessories",
    "phone": "(407) 730-9910",
    "address": "9401 W Colonial Dr  Ocoee, FL 34761",
    "location": "Sumter"
  },
  {
    "name": "The Villard's Suits",
    "description": "Department Stores",
    "phone": "(407) 535-0495",
    "address": "9401 W Colonial Dr  Ocoee, FL 34761",
    "location": "Sumter"
  },
  {
    "name": "Pro Image",
    "description": "Sportswear",
    "phone": "(407) 419-9876",
    "address": "9401 W Colonial Dr  Ocoee, FL 34761",
    "location": "Sumter"
  },
  {
    "name": "Krafty Inspirations",
    "description": "T-Shirts",
    "phone": "(407) 259-9810",
    "address": "PO Box 837  Windermere, FL 34786",
    "location": "Sumter"
  },
  {
    "name": "Juicy Couture",
    "description": "Women's Clothing",
    "phone": "(407) 465-8670",
    "address": "8200 Vineland Oaks Blvd  Orlando, FL 32835",
    "location": "Sumter"
  },
  {
    "name": "Intelaweb",
    "description": "Discount Stores",
    "phone": "(407) 203-6768",
    "address": "2238 Kettle Dr  Orlando, FL 32835",
    "location": "Sumter"
  },
  {
    "name": "Herstory Boutique",
    "description": "Boutique Items",
    "phone": "(407) 291-7101",
    "address": "7649 W Colonial Dr  Orlando, FL 32818",
    "location": "Sumter"
  },
  {
    "name": "JK Fenix Sports",
    "description": "Sportswear",
    "phone": "(321) 877-8427",
    "address": "2620 N Hiawassee Rd Local A5  Orlando, FL 32818",
    "location": "Sumter"
  },
  {
    "name": "Simply Fashion",
    "description": "Women's Clothing",
    "phone": "(407) 298-5200",
    "address": "7459 W Colonial Dr  Orlando, FL 32818",
    "location": "Sumter"
  },
  {
    "name": "Grand's",
    "description": "Department Stores",
    "phone": "(407) 286-1567",
    "address": "7175 W Colonial Dr  Orlando, FL 32818",
    "location": "Sumter"
  },
  {
    "name": "Dollar City",
    "description": "Discount Stores",
    "phone": "(407) 578-6576",
    "address": "2700 N Hiawassee Rd  Orlando, FL 32818",
    "location": "Sumter"
  },
  {
    "name": "Jerabet Sales",
    "description": "Women's Clothing",
    "phone": "(203) 489-5277",
    "address": "3200 N Hiawassee Rd  Orlando, FL 32818",
    "location": "Sumter"
  },
  {
    "name": "DTLR",
    "description": "Shoe Stores",
    "phone": "(407) 297-0356",
    "address": "2721 N Hiawassee Rd  Orlando, FL 32818",
    "location": "Sumter"
  },
  {
    "name": "Super Deal Dollar Store",
    "description": "Variety Stores",
    "phone": "(407) 295-6180",
    "address": "2725 N Hiawassee Rd  Orlando, FL 32818",
    "location": "Sumter"
  },
  {
    "name": "Iveline International Dress Store",
    "description": "Women's Clothing",
    "phone": "(407) 203-6872",
    "address": "2741 N Hiawassee Rd  Orlando, FL 32818",
    "location": "Sumter"
  },
  {
    "name": "Save Discount",
    "description": "Discount Stores",
    "phone": "(407) 290-5002",
    "address": "2793 N Hiawassee Rd  Orlando, FL 32818",
    "location": "Sumter"
  },
  {
    "name": "Naked Turtle Sunscreen & Apparel",
    "description": "Women's Clothing",
    "phone": "(407) 299-7333",
    "address": "7652 Ashley Park Ct Ste 305  Orlando, FL 32835",
    "location": "Sumter"
  },
  {
    "name": "Cuffllinks Depot",
    "description": "Department Stores",
    "phone": "(407) 253-7075",
    "address": "6996 Piazza Grande Ave  Orlando, FL 32835",
    "location": "Sumter"
  },
  {
    "name": "Kadesh Fashion",
    "description": "Women's Clothing",
    "phone": "(863) 866-2591",
    "address": "130 Kersey St  Davenport, FL 33897",
    "location": "Sumter"
  }
]