[
  {
    "name": "Hip Hop Stop",
    "description": "Clothing Stores",
    "phone": "(321) 235-1185",
    "address": "10376 E Colonial Dr Ste 118  Orlando, FL 32817",
    "location": "Union"
  },
  {
    "name": "DD's Store",
    "description": "Clothing Stores",
    "phone": "(407) 249-9465",
    "address": "10539 E Colonial Dr  Orlando, FL 32817",
    "location": "Union"
  },
  {
    "name": "Unique Image",
    "description": "Clothing Stores",
    "phone": "(407) 282-6354",
    "address": "1448 Brookebridge Dr  Orlando, FL 32825",
    "location": "Union"
  },
  {
    "name": "Rainbow Shops",
    "description": "Clothing Stores",
    "phone": "(321) 235-2991",
    "address": "10625 E Colonial Dr  Orlando, FL 32817",
    "location": "Union"
  },
  {
    "name": "Cotton On",
    "description": "Clothing Stores",
    "phone": "(407) 855-0802",
    "address": "Suite 874 8001 South Orange Blossom Trail  Orlando, FL 32809",
    "location": "Union"
  },
  {
    "name": "Buckle",
    "description": "Clothing Stores",
    "phone": "(407) 381-3422",
    "address": "501 N Alafaya Trl  Orlando, FL 32828",
    "location": "Union"
  },
  {
    "name": "American Eagle",
    "description": "Clothing Stores",
    "phone": "(407) 381-1156",
    "address": "555 N Alafaya Trl  Orlando, FL 32828",
    "location": "Union"
  },
  {
    "name": "Tillys",
    "description": "Clothing Stores",
    "phone": "(407) 384-8445",
    "address": "343 N Alafaya Trl  Orlando, FL 32828",
    "location": "Union"
  },
  {
    "name": "Old Navy",
    "description": "Clothing Stores",
    "phone": "(407) 380-7151",
    "address": "403 N Alafaya Trl  Orlando, FL 32828",
    "location": "Union"
  },
  {
    "name": "Men's Closet",
    "description": "Clothing Stores",
    "phone": "(407) 275-1714",
    "address": "11794 E Colonial Dr  Orlando, FL 32817",
    "location": "Union"
  },
  {
    "name": "Galls Orlando",
    "description": "Clothing Stores",
    "phone": "(407) 730-7900",
    "address": "11602 Lake Underhill Rd Ste 121  Orlando, FL 32825",
    "location": "Union"
  },
  {
    "name": "Clothing Accessories",
    "description": "Clothing Stores",
    "phone": "(407) 282-4289",
    "address": "745 N Alafaya Trl  Orlando, FL 32828",
    "location": "Union"
  },
  {
    "name": "J.Crew Factory",
    "description": "Clothing Stores",
    "phone": "(321) 247-9663",
    "address": "671 N Alafaya Trl  Orlando, FL 32828",
    "location": "Union"
  },
  {
    "name": "Flogrown",
    "description": "Clothing Stores",
    "phone": "(689) 227-0689",
    "address": "5166 Forsyth Commerce Rd  Orlando, FL 32807",
    "location": "Union"
  },
  {
    "name": "Bikers District",
    "description": "Clothing Stores",
    "phone": "(844) 614-0168",
    "address": "509 S Chickasaw Trl  Orlando, FL 32825",
    "location": "Union"
  },
  {
    "name": "Hot Topic",
    "description": "Clothing Stores",
    "phone": "(407) 705-2773",
    "address": "357 N Alafaya Trl  Orlando, FL 32828",
    "location": "Union"
  },
  {
    "name": "Kids",
    "description": "Clothing Stores",
    "phone": "(321) 352-7754",
    "address": "11648 Mcculloch Rd  Orlando, FL 32817",
    "location": "Union"
  },
  {
    "name": "Plant Beast Apparel",
    "description": "Clothing Stores",
    "phone": "(407) 480-7467",
    "address": "2333 Monaco Cove Cir  Orlando, FL 32825",
    "location": "Union"
  },
  {
    "name": "Lularoe",
    "description": "Clothing Stores",
    "phone": "(407) 542-3723",
    "address": "4050 New Broad Cir  Oviedo, FL 32765",
    "location": "Union"
  },
  {
    "name": "Jimmy Jazz",
    "description": "Clothing Stores",
    "phone": "(407) 894-8655",
    "address": "3409 E Colonial Dr  Orlando, FL 32803",
    "location": "Union"
  },
  {
    "name": "K & G Fashion Superstore",
    "description": "Clothing Stores",
    "phone": "(407) 897-8661",
    "address": "4308 E Colonial Dr  Orlando, FL 32803",
    "location": "Union"
  },
  {
    "name": "Zera Outlet",
    "description": "Clothing Stores",
    "phone": "(407) 486-6689",
    "address": "5303 E Colonial Dr Suite G&H  Orlando, FL 32807",
    "location": "Union"
  },
  {
    "name": "Exhibit Fashion",
    "description": "Clothing Stores",
    "phone": "(321) 805-0367",
    "address": "140 S Semoran Blvd  Orlando, FL 32807",
    "location": "Union"
  },
  {
    "name": "Zuly Apparel",
    "description": "Clothing Stores",
    "phone": "(407) 203-2080",
    "address": "1591 Lake Baldwin Ln  Orlando, FL 32814",
    "location": "Union"
  },
  {
    "name": "New York Style 360 Inc",
    "description": "Clothing Stores",
    "phone": "(407) 237-9582",
    "address": "1706 Woolco Way  Orlando, FL 32822",
    "location": "Union"
  },
  {
    "name": "T.J. Maxx",
    "description": "Clothing Stores",
    "phone": "(407) 275-7335",
    "address": "1063 Alafaya Trail  Orlando, FL 32828",
    "location": "Union"
  },
  {
    "name": "TJ Biggz",
    "description": "Clothing Stores",
    "phone": "(407) 893-1827",
    "address": "831 Lowell Blvd  Orlando, FL 32803",
    "location": "Union"
  },
  {
    "name": "Home Decor and More",
    "description": "Clothing Stores",
    "phone": "(407) 951-9603",
    "address": "8143 Powell Dr  Orlando, FL 32822",
    "location": "Union"
  },
  {
    "name": "Disney Design-a-tee",
    "description": "Clothing Stores",
    "phone": "(407) 939-5277",
    "address": "Disney Spgs  Orlando, FL 32830",
    "location": "Union"
  },
  {
    "name": "Tommy Hilfiger",
    "description": "Clothing Stores",
    "phone": "(407) 896-5302",
    "address": "3505 E Colonial Dr  Orlando, FL 32803",
    "location": "Union"
  },
  {
    "name": "Marianne Store 188",
    "description": "Clothing Stores",
    "phone": "(407) 898-0177",
    "address": "3483 E Colonial Dr  Orlando, FL 32803",
    "location": "Union"
  },
  {
    "name": "PacSun",
    "description": "Clothing Stores",
    "phone": "(407) 896-0504",
    "address": "3419 E Colonial Dr  Orlando, FL 32803",
    "location": "Union"
  },
  {
    "name": "Madrag Clothing",
    "description": "Clothing Stores",
    "phone": "(407) 895-2401",
    "address": "3427 E Colonial Dr  Orlando, FL 32803",
    "location": "Union"
  },
  {
    "name": "Mojoman Swimwear & Clothing",
    "description": "Clothing Stores",
    "phone": "(407) 558-0725",
    "address": "653 Maguire Blvd, Suite 800  Orlando, FL 32803",
    "location": "Union"
  },
  {
    "name": "American Eagle Outfitters",
    "description": "Clothing Stores",
    "phone": "(407) 381-8040",
    "address": "4077 S Goldenrod Rd  Orlando, FL 32822",
    "location": "Union"
  },
  {
    "name": "Burlington Coat Factory",
    "description": "Clothing Stores",
    "phone": "(407) 897-8894",
    "address": "3001 E Colonial Dr  Orlando, FL 32803",
    "location": "Union"
  },
  {
    "name": "Diesel",
    "description": "Clothing Stores",
    "phone": "(407) 990-1591",
    "address": "4200 R D Ave  Orlando, FL 32822",
    "location": "Union"
  },
  {
    "name": "Urban Outfitters",
    "description": "Clothing Stores",
    "phone": "(407) 363-0050",
    "address": "4200 R D Ave  Orlando, FL 32822",
    "location": "Union"
  },
  {
    "name": "Hijab Galore",
    "description": "Clothing Stores",
    "phone": "(786) 232-8204",
    "address": "3460 Kayla Cir  Oviedo, FL 32765",
    "location": "Union"
  },
  {
    "name": "Express One",
    "description": "Clothing Stores",
    "phone": "(407) 657-7511",
    "address": "1890 State Road 436 Ste 273  Winter Park, FL 32792",
    "location": "Union"
  },
  {
    "name": "Living In Sin Clothing",
    "description": "Clothing Stores",
    "phone": "(407) 283-5507",
    "address": "715 Carrigan Ave  Oviedo, FL 32765",
    "location": "Union"
  },
  {
    "name": "Tren-D",
    "description": "Clothing Stores",
    "phone": "(407) 939-5277",
    "address": "Disney Springs  Lake Buena Vista, FL 32830",
    "location": "Union"
  },
  {
    "name": "T.J.Maxx",
    "description": "Clothing Stores",
    "phone": "(407) 671-0851",
    "address": "1455 State Road 436  Casselberry, FL 32707",
    "location": "Union"
  },
  {
    "name": "Stein Mart",
    "description": "Clothing Stores",
    "phone": "(407) 671-2540",
    "address": "1455 State Road 436  Casselberry, FL 32707",
    "location": "Union"
  },
  {
    "name": "Express",
    "description": "Clothing Stores",
    "phone": "(407) 971-9504",
    "address": "1485 Oviedo Mall Blvd  Oviedo, FL 32765",
    "location": "Union"
  },
  {
    "name": "Charlotte Russe",
    "description": "Clothing Stores",
    "phone": "(407) 977-1083",
    "address": "1640 Oviedo Mall Blvd  Oviedo, FL 32765",
    "location": "Union"
  },
  {
    "name": "Fuji Express",
    "description": "Clothing Stores",
    "phone": "(407) 896-4491",
    "address": "3201 E Colonial Dr  Orlando, FL 32803",
    "location": "Union"
  },
  {
    "name": "Dance Unique",
    "description": "Clothing Stores",
    "phone": "(407) 366-4585",
    "address": "112 W Mitchell Hammock Rd  Oviedo, FL 32765",
    "location": "Union"
  },
  {
    "name": "Motive Boardwear",
    "description": "Clothing Stores",
    "phone": "(888) 822-0721",
    "address": "2579 Howell Branch Rd Unit B  Casselberry, FL 32707",
    "location": "Union"
  },
  {
    "name": "CLASSIC CONSIGNMENT",
    "description": "Clothing Stores",
    "phone": "(407) 677-1457",
    "address": "1957 Aloma Ave  Winter Park, FL 32792",
    "location": "Union"
  },
  {
    "name": "Siomara's Fashion",
    "description": "Clothing Stores",
    "phone": "(407) 937-9911",
    "address": "7354 Grand Ave  Winter Park, FL 32792",
    "location": "Union"
  },
  {
    "name": "Thread",
    "description": "Clothing Stores",
    "phone": "(407) 622-7600",
    "address": "356 S Park Ave  Winter Park, FL 32789",
    "location": "Union"
  },
  {
    "name": "Sweetheartz Fashions",
    "description": "Clothing Stores",
    "phone": "(407) 831-1010",
    "address": "372 State Road 436  Casselberry, FL 32707",
    "location": "Union"
  },
  {
    "name": "Biker Consignment & Gift Shop",
    "description": "Clothing Stores",
    "phone": "(407) 844-4966",
    "address": "671 W Fairbanks Ave  Winter Park, FL 32789",
    "location": "Union"
  },
  {
    "name": "Gap",
    "description": "Clothing Stores",
    "phone": "(407) 645-3443",
    "address": "400 S Park Ave  Winter Park, FL 32789",
    "location": "Union"
  },
  {
    "name": "Lynn Fashion & Bridal",
    "description": "Clothing Stores",
    "phone": "(407) 894-2129",
    "address": "1244 E Colonial Dr  Orlando, FL 32803",
    "location": "Union"
  },
  {
    "name": "Galactic G Skate Shop",
    "description": "Clothing Stores",
    "phone": "(407) 895-0410",
    "address": "2020 N Orange Ave  Orlando, FL 32804",
    "location": "Union"
  },
  {
    "name": "rue21 - Closed",
    "description": "Clothing Stores",
    "phone": "(407) 282-9268",
    "address": "5939 S Goldenrod Rd Ste B  Orlando, FL 32822",
    "location": "Union"
  },
  {
    "name": "Joshua Jewel",
    "description": "Clothing Stores",
    "phone": "(407) 440-8340",
    "address": "636 Virginia Dr  Orlando, FL 32803",
    "location": "Union"
  },
  {
    "name": "BlueBonnet",
    "description": "Clothing Stores",
    "phone": "(407) 730-7942",
    "address": "1810 N Orange Ave  Orlando, FL 32804",
    "location": "Union"
  },
  {
    "name": "Retromended Vintage Fashion",
    "description": "Clothing Stores",
    "phone": "(407) 674-8190",
    "address": "1231 N Orange Ave  Orlando, FL 32804",
    "location": "Union"
  },
  {
    "name": "Sposa Fashions",
    "description": "Clothing Stores",
    "phone": "(407) 232-7368",
    "address": "6901 Tpc Dr Ste 250  Orlando, FL 32822",
    "location": "Union"
  },
  {
    "name": "His secret vault",
    "description": "Clothing Stores",
    "phone": "(813) 773-5138",
    "address": "200 E Robinson St  Orlando, FL 32801",
    "location": "Union"
  },
  {
    "name": "Myabellas",
    "description": "Clothing Stores",
    "phone": "(407) 399-9078",
    "address": "2501 S Mills Ave  Orlando, FL 32806",
    "location": "Union"
  },
  {
    "name": "Nina Sharae Resort & Swimwear",
    "description": "Clothing Stores",
    "phone": "(888) 797-9710",
    "address": "111 N Orange Ave  Orlando, FL 32801",
    "location": "Union"
  },
  {
    "name": "Rubar Fashion",
    "description": "Clothing Stores",
    "phone": "(407) 541-0702",
    "address": "1801 E Colonial Dr  Orlando, FL 32803",
    "location": "Union"
  },
  {
    "name": "Deja Vu Vintage Clothing & Accessories",
    "description": "Clothing Stores",
    "phone": "(407) 838-3609",
    "address": "1210 Michigan Ave  Winter Park, FL 32789",
    "location": "Union"
  },
  {
    "name": "Mash Up Gear",
    "description": "Clothing Stores",
    "phone": "(407) 720-8828",
    "address": "1040 Kelly Creek Cir  Oviedo, FL 32765",
    "location": "Union"
  },
  {
    "name": "John Craig Clothier",
    "description": "Clothing Stores",
    "phone": "(407) 629-7944",
    "address": "132 S Park Ave  Winter Park, FL 32789",
    "location": "Union"
  },
  {
    "name": "Dolce Kids Store",
    "description": "Clothing Stores",
    "phone": "(407) 637-5858",
    "address": "216 N Park Ave Ste B  Winter Park, FL 32789",
    "location": "Union"
  },
  {
    "name": "Sultre Boutique",
    "description": "Clothing Stores",
    "phone": "(407) 699-9696",
    "address": "290 N Park Ave  Winter Park, FL 32789",
    "location": "Union"
  },
  {
    "name": "Scout & Molly's of Park Avenue",
    "description": "Clothing Stores",
    "phone": "(407) 790-4916",
    "address": "346 N Park Ave  Winter Park, FL 32789",
    "location": "Union"
  },
  {
    "name": "Vince.",
    "description": "Clothing Stores",
    "phone": "(407) 628-1414",
    "address": "301 N Park Ave  Winter Park, FL 32789",
    "location": "Union"
  },
  {
    "name": "Bhakti Yoga Center",
    "description": "Clothing Stores",
    "phone": "(407) 622-4470",
    "address": "499 w fairbanks ave  Winter Park, FL 32789",
    "location": "Union"
  },
  {
    "name": "World of Alterations & More",
    "description": "Clothing Stores",
    "phone": "(407) 260-9799",
    "address": "628 Wilshire Dr  Casselberry, FL 32707",
    "location": "Union"
  },
  {
    "name": "Pop Up By John Craig",
    "description": "Clothing Stores",
    "phone": "(321) 972-6119",
    "address": "339 Park Ave  Winter Park, FL 32789",
    "location": "Union"
  },
  {
    "name": "BALANI Custom Suits Orlando",
    "description": "Clothing Stores",
    "phone": "(407) 734-1047",
    "address": "941 W Morse Blvd Ste 100  Winter Park, FL 32789",
    "location": "Union"
  },
  {
    "name": "Free People",
    "description": "Clothing Stores",
    "phone": "(689) 223-4012",
    "address": "460 N Orlando Ave Spc D100  Winter Park, FL 32789",
    "location": "Union"
  },
  {
    "name": "sweet repeats of oviedo",
    "description": "Clothing Stores",
    "phone": "(407) 359-0099",
    "address": "1949 County Rd 419, suite #1241  Oviedo, FL 32766",
    "location": "Union"
  },
  {
    "name": "Ipanema Fashion",
    "description": "Clothing Stores",
    "phone": "(407) 331-1167",
    "address": "430 E Packwood Ave  Maitland, FL 32751",
    "location": "Union"
  },
  {
    "name": "Paris Market",
    "description": "Clothing Stores",
    "phone": "(407) 740-8486",
    "address": "1850 W Fairbanks Ave  Winter Park, FL 32789",
    "location": "Union"
  },
  {
    "name": "Amy's Walk-In Closet Consignment Shop",
    "description": "Clothing Stores",
    "phone": "(407) 282-4291",
    "address": "677 North Orlando Ave  Maitland, FL 32751",
    "location": "Union"
  },
  {
    "name": "Longs Master Taylor",
    "description": "Clothing Stores",
    "phone": "(407) 790-4762",
    "address": "679 N Orlando Ave  Maitland, FL 32751",
    "location": "Union"
  },
  {
    "name": "Monkeytease.com",
    "description": "Clothing Stores",
    "phone": "(407) 963-3213",
    "address": "464 E Central Blvd  Orlando, FL 32801",
    "location": "Union"
  },
  {
    "name": "Acorn",
    "description": "Clothing Stores",
    "phone": "(407) 245-1214",
    "address": "120 E Colonial Dr  Orlando, FL 32801",
    "location": "Union"
  },
  {
    "name": "Mother Falcon Clothing",
    "description": "Clothing Stores",
    "phone": "(407) 423-3060",
    "address": "817 E Washington St  Orlando, FL 32801",
    "location": "Union"
  },
  {
    "name": "Rue 21",
    "description": "Clothing Stores",
    "phone": "(407) 894-6318",
    "address": "2546 E Colonial Dr  Orlando, FL 32803",
    "location": "Union"
  },
  {
    "name": "Magic Mall Plaza",
    "description": "Clothing Stores",
    "phone": "(407) 841-0777",
    "address": "2155 W Colonial Dr  Orlando, FL 32804",
    "location": "Union"
  },
  {
    "name": "Banana Republic",
    "description": "Clothing Stores",
    "phone": "(407) 834-0900",
    "address": "451 E Altamonte Dr  Altamonte Springs, FL 32701",
    "location": "Union"
  },
  {
    "name": "H&M",
    "description": "Clothing Stores",
    "phone": "(407) 263-3059",
    "address": "451 E Altamonte Dr  Altamonte Springs, FL 32701",
    "location": "Union"
  },
  {
    "name": "Guess",
    "description": "Clothing Stores",
    "phone": "(407) 260-1185",
    "address": "451 E Altamonte Dr Ste 2433  Altamonte Springs, FL 32701",
    "location": "Union"
  },
  {
    "name": "Belle Brands Consignment",
    "description": "Clothing Stores",
    "phone": "(407) 437-9675",
    "address": "1161 E Altamonte Dr  Altamonte Springs, FL 32701",
    "location": "Union"
  },
  {
    "name": "Logos Promote",
    "description": "Clothing Stores",
    "phone": "(407) 447-5646",
    "address": "3852 N John Young Pkwy  Orlando, FL 32804",
    "location": "Union"
  },
  {
    "name": "Any Tux 45 Bucks",
    "description": "Clothing Stores",
    "phone": "(407) 521-7678",
    "address": "3800 Edgewater Dr  Orlando, FL 32804",
    "location": "Union"
  },
  {
    "name": "Citi Trends",
    "description": "Clothing Stores",
    "phone": "(904) 750-4369",
    "address": "4622 S Orange Blossom Trl  Orlando, FL 32839",
    "location": "Union"
  },
  {
    "name": "Embrace The Culture",
    "description": "Clothing Stores",
    "phone": "(321) 945-2219",
    "address": "730 Maxwell St  Orlando, FL 32804",
    "location": "Union"
  },
  {
    "name": "One Apparel",
    "description": "Clothing Stores",
    "phone": "(305) 204-5154",
    "address": "1107 W Church St  Orlando, FL 32805",
    "location": "Union"
  },
  {
    "name": "Heart 4 Homeless Thrift Store",
    "description": "Clothing Stores",
    "phone": "(407) 694-1983",
    "address": "315 N Orange Blossom Trl  Orlando, FL 32805",
    "location": "Union"
  },
  {
    "name": "Tilly's",
    "description": "Clothing Stores",
    "phone": "(407) 852-5810",
    "address": "1212 S Orange Blossom Trl  Orlando, FL 32805",
    "location": "Union"
  },
  {
    "name": "ednaclothingfair",
    "description": "Clothing Stores",
    "phone": "(407) 730-7818",
    "address": "5081 Stratemeyer drive  Orlando, FL 32839",
    "location": "Union"
  },
  {
    "name": "Fashion Core",
    "description": "Clothing Stores",
    "phone": "(407) 985-1476",
    "address": "2155 W Colonial Dr  Orlando, FL 32804",
    "location": "Union"
  },
  {
    "name": "My Little Boutique",
    "description": "Clothing Stores",
    "phone": "(407) 373-9628",
    "address": "2155 W Colonial Dr  Orlando, FL 32804",
    "location": "Union"
  },
  {
    "name": "Reggae Roots Wear",
    "description": "Clothing Stores",
    "phone": "(321) 228-7241",
    "address": "2528 W Colonial Dr  Orlando, FL 32804",
    "location": "Union"
  },
  {
    "name": "Desigual",
    "description": "Clothing Stores",
    "phone": "(321) 352-7301",
    "address": "1 Jeff Fuqua Blvd  Orlando, FL 32827",
    "location": "Union"
  },
  {
    "name": "T-Will Store",
    "description": "Clothing Stores",
    "phone": "(833) 894-5505",
    "address": "1800 Pembrook Dr Ste 300  Orlando, FL 32810",
    "location": "Union"
  },
  {
    "name": "Its Figgy Clothing",
    "description": "Clothing Stores",
    "phone": "(407) 751-4395",
    "address": "4109 S Orange Blossom Trl  Orlando, FL 32839",
    "location": "Union"
  },
  {
    "name": "Cariloha",
    "description": "Clothing Stores",
    "phone": "(407) 825-4268",
    "address": "9403 Jeff Fuqua Blvd Ste 8021  Orlando, FL 32827",
    "location": "Union"
  },
  {
    "name": "It's Fashion",
    "description": "Clothing Stores",
    "phone": "(407) 299-3996",
    "address": "3105 W Colonial Dr  Orlando, FL 32808",
    "location": "Union"
  },
  {
    "name": "Orlando Apparel",
    "description": "Clothing Stores",
    "phone": "(407) 620-1167",
    "address": "6422 Milner Blvd  Orlando, FL 32809",
    "location": "Union"
  },
  {
    "name": "DD's Discounts",
    "description": "Clothing Stores",
    "phone": "(407) 251-0813",
    "address": "4629 S Orange Blossom Trl  Orlando, FL 32839",
    "location": "Union"
  },
  {
    "name": "The Garage Orlando",
    "description": "Clothing Stores",
    "phone": "(407) 826-1955",
    "address": "5519 Commerce Dr Ste 3  Orlando, FL 32839",
    "location": "Union"
  },
  {
    "name": "Aeropostale",
    "description": "Clothing Stores",
    "phone": "(407) 830-4105",
    "address": "451 E Altamonte Dr  Altamonte Springs, FL 32701",
    "location": "Union"
  },
  {
    "name": "Clutterbusters",
    "description": "Clothing Stores",
    "phone": "(407) 702-1385",
    "address": "1132 Charming St  Maitland, FL 32751",
    "location": "Union"
  },
  {
    "name": "T P Merchandises",
    "description": "Clothing Stores",
    "phone": "(407) 960-1876",
    "address": "840 Laura St  Casselberry, FL 32707",
    "location": "Union"
  },
  {
    "name": "Drop D Merchandising",
    "description": "Clothing Stores",
    "phone": "(407) 677-0202",
    "address": "1255 Belle Ave  Winter Springs, FL 32708",
    "location": "Union"
  },
  {
    "name": "None None",
    "description": "Clothing Stores",
    "phone": "(321) 203-2627",
    "address": "1372 Bennett Dr  Longwood, FL 32750",
    "location": "Union"
  },
  {
    "name": "Hoop Culture, Inc.",
    "description": "Clothing Stores",
    "phone": "(321) 203-2627",
    "address": "1372 Bennett Dr Unit 164  Longwood, FL 32750",
    "location": "Union"
  },
  {
    "name": "Charlotte Tilbury",
    "description": "Clothing Stores",
    "phone": "(407) 265-6101",
    "address": "451 E Altamonte Dr Ste 2223  Altamonte Springs, FL 32701",
    "location": "Union"
  },
  {
    "name": "Rainbow",
    "description": "Clothing Stores",
    "phone": "(407) 262-0044",
    "address": "451 E Altamonte Dr  Altamonte Springs, FL 32701",
    "location": "Union"
  },
  {
    "name": "Abercrombie & Fitch",
    "description": "Clothing Stores",
    "phone": "(407) 834-2009",
    "address": "451 E Altamonte Dr Ste 1329  Altamonte Springs, FL 32701",
    "location": "Union"
  },
  {
    "name": "Old Dock Apparel",
    "description": "Clothing Stores",
    "phone": "(407) 282-7705",
    "address": "975 Florida Central Pkwy  Longwood, FL 32750",
    "location": "Union"
  },
  {
    "name": "Anthony Retail",
    "description": "Clothing Stores",
    "phone": "(407) 219-5399",
    "address": "2305 Edgewater Dr  Orlando, FL 32804",
    "location": "Union"
  },
  {
    "name": "Ground & Pound Athletic Wear",
    "description": "Clothing Stores",
    "phone": "(407) 772-4829",
    "address": "1881 S US Highway 17 92  Longwood, FL 32750",
    "location": "Union"
  },
  {
    "name": "1 Stop Print Shop",
    "description": "Clothing Stores",
    "phone": "(407) 331-3211",
    "address": "530 S Ronald Reagan Blvd  Longwood, FL 32750",
    "location": "Union"
  },
  {
    "name": "Synergy Screen Printing",
    "description": "Clothing Stores",
    "phone": "(407) 719-0914",
    "address": "490 North St  Longwood, FL 32750",
    "location": "Union"
  },
  {
    "name": "Hollister",
    "description": "Clothing Stores",
    "phone": "(407) 260-6331",
    "address": "451 E Altamonte Dr  Altamonte Springs, FL 32701",
    "location": "Union"
  },
  {
    "name": "Fann Emblem & Embroidery Co Inc",
    "description": "Clothing Stores",
    "phone": "(407) 422-7354",
    "address": "1330 W Central Blvd  Orlando, FL 32805",
    "location": "Union"
  },
  {
    "name": "Lakshmi Pooja and Sari Center",
    "description": "Clothing Stores",
    "phone": "(666) 666-3333",
    "address": "1451 N Pine Hills Rd  Orlando, FL 32808",
    "location": "Union"
  },
  {
    "name": "K2 Fashion",
    "description": "Clothing Stores",
    "phone": "(407) 298-0104",
    "address": "2262 S Kirkman Rd  Orlando, FL 32811",
    "location": "Union"
  },
  {
    "name": "Under Armour Factory House",
    "description": "Clothing Stores",
    "phone": "(407) 355-3177",
    "address": "4975 International Dr  Orlando, FL 32819",
    "location": "Union"
  },
  {
    "name": "Rue21",
    "description": "Clothing Stores",
    "phone": "(407) 298-4772",
    "address": "7387 W Colonial Dr  Orlando, FL 32818",
    "location": "Union"
  },
  {
    "name": "Burberry",
    "description": "Clothing Stores",
    "phone": "(407) 248-2882",
    "address": "4200 Conroy Rd  Orlando, FL 32839",
    "location": "Union"
  },
  {
    "name": "Tees Me Apparel",
    "description": "Clothing Stores",
    "phone": "(407) 574-4564",
    "address": "1636 N Ronald Reagan Blvd  Longwood, FL 32750",
    "location": "Union"
  },
  {
    "name": "Galaxy Screen Printing Inc",
    "description": "Clothing Stores",
    "phone": "(407) 401-7348",
    "address": "925 Sunshine Ln Suite 1040  Altamonte Springs, FL 32714",
    "location": "Union"
  },
  {
    "name": "American Apparel",
    "description": "Clothing Stores",
    "phone": "(407) 354-0696",
    "address": "4959 International Dr  Orlando, FL 32819",
    "location": "Union"
  },
  {
    "name": "Outstanding Fashion",
    "description": "Clothing Stores",
    "phone": "(321) 319-0866",
    "address": "5176 W Colonial Dr  Orlando, FL 32808",
    "location": "Union"
  },
  {
    "name": "Underground Station",
    "description": "Clothing Stores",
    "phone": "(407) 850-9222",
    "address": "8001 S Orange Blossom Trl  Orlando, FL 32809",
    "location": "Union"
  },
  {
    "name": "J. Crew",
    "description": "Clothing Stores",
    "phone": "(407) 226-9732",
    "address": "4200 Conroy Rd Ste G  Orlando, FL 32839",
    "location": "Union"
  },
  {
    "name": "Pickleboat Apparel",
    "description": "Clothing Stores",
    "phone": "(407) 982-6411",
    "address": "10524 Moss Park Rd Ste 204-651  Orlando, FL 32832",
    "location": "Union"
  },
  {
    "name": "Original Penguin",
    "description": "Clothing Stores",
    "phone": "(407) 857-6145",
    "address": "8001 S Orange Ave  Orlando, FL 32809",
    "location": "Union"
  },
  {
    "name": "Dynamite Clothing",
    "description": "Clothing Stores",
    "phone": "(407) 888-0657",
    "address": "8001 S Orange Ave  Orlando, FL 32809",
    "location": "Union"
  },
  {
    "name": "Fox Head",
    "description": "Clothing Stores",
    "phone": "(407) 251-8600",
    "address": "8001 S Orange Ave  Orlando, FL 32809",
    "location": "Union"
  },
  {
    "name": "Billabong",
    "description": "Clothing Stores",
    "phone": "(407) 851-9062",
    "address": "8001 S Orange Ave # 1274A  Orlando, FL 32809",
    "location": "Union"
  },
  {
    "name": "Steadfast Brand, Inc",
    "description": "Clothing Stores",
    "phone": "(407) 985-2817",
    "address": "4599 Parkbreeze Ct  Orlando, FL 32808",
    "location": "Union"
  },
  {
    "name": "Blessi's Trends",
    "description": "Clothing Stores",
    "phone": "(407) 537-4979",
    "address": "10239 Falcon Parc Blvd #101  Orlando, FL 32832",
    "location": "Union"
  },
  {
    "name": "jomard.co",
    "description": "Clothing Stores",
    "phone": "(407) 719-0960",
    "address": "6739 Cherry Grove Cir  Orlando, FL 32809",
    "location": "Union"
  },
  {
    "name": "Jamies Clothin G Store",
    "description": "Clothing Stores",
    "phone": "(407) 866-0024",
    "address": "5417 Pointe Vista Cir  Orlando, FL 32839",
    "location": "Union"
  },
  {
    "name": "Saint Laurent",
    "description": "Clothing Stores",
    "phone": "(407) 354-1460",
    "address": "Mall At Millenia 4200 Conroy Roadorlando Florida United States 32839  Orlando, FL 32839",
    "location": "Union"
  },
  {
    "name": "Kurt Geiger Mall at Millenia",
    "description": "Clothing Stores",
    "phone": "(321) 299-0460",
    "address": "Mall At Millenia 4200 Conroy Road Unit C 186  Orlando, FL 32839",
    "location": "Union"
  },
  {
    "name": "Hanesbrands Inc",
    "description": "Clothing Stores",
    "phone": "(407) 238-0919",
    "address": "2141 Bruton Blvd  Orlando, FL 32805",
    "location": "Union"
  },
  {
    "name": "Radically Classy",
    "description": "Clothing Stores",
    "phone": "(321) 348-0159",
    "address": "6220 S Orange Blossom Trl Ste 151  Orlando, FL 32809",
    "location": "Union"
  },
  {
    "name": "Loi's Luxury Boutique",
    "description": "Clothing Stores",
    "phone": "(407) 730-3117",
    "address": "3700 34th St Ste 240  Orlando, FL 32805",
    "location": "Union"
  },
  {
    "name": "Juiced Up",
    "description": "Clothing Stores",
    "phone": "(888) 366-2602",
    "address": "7726 Winegard Rd 2nd Floor  Orlando, FL 32809",
    "location": "Union"
  },
  {
    "name": "Sheila's",
    "description": "Clothing Stores",
    "phone": "(407) 440-4277",
    "address": "4449 Old Winter Garden Rd  Orlando, FL 32811",
    "location": "Union"
  },
  {
    "name": "B-Wear",
    "description": "Clothing Stores",
    "phone": "(407) 872-1774",
    "address": "4085 L B Mcleod Rd Ste F1  Orlando, FL 32811",
    "location": "Union"
  },
  {
    "name": "Pp Clothing",
    "description": "Clothing Stores",
    "phone": "(407) 259-8975",
    "address": "5654 Stoneridge Cir  Orlando, FL 32839",
    "location": "Union"
  },
  {
    "name": "Uth Stuph",
    "description": "Clothing Stores",
    "phone": "(407) 884-9166",
    "address": "6790 Edgewater Commerce Pkwy  Orlando, FL 32810",
    "location": "Union"
  },
  {
    "name": "John Browns Sugar Shack",
    "description": "Clothing Stores",
    "phone": "(407) 293-1775",
    "address": "7210 Mott Ave  Orlando, FL 32810",
    "location": "Union"
  },
  {
    "name": "Odums Low Fashions",
    "description": "Clothing Stores",
    "phone": "(407) 521-1178",
    "address": "1307 Roger Babson Rd  Orlando, FL 32808",
    "location": "Union"
  },
  {
    "name": "Bellarue",
    "description": "Clothing Stores",
    "phone": "(407) 925-8016",
    "address": "4940 North Ln  Orlando, FL 32808",
    "location": "Union"
  },
  {
    "name": "Exclusive Fashion Inc",
    "description": "Clothing Stores",
    "phone": "(407) 440-2984",
    "address": "400 N Pine Hills Rd  Orlando, FL 32811",
    "location": "Union"
  },
  {
    "name": "Cheryl Couture Inc",
    "description": "Clothing Stores",
    "phone": "(407) 408-8649",
    "address": "400 N Pine Hills Rd  Orlando, FL 32811",
    "location": "Union"
  },
  {
    "name": "Kenny's Fashion",
    "description": "Clothing Stores",
    "phone": "(407) 578-4422",
    "address": "5176 W Colonial Dr  Orlando, FL 32808",
    "location": "Union"
  },
  {
    "name": "BOSS Store",
    "description": "Clothing Stores",
    "phone": "(407) 345-8889",
    "address": "4200 Conroy Rd Ste 275  Orlando, FL 32839",
    "location": "Union"
  },
  {
    "name": "American Eagle & Aerie",
    "description": "Clothing Stores",
    "phone": "(407) 351-6635",
    "address": "4200 Conroy Rd Ste 112  Orlando, FL 32839",
    "location": "Union"
  },
  {
    "name": "Splendid",
    "description": "Clothing Stores",
    "phone": "(407) 363-0821",
    "address": "4200 Conroy Rd  Orlando, FL 32839",
    "location": "Union"
  },
  {
    "name": "Under Armour Brand House",
    "description": "Clothing Stores",
    "phone": "(321) 319-1293",
    "address": "4200 Conroy Rd  Orlando, FL 32839",
    "location": "Union"
  },
  {
    "name": "UNTUCKit",
    "description": "Clothing Stores",
    "phone": "(407) 801-5221",
    "address": "4200 Conroy Rd Spc E117  Orlando, FL 32839",
    "location": "Union"
  },
  {
    "name": "Dior",
    "description": "Clothing Stores",
    "phone": "(407) 574-8289",
    "address": "4200 Conroy Rd Ste 287  Orlando, FL 32839",
    "location": "Union"
  },
  {
    "name": "Quiksilver",
    "description": "Clothing Stores",
    "phone": "(407) 351-3850",
    "address": "4200 Conroy Rd  Orlando, FL 32839",
    "location": "Union"
  },
  {
    "name": "Hugo Boss",
    "description": "Clothing Stores",
    "phone": "(407) 345-8889",
    "address": "4200 Conroy Rd  Orlando, FL 32839",
    "location": "Union"
  },
  {
    "name": "C Wonder",
    "description": "Clothing Stores",
    "phone": "(407) 370-3035",
    "address": "4200 Conroy Rd Ste 188  Orlando, FL 32839",
    "location": "Union"
  },
  {
    "name": "Billabong USA",
    "description": "Clothing Stores",
    "phone": "(407) 370-6427",
    "address": "4200 Conroy Rd  Orlando, FL 32839",
    "location": "Union"
  },
  {
    "name": "Vineyard Vines",
    "description": "Clothing Stores",
    "phone": "(407) 226-0704",
    "address": "4200 Conroy Rd  Orlando, FL 32839",
    "location": "Union"
  },
  {
    "name": "Armani Exchange",
    "description": "Clothing Stores",
    "phone": "(407) 226-6890",
    "address": "4200 Conroy Rd Ste 143  Orlando, FL 32839",
    "location": "Union"
  },
  {
    "name": "Ted Baker",
    "description": "Clothing Stores",
    "phone": "(321) 247-5806",
    "address": "4200 Conroy Rd  Orlando, FL 32839",
    "location": "Union"
  },
  {
    "name": "Ferragamo",
    "description": "Clothing Stores",
    "phone": "(407) 363-3552",
    "address": "4152 Conroy Rd  Orlando, FL 32839",
    "location": "Union"
  },
  {
    "name": "Celine Neiman Marcus Leather Goods & Shoes Orlando",
    "description": "Clothing Stores",
    "phone": "(407) 264-5900",
    "address": "4170 Conroy Rd  Orlando, FL 32839",
    "location": "Union"
  },
  {
    "name": "Calzedonia",
    "description": "Clothing Stores",
    "phone": "(321) 352-7302",
    "address": "8001 S Orange Blossom Trl  Orlando, FL 32809",
    "location": "Union"
  },
  {
    "name": "AÃ©ropostale",
    "description": "Clothing Stores",
    "phone": "(407) 438-4811",
    "address": "8001 S Orange Blossom Trl  Orlando, FL 32809",
    "location": "Union"
  },
  {
    "name": "Camille La Vie at the Florida Mall",
    "description": "Clothing Stores",
    "phone": "(321) 888-4000",
    "address": "8001 South Orange Blossom Trail Space #1186A  Orlando, FL 32809",
    "location": "Union"
  },
  {
    "name": "A'gaci",
    "description": "Clothing Stores",
    "phone": "(407) 856-8778",
    "address": "8001 S Orange Blossom Trl  Orlando, FL 32809",
    "location": "Union"
  },
  {
    "name": "Coast Avenue",
    "description": "Clothing Stores",
    "phone": "(407) 855-9658",
    "address": "8001 S Orange Blossom Trl  Orlando, FL 32809",
    "location": "Union"
  },
  {
    "name": "Undergound by Journeys",
    "description": "Clothing Stores",
    "phone": "(407) 850-9222",
    "address": "8001 S Orange Blossom Trl  Orlando, FL 32809",
    "location": "Union"
  },
  {
    "name": "UNIQLO",
    "description": "Clothing Stores",
    "phone": "(407) 888-0628",
    "address": "8001 S Orange Blossom Trl  Orlando, FL 32809",
    "location": "Union"
  },
  {
    "name": "Rock'em",
    "description": "Clothing Stores",
    "phone": "(321) 236-7575",
    "address": "8001 S Orange Blossom Trl  Orlando, FL 32809",
    "location": "Union"
  },
  {
    "name": "Salt Life Store",
    "description": "Clothing Stores",
    "phone": "(407) 410-8009",
    "address": "8001 S Orange Blossom Trl  Orlando, FL 32809",
    "location": "Union"
  },
  {
    "name": "Ross Stores Inc",
    "description": "Clothing Stores",
    "phone": "(407) 295-9098",
    "address": "5524 W Colonial Dr  Orlando, FL 32808",
    "location": "Union"
  },
  {
    "name": "Kloset Co",
    "description": "Clothing Stores",
    "phone": "(407) 601-4029",
    "address": "7600 Currency Dr  Orlando, FL 32809",
    "location": "Union"
  },
  {
    "name": "Sunnie's Closet Boutique for Men and Women",
    "description": "Clothing Stores",
    "phone": "(321) 947-6447",
    "address": "8421 S Orange Blossom Trl Ste 120  Orlando, FL 32809",
    "location": "Union"
  },
  {
    "name": "MUAHBYANNETTECOLLECTION,LLC",
    "description": "Clothing Stores",
    "phone": "(407) 587-9021",
    "address": "8421 s orange blosson trail su  orlando, FL 32809",
    "location": "Union"
  },
  {
    "name": "Positive",
    "description": "Clothing Stores",
    "phone": "(407) 942-2038",
    "address": "4700 Millenia Blvd  Orlando, FL 32839",
    "location": "Union"
  },
  {
    "name": "I'm Selfmade LLC",
    "description": "Clothing Stores",
    "phone": "(888) 964-3341",
    "address": "4700 Millenia Blvd. Suite 175  Orlando, FL 32839",
    "location": "Union"
  },
  {
    "name": "Sole Mansion",
    "description": "Clothing Stores",
    "phone": "(407) 928-1660",
    "address": "850 S Kirkman Rd Ste 105  Orlando, FL 32811",
    "location": "Union"
  },
  {
    "name": "P.U.R.E",
    "description": "Clothing Stores",
    "phone": "(407) 268-0645",
    "address": "6015 Walbridge St  Orlando, FL 32809",
    "location": "Union"
  },
  {
    "name": "FameBoutiq",
    "description": "Clothing Stores",
    "phone": "(877) 574-6204",
    "address": "4550 Oak Haven Dr  Orlando, FL 32839",
    "location": "Union"
  },
  {
    "name": "Gcute Accessories",
    "description": "Clothing Stores",
    "phone": "(407) 409-5412",
    "address": "5123 Northlawn Way  Orlando, FL 32811",
    "location": "Union"
  },
  {
    "name": "The Bejeweled Rose",
    "description": "Clothing Stores",
    "phone": "(321) 209-7862",
    "address": "609 N Powers Dr Ste 340  Orlando, FL 32818",
    "location": "Union"
  },
  {
    "name": "Ecommerce",
    "description": "Clothing Stores",
    "phone": "(407) 308-8164",
    "address": "6396 Powers Pointe Cir,  Orlando, FL 32818",
    "location": "Union"
  },
  {
    "name": "Rock Em Socks",
    "description": "Clothing Stores",
    "phone": "(407) 730-7931",
    "address": "9561 Satellite Blvd  Orlando, FL 32837",
    "location": "Union"
  },
  {
    "name": "Kidtastik",
    "description": "Clothing Stores",
    "phone": "(407) 697-2032",
    "address": "2620 N Hiawassee Rd  Orlando, FL 32818",
    "location": "Union"
  },
  {
    "name": "Levi Outlet by Design",
    "description": "Clothing Stores",
    "phone": "(407) 352-3118",
    "address": "4949 International Dr  Orlando, FL 32819",
    "location": "Union"
  },
  {
    "name": "Nautica",
    "description": "Clothing Stores",
    "phone": "(407) 226-1661",
    "address": "4951 International Dr Spc 3A-01  Orlando, FL 32819",
    "location": "Union"
  },
  {
    "name": "Champion Outlet",
    "description": "Clothing Stores",
    "phone": "(407) 352-7231",
    "address": "4951 International Dr  Orlando, FL 32819",
    "location": "Union"
  },
  {
    "name": "Faconnable",
    "description": "Clothing Stores",
    "phone": "(407) 351-7607",
    "address": "4951 International Dr  Orlando, FL 32819",
    "location": "Union"
  },
  {
    "name": "Ralph Lauren",
    "description": "Clothing Stores",
    "phone": "(407) 903-0339",
    "address": "4951 International Dr  Orlando, FL 32819",
    "location": "Union"
  },
  {
    "name": "Greg Norman",
    "description": "Clothing Stores",
    "phone": "(321) 354-1550",
    "address": "4951 International Dr  Orlando, FL 32819",
    "location": "Union"
  },
  {
    "name": "Robert Graham Retail",
    "description": "Clothing Stores",
    "phone": "(407) 226-6555",
    "address": "4953 International Dr  Orlando, FL 32819",
    "location": "Union"
  },
  {
    "name": "Calvin Klein",
    "description": "Clothing Stores",
    "phone": "(407) 248-8215",
    "address": "4953 International Dr Ste 2A03  Orlando, FL 32819",
    "location": "Union"
  },
  {
    "name": "Lacoste",
    "description": "Clothing Stores",
    "phone": "(407) 248-2357",
    "address": "4955 International Dr  Orlando, FL 32819",
    "location": "Union"
  },
  {
    "name": "Brooks Brothers Factory Store",
    "description": "Clothing Stores",
    "phone": "(407) 363-5918",
    "address": "4957 International Dr  Orlando, FL 32819",
    "location": "Union"
  },
  {
    "name": "Vince Outlet",
    "description": "Clothing Stores",
    "phone": "(407) 355-9802",
    "address": "4957 International Dr  Orlando, FL 32819",
    "location": "Union"
  },
  {
    "name": "J. Crew Factory Store",
    "description": "Clothing Stores",
    "phone": "(407) 226-6862",
    "address": "4959 International Dr  Orlando, FL 32819",
    "location": "Union"
  },
  {
    "name": "Florida Fishin Apparel",
    "description": "Clothing Stores",
    "phone": "(321) 800-6427",
    "address": "4959 International Dr  Orlando, FL 32819",
    "location": "Union"
  },
  {
    "name": "Timberland Factory Store",
    "description": "Clothing Stores",
    "phone": "(407) 370-6630",
    "address": "4963 International Dr  Orlando, FL 32819",
    "location": "Union"
  },
  {
    "name": "Bali Outlet Store",
    "description": "Clothing Stores",
    "phone": "(407) 363-4498",
    "address": "4965 International Dr Ste 2D09  Orlando, FL 32819",
    "location": "Union"
  },
  {
    "name": "Hanesbrands",
    "description": "Clothing Stores",
    "phone": "(407) 363-4498",
    "address": "4965 International Dr Suite 2d-09  Orlando, FL 32819",
    "location": "Union"
  },
  {
    "name": "Columbia Factory Store",
    "description": "Clothing Stores",
    "phone": "(407) 363-0708",
    "address": "4971 International Dr # 3D03A  Orlando, FL 32819",
    "location": "Union"
  },
  {
    "name": "Hurley Factory Store",
    "description": "Clothing Stores",
    "phone": "(407) 352-2996",
    "address": "4971 International Dr  Orlando, FL 32819",
    "location": "Union"
  },
  {
    "name": "Q Fashion",
    "description": "Clothing Stores",
    "phone": "(321) 247-5874",
    "address": "4973 International Dr  Orlando, FL 32819",
    "location": "Union"
  },
  {
    "name": "Converse Factory Store",
    "description": "Clothing Stores",
    "phone": "(407) 370-5072",
    "address": "4977 International Dr  Orlando, FL 32819",
    "location": "Union"
  },
  {
    "name": "Moda Hana",
    "description": "Clothing Stores",
    "phone": "(888) 983-0466",
    "address": "5401 S Kirkman Rd Ste 310  Orlando, FL 32819",
    "location": "Union"
  },
  {
    "name": "Levi's",
    "description": "Clothing Stores",
    "phone": "(407) 351-7721",
    "address": "5221 International Dr Ste F3  Orlando, FL 32819",
    "location": "Union"
  },
  {
    "name": "VF Outlet",
    "description": "Clothing Stores",
    "phone": "(407) 226-0300",
    "address": "5253 International Dr  Orlando, FL 32819",
    "location": "Union"
  },
  {
    "name": "Lacoste-Permanently Closed",
    "description": "Clothing Stores",
    "phone": "(407) 354-5693",
    "address": "5269 International Dr Ste 133B  Orlando, FL 32819",
    "location": "Union"
  },
  {
    "name": "Amy Fashion Corp",
    "description": "Clothing Stores",
    "phone": "(407) 352-7034",
    "address": "5295 International Dr Ste 270  Orlando, FL 32819",
    "location": "Union"
  },
  {
    "name": "Fallas",
    "description": "Clothing Stores",
    "phone": "(407) 578-1433",
    "address": "7407 W Colonial Dr  Orlando, FL 32818",
    "location": "Union"
  },
  {
    "name": "Just For Kicks Dancewear",
    "description": "Clothing Stores",
    "phone": "(407) 601-3786",
    "address": "2101 Orinoco Dr, Ste 4  Orlando, FL 32837",
    "location": "Union"
  },
  {
    "name": "Cockywear",
    "description": "Clothing Stores",
    "phone": "(321) 301-3259",
    "address": "5145 Pueblo St  Orlando, FL 32819",
    "location": "Union"
  },
  {
    "name": "Janes Clothing",
    "description": "Clothing Stores",
    "phone": "(407) 601-0630",
    "address": "6325 Conroy Rd  Orlando, FL 32835",
    "location": "Union"
  },
  {
    "name": "Clothing June Batique",
    "description": "Clothing Stores",
    "phone": "(407) 868-9868",
    "address": "7316 Rex Hill Trl  Orlando, FL 32818",
    "location": "Union"
  },
  {
    "name": "Shehasarrived",
    "description": "Clothing Stores",
    "phone": "(407) 864-8495",
    "address": "1319 Sun Meadow Dr  Orlando, FL 32824",
    "location": "Union"
  },
  {
    "name": "Bling By Naughty",
    "description": "Clothing Stores",
    "phone": "(407) 675-7394",
    "address": "8016 Cloverglen Cir  Orlando, FL 32818",
    "location": "Union"
  },
  {
    "name": "Hon Tiers",
    "description": "Clothing Stores",
    "phone": "(407) 272-5065",
    "address": "1701 W Wetherbee Rd  Orlando, FL 32837",
    "location": "Union"
  },
  {
    "name": "Fichu Fashion Inc.",
    "description": "Clothing Stores",
    "phone": "(407) 250-5956",
    "address": "2128 Whisper Lakes Blvd  Orlando, FL 32837",
    "location": "Union"
  },
  {
    "name": "Ethnica In Style/Bombay Grill",
    "description": "Clothing Stores",
    "phone": "(407) 203-6988",
    "address": "11741 S Orange Blossom Trl  Orlando, FL 32837",
    "location": "Union"
  },
  {
    "name": "Tsr",
    "description": "Clothing Stores",
    "phone": "(407) 854-8564",
    "address": "12393 S Orange Blossom Trl  Orlando, FL 32837",
    "location": "Union"
  },
  {
    "name": "H D American Road",
    "description": "Clothing Stores",
    "phone": "(407) 351-3302",
    "address": "8000 International Dr  Orlando, FL 32819",
    "location": "Union"
  },
  {
    "name": "BG Fashion",
    "description": "Clothing Stores",
    "phone": "(407) 383-4535",
    "address": "2701 Saffron Dr  Orlando, FL 32837",
    "location": "Union"
  },
  {
    "name": "Tackapparel",
    "description": "Clothing Stores",
    "phone": "(323) 800-8653",
    "address": "7345 W Sand Lake Rd  Orlando, FL 32819",
    "location": "Union"
  },
  {
    "name": "Rebekah's Gallery",
    "description": "Clothing Stores",
    "phone": "(407) 230-1840",
    "address": "7512 Dr Phillips Blvd  Orlando, FL 32819",
    "location": "Union"
  },
  {
    "name": "MCY INC",
    "description": "Clothing Stores",
    "phone": "(302) 448-8485",
    "address": "7512 Dr Phillips Blvd Ste 728  Orlando, FL 32819",
    "location": "Union"
  },
  {
    "name": "Fresh2Muerte Clothing",
    "description": "Clothing Stores",
    "phone": "(407) 739-6777",
    "address": "Metro  Orlando, FL 32837",
    "location": "Union"
  },
  {
    "name": "Bellys Babies & Beyond",
    "description": "Clothing Stores",
    "phone": "(407) 786-5437",
    "address": "924 W State Road 436  Altamonte Springs, FL 32714",
    "location": "Union"
  },
  {
    "name": "jerbie",
    "description": "Clothing Stores",
    "phone": "(407) 734-1286",
    "address": "727 N Pine Hills Rd  Pine Hills, FL 32808",
    "location": "Union"
  },
  {
    "name": "Sew Right",
    "description": "Clothing Stores",
    "phone": "(407) 963-5301",
    "address": "214 Slade Dr  Longwood, FL 32750",
    "location": "Union"
  },
  {
    "name": "Kristens Shopping Boutique",
    "description": "Clothing Stores",
    "phone": "(407) 951-7845",
    "address": "1110 Douglas Ave  Altamonte Springs, FL 32714",
    "location": "Union"
  },
  {
    "name": "Harriett's Closet",
    "description": "Clothing Stores",
    "phone": "(413) 387-8668",
    "address": "210 River Bend Ct  Longwood, FL 32779",
    "location": "Union"
  },
  {
    "name": "Clothes Mentor",
    "description": "Clothing Stores",
    "phone": "(407) 960-3780",
    "address": "1052 Montgomery Rd  Altamonte Springs, FL 32714",
    "location": "Union"
  },
  {
    "name": "Camy Couture",
    "description": "Clothing Stores",
    "phone": "(407) 834-3144",
    "address": "955 W State Road 436  Altamonte Springs, FL 32714",
    "location": "Union"
  },
  {
    "name": "Your CBD Store - Longwood, FL",
    "description": "Clothing Stores",
    "phone": "(321) 444-6320",
    "address": "2628 W State Road 434  Longwood, FL 32779",
    "location": "Union"
  },
  {
    "name": "Silver Moon Creations Inc",
    "description": "Clothing Stores",
    "phone": "(407) 732-4734",
    "address": "130 Keyes Ave  Sanford, FL 32773",
    "location": "Union"
  },
  {
    "name": "Urban Appeal",
    "description": "Clothing Stores",
    "phone": "(407) 878-1236",
    "address": "3699 S Orlando Dr  Sanford, FL 32773",
    "location": "Union"
  },
  {
    "name": "Jagger Couture",
    "description": "Clothing Stores",
    "phone": "(407) 878-7202",
    "address": "136 N 4th St  Lake Mary, FL 32746",
    "location": "Union"
  },
  {
    "name": "4th and Ocean",
    "description": "Clothing Stores",
    "phone": "(407) 878-6656",
    "address": "142 W Lakeview Ave Ste 1030 PMB 4  Lake Mary, FL 32746",
    "location": "Union"
  },
  {
    "name": "T.J. Maxx & HomeGoods",
    "description": "Clothing Stores",
    "phone": "(407) 322-1776",
    "address": "3899 W Lake Mary Blvd  Lake Mary, FL 32746",
    "location": "Union"
  },
  {
    "name": "HBCU BABY, LLC.",
    "description": "Clothing Stores",
    "phone": "(877) 288-0953",
    "address": "255 Primera Blvd Ste 160  Lake Mary, FL 32746",
    "location": "Union"
  },
  {
    "name": "International Apparel Mart",
    "description": "Clothing Stores",
    "phone": "(407) 422-3089",
    "address": "4210 L B Mcleod Rd  Orlando, FL 32811",
    "location": "Union"
  },
  {
    "name": "Fajas Y Heans DBA",
    "description": "Clothing Stores",
    "phone": "(321) 746-5022",
    "address": "4142 W Oak Ridge Rd  Orlando, FL 32809",
    "location": "Union"
  },
  {
    "name": "Express Factory Outlet",
    "description": "Clothing Stores",
    "phone": "(407) 248-0525",
    "address": "4951 International Dr  Orlando, FL 32819",
    "location": "Union"
  },
  {
    "name": "World of Denim",
    "description": "Clothing Stores",
    "phone": "(407) 345-0263",
    "address": "8255 International Dr  Orlando, FL 32819",
    "location": "Union"
  },
  {
    "name": "Tommy Bahama",
    "description": "Clothing Stores",
    "phone": "(407) 248-8286",
    "address": "4200 Conroy Rd # A-138  Orlando, FL 32839",
    "location": "Union"
  },
  {
    "name": "Felisha Davis Blaq Beauty Ent",
    "description": "Clothing Stores",
    "phone": "(407) 376-9151",
    "address": "PO Box 618431  Orlando, FL 32861",
    "location": "Union"
  },
  {
    "name": "Josey's Alterations",
    "description": "Clothing Stores",
    "phone": "(407) 914-5084",
    "address": "8108 S Orange Blossom Trl  Orlando, FL 32809",
    "location": "Union"
  },
  {
    "name": "Jockey",
    "description": "Clothing Stores",
    "phone": "(407) 363-4861",
    "address": "4965 International Dr Suite 30  Orlando, FL 32819",
    "location": "Union"
  },
  {
    "name": "Jones New York",
    "description": "Clothing Stores",
    "phone": "(407) 248-3069",
    "address": "4953 International Dr  Orlando, FL 32819",
    "location": "Union"
  },
  {
    "name": "Southern Safety & Supplies",
    "description": "Clothing Stores",
    "phone": "(407) 281-9000",
    "address": "365 W Taft Vineland Rd Ste 100  Orlando, FL 32824",
    "location": "Union"
  },
  {
    "name": "Express - Closed",
    "description": "Clothing Stores",
    "phone": "(407) 370-4402",
    "address": "4200 Conroy Rd  Orlando, FL 32839",
    "location": "Union"
  },
  {
    "name": "Runway Boutique",
    "description": "Clothing Stores",
    "phone": "(407) 856-8500",
    "address": "Florida Mall  Orlando, FL 32809",
    "location": "Union"
  },
  {
    "name": "RPA BUSINESS OF ORLANDO, INC",
    "description": "Clothing Stores",
    "phone": "(407) 287-2151",
    "address": "12638 Winfield Scott Blvd  Orlando, FL 32837",
    "location": "Union"
  },
  {
    "name": "Jockey International",
    "description": "Clothing Stores",
    "phone": "(407) 238-5379",
    "address": "8174 Vineland Ave Ste 1537  Orlando, FL 32821",
    "location": "Union"
  },
  {
    "name": "Eddie Bauer",
    "description": "Clothing Stores",
    "phone": "(407) 238-0011",
    "address": "8166 Vineland Ave  Orlando, FL 32821",
    "location": "Union"
  },
  {
    "name": "BOSS Outlet",
    "description": "Clothing Stores",
    "phone": "(407) 465-0660",
    "address": "8200 Vineland Ave Ste 940  Orlando, FL 32821",
    "location": "Union"
  },
  {
    "name": "Hurley",
    "description": "Clothing Stores",
    "phone": "(407) 238-9618",
    "address": "8200 Vineland Ave  Orlando, FL 32821",
    "location": "Union"
  },
  {
    "name": "PacSun Outlet",
    "description": "Clothing Stores",
    "phone": "(407) 238-9944",
    "address": "8200 Vineland Ave  Orlando, FL 32821",
    "location": "Union"
  },
  {
    "name": "Tory Burch Outlet",
    "description": "Clothing Stores",
    "phone": "(407) 239-3635",
    "address": "8200 Vineland Ave Ste 1045A  Orlando, FL 32821",
    "location": "Union"
  },
  {
    "name": "Polo Ralph Lauren Children's Factory Store",
    "description": "Clothing Stores",
    "phone": "(407) 465-8642",
    "address": "8200 Vineland Ave Ste 1155  Orlando, FL 32821",
    "location": "Union"
  },
  {
    "name": "LVMH Fashion Group",
    "description": "Clothing Stores",
    "phone": "(407) 662-0155",
    "address": "8200 Vineland Ave  Orlando, FL 32821",
    "location": "Union"
  },
  {
    "name": "Ecko",
    "description": "Clothing Stores",
    "phone": "(407) 238-5499",
    "address": "8200 Vineland Ave  Orlando, FL 32821",
    "location": "Union"
  },
  {
    "name": "Briago USA Inc",
    "description": "Clothing Stores",
    "phone": "(407) 238-5789",
    "address": "8200 Vineland Ave  Orlando, FL 32821",
    "location": "Union"
  },
  {
    "name": "Kay Jewelers",
    "description": "Clothing Stores",
    "phone": "(407) 465-1686",
    "address": "8200 Vineland Ave  Orlando, FL 32821",
    "location": "Union"
  },
  {
    "name": "Elie Tahari",
    "description": "Clothing Stores",
    "phone": "(407) 477-4656",
    "address": "8200 Vineland Ave Ste 170  Orlando, FL 32821",
    "location": "Union"
  },
  {
    "name": "DVF (Diane von Furstenberg)",
    "description": "Clothing Stores",
    "phone": "(407) 842-5304",
    "address": "8200 Vineland Ave Ste 1010  Orlando, FL 32821",
    "location": "Union"
  },
  {
    "name": "Allsaints",
    "description": "Clothing Stores",
    "phone": "(407) 390-0293",
    "address": "8200 Vineland Ave  Orlando, FL 32821",
    "location": "Union"
  },
  {
    "name": "DKNY Sport",
    "description": "Clothing Stores",
    "phone": "(407) 239-2334",
    "address": "8200 Vineland Ave  Orlando, FL 32821",
    "location": "Union"
  },
  {
    "name": "Theory",
    "description": "Clothing Stores",
    "phone": "(407) 239-7076",
    "address": "8200 Vineland Ave Ste 0323  Orlando, FL 32821",
    "location": "Union"
  },
  {
    "name": "Sanchef Gear",
    "description": "Clothing Stores",
    "phone": "(787) 599-2930",
    "address": "9037 Edenshire Cir  Orlando, FL 32836",
    "location": "Union"
  },
  {
    "name": "Pbh Usa",
    "description": "Clothing Stores",
    "phone": "(407) 465-0900",
    "address": "15733 State Road 535  Orlando, FL 32821",
    "location": "Union"
  },
  {
    "name": "Briza Beach Wear",
    "description": "Clothing Stores",
    "phone": "(248) 672-0090",
    "address": "14525 Gateway Pointe Cir  Orlando, FL 32821",
    "location": "Union"
  },
  {
    "name": "Curl",
    "description": "Clothing Stores",
    "phone": "(407) 842-1302",
    "address": "1600 E Buena Vista Dr  Orlando, FL 32830",
    "location": "Union"
  },
  {
    "name": "7 Express",
    "description": "Clothing Stores",
    "phone": "(407) 465-0680",
    "address": "11901 International Dr  Orlando, FL 32821",
    "location": "Union"
  },
  {
    "name": "Barneys New York",
    "description": "Clothing Stores",
    "phone": "(407) 239-9400",
    "address": "8200 Vineland Ave Ste 1045  Orlando, FL 32821",
    "location": "Union"
  },
  {
    "name": "Eddie Bauer Outlet",
    "description": "Clothing Stores",
    "phone": "(407) 465-8621",
    "address": "15813 State Road 535  Orlando, FL 32821",
    "location": "Union"
  },
  {
    "name": "GARAGE",
    "description": "Clothing Stores",
    "phone": "(321) 236-9351",
    "address": "10115 University Blvd  Orlando, FL 32817",
    "location": "Union"
  },
  {
    "name": "Ross Dress for Less",
    "description": "Clothing Stores",
    "phone": "(407) 482-5476",
    "address": "373 N Alafaya Trl  Orlando, FL 32828",
    "location": "Union"
  },
  {
    "name": "Loft",
    "description": "Clothing Stores",
    "phone": "(321) 235-0368",
    "address": "685 N Alafaya Trl  Orlando, FL 32828",
    "location": "Union"
  },
  {
    "name": "Forever 21 - Closed",
    "description": "Clothing Stores",
    "phone": "(407) 867-3739",
    "address": "331 N Alafaya Trl  Orlando, FL 32828",
    "location": "Union"
  },
  {
    "name": "Sublimation Sta Tion",
    "description": "Clothing Stores",
    "phone": "(407) 420-0470",
    "address": "1700 N Goldenrod Rd  Orlando, FL 32807",
    "location": "Union"
  },
  {
    "name": "For the Fit, Inc.",
    "description": "Clothing Stores",
    "phone": "(321) 328-8467",
    "address": "1372 N Goldenrod Rd Ste 20  Orlando, FL 32807",
    "location": "Union"
  },
  {
    "name": "Bealls",
    "description": "Clothing Stores",
    "phone": "(407) 382-1718",
    "address": "638 N Alafaya Trl  Orlando, FL 32828",
    "location": "Union"
  },
  {
    "name": "Bealls Outlet Stores",
    "description": "Clothing Stores",
    "phone": "(407) 382-1718",
    "address": "638 N Alafaya Trl  Orlando, FL 32828",
    "location": "Union"
  },
  {
    "name": "Impress Ink",
    "description": "Clothing Stores",
    "phone": "(407) 982-5646",
    "address": "540 N Goldenrod Rd  Orlando, FL 32807",
    "location": "Union"
  },
  {
    "name": "S.A. Elite",
    "description": "Clothing Stores",
    "phone": "(407) 281-1660",
    "address": "610 N Alafaya Trl  Orlando, FL 32828",
    "location": "Union"
  },
  {
    "name": "Torrid",
    "description": "Clothing Stores",
    "phone": "(407) 282-4289",
    "address": "745 N Alafaya Trl  Orlando, FL 32828",
    "location": "Union"
  },
  {
    "name": "JD Sports",
    "description": "Clothing Stores",
    "phone": "(407) 641-4097",
    "address": "657 N Alafaya Trl  Orlando, FL 32828",
    "location": "Union"
  },
  {
    "name": "Entertainment Outfitters",
    "description": "Clothing Stores",
    "phone": "(407) 831-4000",
    "address": "5128 Forsyth Commerce Rd  Orlando, FL 32807",
    "location": "Union"
  },
  {
    "name": "Nike Unite - Waterford Lakes",
    "description": "Clothing Stores",
    "phone": "(321) 206-0347",
    "address": "481 N Alafaya Trl  Orlando, FL 32828",
    "location": "Union"
  },
  {
    "name": "SEPHORA at Kohl's",
    "description": "Clothing Stores",
    "phone": "(407) 282-0169",
    "address": "422 N Alafaya Trl  Orlando, FL 32828",
    "location": "Union"
  },
  {
    "name": "Five Below",
    "description": "Clothing Stores",
    "phone": "(407) 273-5678",
    "address": "379 N Alafaya Trl  Orlando, FL 32828",
    "location": "Union"
  },
  {
    "name": "Justice",
    "description": "Clothing Stores",
    "phone": "(407) 277-5086",
    "address": "355 N Alafaya Trl  Orlando, FL 32828",
    "location": "Union"
  },
  {
    "name": "Ekl Fashions",
    "description": "Clothing Stores",
    "phone": "(407) 671-3113",
    "address": "6808 Hanging Moss Rd  Orlando, FL 32807",
    "location": "Union"
  },
  {
    "name": "Prestige Clothiers",
    "description": "Clothing Stores",
    "phone": "(407) 677-4000",
    "address": "7601 Citrus Ave  Winter Park, FL 32792",
    "location": "Union"
  },
  {
    "name": "Sears",
    "description": "Clothing Stores",
    "phone": "(407) 677-3472",
    "address": "3825 Forsyth Rd  Winter Park, FL 32792",
    "location": "Union"
  },
  {
    "name": "Print Concepts",
    "description": "Clothing Stores",
    "phone": "(407) 679-4848",
    "address": "3500 Aloma Ave  Winter Park, FL 32792",
    "location": "Union"
  },
  {
    "name": "Capellini Clothing Inc",
    "description": "Clothing Stores",
    "phone": "(321) 235-5930",
    "address": "4310 S Semoran Blvd  Orlando, FL 32822",
    "location": "Union"
  },
  {
    "name": "JCPenney",
    "description": "Clothing Stores",
    "phone": "(407) 896-1006",
    "address": "3115 E Colonial Dr  Orlando, FL 32803",
    "location": "Union"
  },
  {
    "name": "ParkCity Fashion",
    "description": "Clothing Stores",
    "phone": "(855) 554-1899",
    "address": "2212 s Chickasaw Trail #445  Orlando, FL 32825",
    "location": "Union"
  },
  {
    "name": "Asamoda Corp",
    "description": "Clothing Stores",
    "phone": "(407) 440-4508",
    "address": "2744 S Chickasaw Trl  Orlando, FL 32829",
    "location": "Union"
  },
  {
    "name": "The Children's Place",
    "description": "Clothing Stores",
    "phone": "(407) 896-6964",
    "address": "3477 E Colonial Dr Ste A  Orlando, FL 32803",
    "location": "Union"
  },
  {
    "name": "Journeys",
    "description": "Clothing Stores",
    "phone": "(407) 897-6281",
    "address": "3317 E Colonial Dr  Orlando, FL 32803",
    "location": "Union"
  },
  {
    "name": "Papaya Clothing",
    "description": "Clothing Stores",
    "phone": "(407) 897-8668",
    "address": "3201 E Colonial Dr  Orlando, FL 32803",
    "location": "Union"
  },
  {
    "name": "Milano's Menswe ar",
    "description": "Clothing Stores",
    "phone": "(407) 897-3331",
    "address": "3201 E Colonial Dr  Orlando, FL 32803",
    "location": "Union"
  },
  {
    "name": "Dolce & Gabbana",
    "description": "Clothing Stores",
    "phone": "(689) 205-9020",
    "address": "C/O Orlando Vineland Premium Outlet - Unit 915 8200 Vineland Avenue  Orlando, FL 32822",
    "location": "Union"
  },
  {
    "name": "Buy Buy Baby",
    "description": "Clothing Stores",
    "phone": "(407) 895-7114",
    "address": "3206 E Colonial Dr  Orlando, FL 32803",
    "location": "Union"
  },
  {
    "name": "Tiendas Donato",
    "description": "Clothing Stores",
    "phone": "(407) 281-6370",
    "address": "3906 S Semoran Blvd  Orlando, FL 32822",
    "location": "Union"
  },
  {
    "name": "Donato Curry Ford",
    "description": "Clothing Stores",
    "phone": "(407) 658-4000",
    "address": "4412 Curry Ford Rd  Orlando, FL 32812",
    "location": "Union"
  },
  {
    "name": "Moda Colombia",
    "description": "Clothing Stores",
    "phone": "(407) 776-2477",
    "address": "4310 S Semoran Blvd  Orlando, FL 32822",
    "location": "Union"
  },
  {
    "name": "Avenue",
    "description": "Clothing Stores",
    "phone": "(407) 971-8821",
    "address": "1115 Vidina Pl  Oviedo, FL 32765",
    "location": "Union"
  },
  {
    "name": "Marshalls",
    "description": "Clothing Stores",
    "phone": "(407) 359-5074",
    "address": "1121 Alafaya Trl  Oviedo, FL 32765",
    "location": "Union"
  },
  {
    "name": "Grounded X Inc",
    "description": "Clothing Stores",
    "phone": "(407) 542-3017",
    "address": "1235 Oviedo Mall Blvd  Oviedo, FL 32765",
    "location": "Union"
  },
  {
    "name": "LOFT Outlet",
    "description": "Clothing Stores",
    "phone": "(321) 348-3314",
    "address": "1257 Oviedo Mall Blvd  Oviedo, FL 32765",
    "location": "Union"
  },
  {
    "name": "Max Free",
    "description": "Clothing Stores",
    "phone": "(407) 285-0517",
    "address": "PO Box 4053  Winter Park, FL 32793",
    "location": "Union"
  },
  {
    "name": "Wet Seal",
    "description": "Clothing Stores",
    "phone": "(407) 977-6705",
    "address": "1475 Oviedo Mall Blvd  Oviedo, FL 32765",
    "location": "Union"
  },
  {
    "name": "Macy's",
    "description": "Clothing Stores",
    "phone": "(407) 971-7300",
    "address": "1400 Oviedo Mall Blvd  Oviedo, FL 32765",
    "location": "Union"
  },
  {
    "name": "Detour Clothing Co",
    "description": "Clothing Stores",
    "phone": "(407) 895-6066",
    "address": "3201 E Colonial Dr  Orlando, FL 32803",
    "location": "Union"
  },
  {
    "name": "R Kids Clothes",
    "description": "Clothing Stores",
    "phone": "(407) 292-3500",
    "address": "4835 E Colonial Dr  Orlando, FL 32803",
    "location": "Union"
  },
  {
    "name": "Big Frog",
    "description": "Clothing Stores",
    "phone": "(321) 972-8879",
    "address": "975 S Orlando Ave  Winter Park, FL 32789",
    "location": "Union"
  },
  {
    "name": "Bridal Gown Studio Orlando",
    "description": "Clothing Stores",
    "phone": "(407) 826-1843",
    "address": "232 Hillcrest St  Orlando, FL 32801",
    "location": "Union"
  },
  {
    "name": "Bealls Outlet",
    "description": "Clothing Stores",
    "phone": "(407) 895-7532",
    "address": "2668 E Colonial Dr  Orlando, FL 32803",
    "location": "Union"
  },
  {
    "name": "Uniform City",
    "description": "Clothing Stores",
    "phone": "(407) 898-9333",
    "address": "1243 E Colonial Dr  Orlando, FL 32803",
    "location": "Union"
  },
  {
    "name": "Retromended Vintage",
    "description": "Clothing Stores",
    "phone": "(407) 674-8190",
    "address": "930 N Mills Ave  Orlando, FL 32803",
    "location": "Union"
  },
  {
    "name": "CHIC & Lynn's thrift store",
    "description": "Clothing Stores",
    "phone": "(407) 757-5194",
    "address": "5225 Maui Ln  Orlando, FL 32812",
    "location": "Union"
  },
  {
    "name": "Spencers",
    "description": "Clothing Stores",
    "phone": "(833) 543-0751",
    "address": "768 Florida St Spc 768  Orlando, FL 32806",
    "location": "Union"
  },
  {
    "name": "Dovetees.com",
    "description": "Clothing Stores",
    "phone": "(873) 730-1565",
    "address": "514 S Magnolia Ave  Orlando, FL 32801",
    "location": "Union"
  },
  {
    "name": "Milano's Clothier",
    "description": "Clothing Stores",
    "phone": "(407) 581-0819",
    "address": "325 S Orange Ave  Orlando, FL 32801",
    "location": "Union"
  },
  {
    "name": "Atticus Printing",
    "description": "Clothing Stores",
    "phone": "(407) 365-9911",
    "address": "159 N Central Ave  Oviedo, FL 32765",
    "location": "Union"
  },
  {
    "name": "So Sweet Boutique - Best Prom Dress Shop & Quince Dress Store Orlando",
    "description": "Clothing Stores",
    "phone": "(407) 260-0708",
    "address": "1665 Oviedo Mall Blvd  Oviedo, FL 32765",
    "location": "Union"
  },
  {
    "name": "Evereve",
    "description": "Clothing Stores",
    "phone": "(407) 743-5220",
    "address": "400 S Park Ave Ste 103  Winter Park, FL 32789",
    "location": "Union"
  },
  {
    "name": "Siegel's Clothing Co",
    "description": "Clothing Stores",
    "phone": "(407) 645-3100",
    "address": "330 S Park Ave  Winter Park, FL 32789",
    "location": "Union"
  },
  {
    "name": "Chico's",
    "description": "Clothing Stores",
    "phone": "(407) 645-0010",
    "address": "214 S Park Ave  Winter Park, FL 32789",
    "location": "Union"
  },
  {
    "name": "Gc of Winter Park Inc",
    "description": "Clothing Stores",
    "phone": "(407) 628-1087",
    "address": "128 S Park Ave  Winter Park, FL 32789",
    "location": "Union"
  },
  {
    "name": "Lilly Pulitzer",
    "description": "Clothing Stores",
    "phone": "(407) 539-2324",
    "address": "114-118 N Park Ave  Winter Park, FL 32789",
    "location": "Union"
  },
  {
    "name": "Honcho Enterprises",
    "description": "Clothing Stores",
    "phone": "(321) 295-7175",
    "address": "208 N Park Ave  Winter Park, FL 32789",
    "location": "Union"
  },
  {
    "name": "Structure",
    "description": "Clothing Stores",
    "phone": "(407) 629-4965",
    "address": "216 N Park Ave  Winter Park, FL 32789",
    "location": "Union"
  },
  {
    "name": "J.McLaughlin",
    "description": "Clothing Stores",
    "phone": "(407) 960-3965",
    "address": "218 N Park Ave  Winter Park, FL 32789",
    "location": "Union"
  },
  {
    "name": "Piazza Italia",
    "description": "Clothing Stores",
    "phone": "(407) 788-8000",
    "address": "218 N Park Ave  Winter Park, FL 32789",
    "location": "Union"
  },
  {
    "name": "Evelyn & Arthur Inc",
    "description": "Clothing Stores",
    "phone": "(407) 740-0030",
    "address": "236 N Park Ave  Winter Park, FL 32789",
    "location": "Union"
  },
  {
    "name": "Tug Boat & the Bird",
    "description": "Clothing Stores",
    "phone": "(407) 647-5437",
    "address": "318 N Park Ave  Winter Park, FL 32789",
    "location": "Union"
  },
  {
    "name": "Cabana Beach Towels",
    "description": "Clothing Stores",
    "phone": "(866) 428-4413",
    "address": "225 W Canton Ave Ste 500  Winter Park, FL 32789",
    "location": "Union"
  },
  {
    "name": "Allen Sportswear Inc",
    "description": "Clothing Stores",
    "phone": "(407) 641-4900",
    "address": "1809 E Broadway St  Oviedo, FL 32765",
    "location": "Union"
  },
  {
    "name": "Oakley",
    "description": "Clothing Stores",
    "phone": "(407) 644-4351",
    "address": "783 S Orlando Ave  Winter Park, FL 32789",
    "location": "Union"
  },
  {
    "name": "Ideal Dental Winter Park",
    "description": "Clothing Stores",
    "phone": "(407) 279-4000",
    "address": "415 S Orlando Ave Ste 212  Winter Park, FL 32789",
    "location": "Union"
  },
  {
    "name": "Perfect Fitting by Miguel",
    "description": "Clothing Stores",
    "phone": "(321) 441-3487",
    "address": "220 N Orlando Ave  Winter Park, FL 32789",
    "location": "Union"
  },
  {
    "name": "White House | Black Market",
    "description": "Clothing Stores",
    "phone": "(407) 622-0740",
    "address": "480 N Orlando Ave Ste 112  Winter Park, FL 32789",
    "location": "Union"
  },
  {
    "name": "Marshalls & HomeGoods",
    "description": "Clothing Stores",
    "phone": "(407) 647-0260",
    "address": "501 N Orlando Ave  Winter Park, FL 32789",
    "location": "Union"
  },
  {
    "name": "DSW Designer Shoe Warehouse",
    "description": "Clothing Stores",
    "phone": "(407) 853-7279",
    "address": "501 N Orlando Ave Ste 203  Winter Park, FL 32789",
    "location": "Union"
  },
  {
    "name": "Pathfinder Shirts",
    "description": "Clothing Stores",
    "phone": "(407) 695-4540",
    "address": "1510 Lake Dr  Casselberry, FL 32707",
    "location": "Union"
  },
  {
    "name": "Nordstrom Rack Winter Park Square",
    "description": "Clothing Stores",
    "phone": "(407) 772-6010",
    "address": "1090 N Orlando Ave Ste 101  Winter Park, FL 32789",
    "location": "Union"
  },
  {
    "name": "Klassy Kidz",
    "description": "Clothing Stores",
    "phone": "(407) 260-5439",
    "address": "232 State Road 436  Casselberry, FL 32707",
    "location": "Union"
  },
  {
    "name": "Risse Brothers Uniforms",
    "description": "Clothing Stores",
    "phone": "(407) 339-1486",
    "address": "100 Candace Dr  Maitland, FL 32751",
    "location": "Union"
  },
  {
    "name": "Perry Ellis",
    "description": "Clothing Stores",
    "phone": "(407) 622-4998",
    "address": "876 Park Lake Cir  Maitland, FL 32751",
    "location": "Union"
  },
  {
    "name": "Siegels Clothing Co",
    "description": "Clothing Stores",
    "phone": "(407) 481-2155",
    "address": "130 S Orange Ave  Orlando, FL 32801",
    "location": "Union"
  },
  {
    "name": "Orlando Vintage Clothing & Costume",
    "description": "Clothing Stores",
    "phone": "(407) 599-7225",
    "address": "1500 Formosa Ave  Winter Park, FL 32789",
    "location": "Union"
  },
  {
    "name": "Breakaway Bicycles",
    "description": "Clothing Stores",
    "phone": "(407) 622-2453",
    "address": "141 Lincoln Ave  Winter Park, FL 32789",
    "location": "Union"
  },
  {
    "name": "Lucky Brand Jeans",
    "description": "Clothing Stores",
    "phone": "(407) 628-1222",
    "address": "323 S Park Ave  Winter Park, FL 32789",
    "location": "Union"
  },
  {
    "name": "Oceanology",
    "description": "Clothing Stores",
    "phone": "(407) 831-4611",
    "address": "451 E Altamonte Dr  Altamonte Springs, FL 32701",
    "location": "Union"
  },
  {
    "name": "Uniformity Downtown",
    "description": "Clothing Stores",
    "phone": "(407) 270-8788",
    "address": "1743 S Orange Ave Ste 101  Orlando, FL 32806",
    "location": "Union"
  },
  {
    "name": "Ntitled Apparel",
    "description": "Clothing Stores",
    "phone": "(800) 650-0948",
    "address": "1317 Edgewater Dr  Orlando, FL 32804",
    "location": "Union"
  },
  {
    "name": "Millennium Team Sports & Apparel",
    "description": "Clothing Stores",
    "phone": "(407) 362-7945",
    "address": "2110 Edgewater Dr  Orlando, FL 32804",
    "location": "Union"
  },
  {
    "name": "Future Generations",
    "description": "Clothing Stores",
    "phone": "(407) 648-5675",
    "address": "251 E Michigan St  Orlando, FL 32806",
    "location": "Union"
  },
  {
    "name": "Hittn' Skins",
    "description": "Clothing Stores",
    "phone": "(407) 835-2425",
    "address": "1420 W Washington St  Orlando, FL 32805",
    "location": "Union"
  },
  {
    "name": "Uptown Tux",
    "description": "Clothing Stores",
    "phone": "(407) 240-4515",
    "address": "4983 S Orange Ave  Orlando, FL 32806",
    "location": "Union"
  },
  {
    "name": "KB Smart Wear, Inc.",
    "description": "Clothing Stores",
    "phone": "(407) 649-1685",
    "address": "1602 Camerbur Dr  Orlando, FL 32805",
    "location": "Union"
  },
  {
    "name": "Lucky Fashion Inc",
    "description": "Clothing Stores",
    "phone": "(407) 985-1476",
    "address": "2155 W Colonial Dr  Orlando, FL 32804",
    "location": "Union"
  },
  {
    "name": "Spot",
    "description": "Clothing Stores",
    "phone": "(407) 648-8994",
    "address": "2155 W Colonial Dr  Orlando, FL 32804",
    "location": "Union"
  },
  {
    "name": "Elegante",
    "description": "Clothing Stores",
    "phone": "(407) 839-0016",
    "address": "2155 W Colonial Dr  Orlando, FL 32804",
    "location": "Union"
  },
  {
    "name": "Brand It T Shirts & More",
    "description": "Clothing Stores",
    "phone": "(407) 290-0044",
    "address": "2120 W Pine St  Orlando, FL 32805",
    "location": "Union"
  },
  {
    "name": "Oakley Store",
    "description": "Clothing Stores",
    "phone": "(407) 850-4688",
    "address": "9303 Jeff Fuqua Blvd Ste 2747  Orlando, FL 32827",
    "location": "Union"
  },
  {
    "name": "Mosh Inc",
    "description": "Clothing Stores",
    "phone": "(407) 830-1686",
    "address": "1200 E Altamonte Dr  Altamonte Springs, FL 32701",
    "location": "Union"
  },
  {
    "name": "Safari Sun",
    "description": "Clothing Stores",
    "phone": "(407) 339-7291",
    "address": "928 Josiane Ct  Altamonte Springs, FL 32701",
    "location": "Union"
  },
  {
    "name": "Tom James Company",
    "description": "Clothing Stores",
    "phone": "(407) 740-7848",
    "address": "151 Southhall Ln Ste 130  Maitland, FL 32751",
    "location": "Union"
  },
  {
    "name": "Creative Expressions for T-Shirts & More",
    "description": "Clothing Stores",
    "phone": "(407) 830-6056",
    "address": "725 S Ronald Reagan Blvd  Longwood, FL 32750",
    "location": "Union"
  },
  {
    "name": "Forever 21",
    "description": "Clothing Stores",
    "phone": "(407) 551-1210",
    "address": "451 E Altamonte Dr Ste 2113  Altamonte Springs, FL 32701",
    "location": "Union"
  },
  {
    "name": "Charming Charlie",
    "description": "Clothing Stores",
    "phone": "(321) 207-0000",
    "address": "451 E Altamonte Dr  Altamonte Springs, FL 32701",
    "location": "Union"
  },
  {
    "name": "Windsor",
    "description": "Clothing Stores",
    "phone": "(888) 495-4957",
    "address": "451 E Altamonte Dr Ste 1433  Altamonte Springs, FL 32701",
    "location": "Union"
  },
  {
    "name": "New York & Company",
    "description": "Clothing Stores",
    "phone": "(407) 331-4089",
    "address": "451 E Altamonte Dr Ste 1245  Altamonte Springs, FL 32701",
    "location": "Union"
  },
  {
    "name": "Zumiez",
    "description": "Clothing Stores",
    "phone": "(407) 260-0173",
    "address": "451 E Altamonte Dr  Altamonte Springs, FL 32701",
    "location": "Union"
  },
  {
    "name": "Guess Accessory",
    "description": "Clothing Stores",
    "phone": "(407) 851-7388",
    "address": "9303 Jeff Fuqua Blvd Ste 2713  Orlando, FL 32827",
    "location": "Union"
  },
  {
    "name": "FernEllie Creations",
    "description": "Clothing Stores",
    "phone": "(321) 234-2775",
    "address": "5250 International Dr Ste 6g  Orlando, FL 32819",
    "location": "Union"
  },
  {
    "name": "Indra's Draperies & Clothing Alterations",
    "description": "Clothing Stores",
    "phone": "(407) 238-1761",
    "address": "5017 Gateway Ave  Orlando, FL 32821",
    "location": "Union"
  },
  {
    "name": "Top Line Screen Printing",
    "description": "Clothing Stores",
    "phone": "(407) 428-9515",
    "address": "4210 L B McLeod Rd  Orlando, FL 32811",
    "location": "Union"
  },
  {
    "name": "Orlando GQ Menswear",
    "description": "Clothing Stores",
    "phone": "(407) 250-6709",
    "address": "5625 W Colonial Dr  Orlando, FL 32808",
    "location": "Union"
  },
  {
    "name": "Liz Claiborne",
    "description": "Clothing Stores",
    "phone": "(407) 251-8933",
    "address": "8001 S Orange Ave  Orlando, FL 32809",
    "location": "Union"
  },
  {
    "name": "Zara",
    "description": "Clothing Stores",
    "phone": "(407) 812-4289",
    "address": "8001 S Orange Ave  Orlando, FL 32809",
    "location": "Union"
  },
  {
    "name": "Cignal",
    "description": "Clothing Stores",
    "phone": "(407) 240-1233",
    "address": "8001 S Orange Ave  Orlando, FL 32809",
    "location": "Union"
  },
  {
    "name": "Magic ThemeShirt",
    "description": "Clothing Stores",
    "phone": "(888) 321-2470",
    "address": "PO Box 2831  Orlando, FL 32802",
    "location": "Union"
  },
  {
    "name": "AX Armani Exchange",
    "description": "Clothing Stores",
    "phone": "(407) 226-6890",
    "address": "4200 Conroy Rd Mall At Millenia Space D105  Orlando, FL 32839",
    "location": "Union"
  },
  {
    "name": "SAINT LAURENT PARIS",
    "description": "Clothing Stores",
    "phone": "(407) 354-1460",
    "address": "Mall At Millenia 4200 Conroy Road  Orlando, FL 32839",
    "location": "Union"
  },
  {
    "name": "Prada Orlando Millenia",
    "description": "Clothing Stores",
    "phone": "(407) 235-1240",
    "address": "4200 Conroy Rd P279 P279  Orlando, FL 32839",
    "location": "Union"
  },
  {
    "name": "HermÃ¨s",
    "description": "Clothing Stores",
    "phone": "(407) 815-5411",
    "address": "4200 Conroy Road The Mall At Millenia  Orlando, FL 32839",
    "location": "Union"
  },
  {
    "name": "Versace",
    "description": "Clothing Stores",
    "phone": "(321) 332-9800",
    "address": "Mall At Millenia 4200 Conroy Road Space K284  Orlando, FL 32839",
    "location": "Union"
  },
  {
    "name": "Affordable Tees-Jacaro",
    "description": "Clothing Stores",
    "phone": "(407) 943-2129",
    "address": "4441 Old Winter Garden Rd  Orlando, FL 32811",
    "location": "Union"
  },
  {
    "name": "Design Lab Uniforms That Serve",
    "description": "Clothing Stores",
    "phone": "(407) 649-2099",
    "address": "4065 L B Mcleod Rd  Orlando, FL 32811",
    "location": "Union"
  },
  {
    "name": "Stuph Clothing",
    "description": "Clothing Stores",
    "phone": "(407) 581-1240",
    "address": "6790 Edgewater Commerce Pkwy  Orlando, FL 32810",
    "location": "Union"
  },
  {
    "name": "Affordable Tees",
    "description": "Clothing Stores",
    "phone": "(407) 295-6500",
    "address": "4813 W Robinson St  Orlando, FL 32811",
    "location": "Union"
  },
  {
    "name": "Catherines Plus Sizes",
    "description": "Clothing Stores",
    "phone": "(407) 903-9498",
    "address": "4673 Millenia Plaza Way  Orlando, FL 32839",
    "location": "Union"
  },
  {
    "name": "DXL Big + Tall",
    "description": "Clothing Stores",
    "phone": "(407) 264-2867",
    "address": "4012 Eastgate Dr  Orlando, FL 32839",
    "location": "Union"
  },
  {
    "name": "Armani Exchange (A/X)",
    "description": "Clothing Stores",
    "phone": "(407) 226-6890",
    "address": "4200 Conroy Rd Space G-173  Orlando, FL 32839",
    "location": "Union"
  },
  {
    "name": "Nordstrom Rack Millenia Crossing",
    "description": "Clothing Stores",
    "phone": "(321) 558-3800",
    "address": "4036 Eastgate Dr  Orlando, FL 32839",
    "location": "Union"
  },
  {
    "name": "Tory Burch",
    "description": "Clothing Stores",
    "phone": "(407) 903-1263",
    "address": "4200 Conroy Rd Spc K290  Orlando, FL 32839",
    "location": "Union"
  },
  {
    "name": "Chanel",
    "description": "Clothing Stores",
    "phone": "(407) 352-5100",
    "address": "4200 Conroy Rd  Orlando, FL 32839",
    "location": "Union"
  },
  {
    "name": "Christian Louboutin Orlando",
    "description": "Clothing Stores",
    "phone": "(407) 307-1010",
    "address": "4200 Conroy Rd Ste K292  Orlando, FL 32839",
    "location": "Union"
  },
  {
    "name": "abercrombie kids",
    "description": "Clothing Stores",
    "phone": "(321) 445-0105",
    "address": "4200 Conroy Rd Ste 190  Orlando, FL 32839",
    "location": "Union"
  },
  {
    "name": "Athleta",
    "description": "Clothing Stores",
    "phone": "(407) 226-9846",
    "address": "4200 Conroy Rd  Orlando, FL 32839",
    "location": "Union"
  },
  {
    "name": "7 For All Mankind",
    "description": "Clothing Stores",
    "phone": "(407) 264-0352",
    "address": "4200 Conroy Rd Ste C-184  Orlando, FL 32839",
    "location": "Union"
  },
  {
    "name": "Ray-Ban",
    "description": "Clothing Stores",
    "phone": "(407) 903-1900",
    "address": "4200 Conroy Rd Spc G165  Orlando, FL 32839",
    "location": "Union"
  },
  {
    "name": "Bvlgari",
    "description": "Clothing Stores",
    "phone": "(407) 363-9636",
    "address": "4200 Conroy Rd Spc P-271  Orlando, FL 32839",
    "location": "Union"
  },
  {
    "name": "Aritzia",
    "description": "Clothing Stores",
    "phone": "(407) 264-0315",
    "address": "4200 Conroy Rd  Orlando, FL 32839",
    "location": "Union"
  },
  {
    "name": "Everything But Water",
    "description": "Clothing Stores",
    "phone": "(407) 345-5451",
    "address": "4200 Conroy Rd  Orlando, FL 32839",
    "location": "Union"
  },
  {
    "name": "Cache",
    "description": "Clothing Stores",
    "phone": "(407) 264-0737",
    "address": "4200 Conroy Rd  Orlando, FL 32839",
    "location": "Union"
  },
  {
    "name": "Brooks Brothers",
    "description": "Clothing Stores",
    "phone": "(407) 248-3401",
    "address": "4200 Conroy Rd  Orlando, FL 32839",
    "location": "Union"
  },
  {
    "name": "Robin's Jean",
    "description": "Clothing Stores",
    "phone": "(407) 363-5223",
    "address": "4200 Conroy Rd  Orlando, FL 32839",
    "location": "Union"
  },
  {
    "name": "Alo",
    "description": "Clothing Stores",
    "phone": "(407) 216-5426",
    "address": "4200 Conroy Rd Spc G175  Orlando, FL 32839",
    "location": "Union"
  },
  {
    "name": "Emporio Armani",
    "description": "Clothing Stores",
    "phone": "(407) 264-2400",
    "address": "4152 Conroy Rd  Orlando, FL 32839",
    "location": "Union"
  },
  {
    "name": "Sun Lovers of Central FL Inc",
    "description": "Clothing Stores",
    "phone": "(407) 425-7708",
    "address": "4601 SW 34th St  Orlando, FL 32811",
    "location": "Union"
  },
  {
    "name": "Rainbow Apparel Inc",
    "description": "Clothing Stores",
    "phone": "(407) 294-4459",
    "address": "5239 W Colonial Dr  Orlando, FL 32808",
    "location": "Union"
  },
  {
    "name": "Looking Good Fashions",
    "description": "Clothing Stores",
    "phone": "(407) 291-4212",
    "address": "5333 W Colonial Dr  Orlando, FL 32808",
    "location": "Union"
  },
  {
    "name": "Shoe Palace",
    "description": "Clothing Stores",
    "phone": "(407) 458-5595",
    "address": "8001 S Orange Blossom Trl Ste 1220  Orlando, FL 32809",
    "location": "Union"
  },
  {
    "name": "Intimissimi",
    "description": "Clothing Stores",
    "phone": "(321) 352-7618",
    "address": "8001 S Orange Blossom Trl  Orlando, FL 32809",
    "location": "Union"
  },
  {
    "name": "Sirens",
    "description": "Clothing Stores",
    "phone": "(321) 352-7678",
    "address": "8001 S Orange Blossom Trl  Orlando, FL 32809",
    "location": "Union"
  },
  {
    "name": "Roxy",
    "description": "Clothing Stores",
    "phone": "(407) 888-3553",
    "address": "8001 S Orange Blossom Trl Ste 306B  Orlando, FL 32809",
    "location": "Union"
  },
  {
    "name": "5.7.9",
    "description": "Clothing Stores",
    "phone": "(321) 236-9803",
    "address": "8001 S Orange Blossom Trl  Orlando, FL 32809",
    "location": "Union"
  },
  {
    "name": "Hope & Henry",
    "description": "Clothing Stores",
    "phone": "(407) 337-8125",
    "address": "8001 S Orange Blossom Trl  Orlando, FL 32809",
    "location": "Union"
  },
  {
    "name": "Emmanuel Mens Wear",
    "description": "Clothing Stores",
    "phone": "(321) 352-7760",
    "address": "8001 S Orange Blossom Trl  Orlando, FL 32809",
    "location": "Union"
  },
  {
    "name": "Rice Labs",
    "description": "Clothing Stores",
    "phone": "(407) 203-5048",
    "address": "1271 La Quinta Dr Ste 3  Orlando, FL 32809",
    "location": "Union"
  },
  {
    "name": "Rock 'em Apparel Co.",
    "description": "Clothing Stores",
    "phone": "(855) 762-5364",
    "address": "5051 L B Mcleod Rd Ste A  Orlando, FL 32811",
    "location": "Union"
  },
  {
    "name": "Central Admixture Pharmacy Services",
    "description": "Clothing Stores",
    "phone": "(407) 856-8828",
    "address": "2815 Directors Row Ste 300  Orlando, FL 32809",
    "location": "Union"
  },
  {
    "name": "Men In Style",
    "description": "Clothing Stores",
    "phone": "(407) 578-1414",
    "address": "2282 S Kirkman Rd  Orlando, FL 32811",
    "location": "Union"
  },
  {
    "name": "Edna's Dress Up Boutique Consignment Shop",
    "description": "Clothing Stores",
    "phone": "(407) 286-5500",
    "address": "9251 S Orange Blossom Trl  Orlando, FL 32837",
    "location": "Union"
  },
  {
    "name": "Cassandre Ellis Fashion",
    "description": "Clothing Stores",
    "phone": "(407) 730-7026",
    "address": "6900 Silver Star Rd  Orlando, FL 32818",
    "location": "Union"
  },
  {
    "name": "Gro Styles",
    "description": "Clothing Stores",
    "phone": "(407) 438-3736",
    "address": "9456 S Orange Blossom Trl  Orlando, FL 32837",
    "location": "Union"
  },
  {
    "name": "Immaculee Fashions",
    "description": "Clothing Stores",
    "phone": "(407) 297-7071",
    "address": "2761 N Hiawassee Rd  Orlando, FL 32818",
    "location": "Union"
  },
  {
    "name": "Kasper",
    "description": "Clothing Stores",
    "phone": "(407) 354-1344",
    "address": "4953 International Dr Ste 2a03  Orlando, FL 32819",
    "location": "Union"
  },
  {
    "name": "Pd Mens Wear",
    "description": "Clothing Stores",
    "phone": "(407) 286-1747",
    "address": "2832 N Hiawassee Rd  Orlando, FL 32818",
    "location": "Union"
  },
  {
    "name": "Old Navy Outlet",
    "description": "Clothing Stores",
    "phone": "(407) 363-0825",
    "address": "4949 International Dr  Orlando, FL 32819",
    "location": "Union"
  },
  {
    "name": "US Apparel Online",
    "description": "Clothing Stores",
    "phone": "(407) 447-9980",
    "address": "7414 Kingspointe Pkwy  Orlando, FL 32819",
    "location": "Union"
  },
  {
    "name": "True Religion Jeans",
    "description": "Clothing Stores",
    "phone": "(407) 903-5068",
    "address": "4951 International Dr  Orlando, FL 32819",
    "location": "Union"
  },
  {
    "name": "Van Heusen",
    "description": "Clothing Stores",
    "phone": "(407) 354-3226",
    "address": "4951 International Dr  Orlando, FL 32819",
    "location": "Union"
  },
  {
    "name": "Marc Jacobs - Orlando International Premium Outlets",
    "description": "Clothing Stores",
    "phone": "(407) 904-2700",
    "address": "4953 International Dr Ste 1A09  Orlando, FL 32819",
    "location": "Union"
  },
  {
    "name": "Kenneth Cole",
    "description": "Clothing Stores",
    "phone": "(407) 903-1191",
    "address": "4953 International Dr Ste 1A09  Orlando, FL 32819",
    "location": "Union"
  },
  {
    "name": "St. John Outlet",
    "description": "Clothing Stores",
    "phone": "(407) 352-5646",
    "address": "4953 International Dr Ste 1A01  Orlando, FL 32819",
    "location": "Union"
  },
  {
    "name": "Solaris",
    "description": "Clothing Stores",
    "phone": "(407) 401-7118",
    "address": "4953 International Dr Ste 1A  Orlando, FL 32819",
    "location": "Union"
  },
  {
    "name": "Karl Lagerfeld Paris",
    "description": "Clothing Stores",
    "phone": "(407) 270-3084",
    "address": "4955 International Dr Ste 2B01  Orlando, FL 32819",
    "location": "Union"
  },
  {
    "name": "Dkny",
    "description": "Clothing Stores",
    "phone": "(407) 351-4481",
    "address": "4955 International Dr Ste 2B01  Orlando, FL 32819",
    "location": "Union"
  },
  {
    "name": "The Donna Karan Company Store",
    "description": "Clothing Stores",
    "phone": "(407) 351-4481",
    "address": "4955 International Dr  Orlando, FL 32819",
    "location": "Union"
  },
  {
    "name": "Elie Tahari Outlet",
    "description": "Clothing Stores",
    "phone": "(321) 352-7554",
    "address": "4955 International Dr  Orlando, FL 32819",
    "location": "Union"
  },
  {
    "name": "Dooney & Bourke Factory Store",
    "description": "Clothing Stores",
    "phone": "(407) 226-0611",
    "address": "4955 International Dr  Orlando, FL 32819",
    "location": "Union"
  },
  {
    "name": "Polo Ralph Lauren Factory Store",
    "description": "Clothing Stores",
    "phone": "(407) 903-0339",
    "address": "4959 International Dr Ste 1E01  Orlando, FL 32819",
    "location": "Union"
  },
  {
    "name": "Quiksilver Factory Outlet",
    "description": "Clothing Stores",
    "phone": "(407) 363-0919",
    "address": "4963 International Dr  Orlando, FL 32819",
    "location": "Union"
  },
  {
    "name": "Supreme International",
    "description": "Clothing Stores",
    "phone": "(407) 363-4613",
    "address": "4963 International Dr  Orlando, FL 32819",
    "location": "Union"
  },
  {
    "name": "Oshkosh B'Gosh",
    "description": "Clothing Stores",
    "phone": "(407) 352-6414",
    "address": "4967 International Dr  Orlando, FL 32819",
    "location": "Union"
  },
  {
    "name": "US Polo Association",
    "description": "Clothing Stores",
    "phone": "(407) 264-5782",
    "address": "4967 International Dr  Orlando, FL 32819",
    "location": "Union"
  },
  {
    "name": "Gap Factory",
    "description": "Clothing Stores",
    "phone": "(407) 345-0467",
    "address": "4969 International Dr Ste 3E05  Orlando, FL 32819",
    "location": "Union"
  },
  {
    "name": "Carhartt Orlando Factory Outlet",
    "description": "Clothing Stores",
    "phone": "(407) 241-3327",
    "address": "4973 International Dr Ste 3F21  Orlando, FL 32819",
    "location": "Union"
  },
  {
    "name": "Burton Outlet Store - Orlando",
    "description": "Clothing Stores",
    "phone": "(407) 235-1300",
    "address": "4973 International Dr  Orlando, FL 32819",
    "location": "Union"
  },
  {
    "name": "Puma Outlet",
    "description": "Clothing Stores",
    "phone": "(407) 351-9721",
    "address": "4977 International Dr  Orlando, FL 32819",
    "location": "Union"
  },
  {
    "name": "Tommy Hilfiger Outlet Store",
    "description": "Clothing Stores",
    "phone": "(407) 355-3588",
    "address": "5080 International Dr  Orlando, FL 32819",
    "location": "Union"
  },
  {
    "name": "Be Fit Apparel",
    "description": "Clothing Stores",
    "phone": "(407) 354-5335",
    "address": "8803 Futures Dr  Orlando, FL 32819",
    "location": "Union"
  },
  {
    "name": "Ipanema Girl USA",
    "description": "Clothing Stores",
    "phone": "(407) 989-0451",
    "address": "1013 S Hiawassee Rd  Orlando, FL 32835",
    "location": "Union"
  },
  {
    "name": "Nike Orlando",
    "description": "Clothing Stores",
    "phone": "(407) 351-9400",
    "address": "5209 International Dr  Orlando, FL 32819",
    "location": "Union"
  },
  {
    "name": "Fashionlinedirect",
    "description": "Clothing Stores",
    "phone": "(321) 422-2054",
    "address": "5545 International Dr  Orlando, FL 32819",
    "location": "Union"
  },
  {
    "name": "Fresh Produce",
    "description": "Clothing Stores",
    "phone": "(407) 363-1756",
    "address": "6000 Universal Blvd Ste 745C  Orlando, FL 32819",
    "location": "Union"
  },
  {
    "name": "Boot Barn",
    "description": "Clothing Stores",
    "phone": "(407) 563-1063",
    "address": "5716 International Dr  Orlando, FL 32819",
    "location": "Union"
  },
  {
    "name": "Suit City of Orlando",
    "description": "Clothing Stores",
    "phone": "(407) 292-1998",
    "address": "7840 W Colonial Dr  Orlando, FL 32818",
    "location": "Union"
  },
  {
    "name": "Polson John Sales",
    "description": "Clothing Stores",
    "phone": "(407) 296-9776",
    "address": "268 Baywest Neighbors Cir  Orlando, FL 32835",
    "location": "Union"
  },
  {
    "name": "American Retail Group",
    "description": "Clothing Stores",
    "phone": "(407) 351-0900",
    "address": "6454 International Dr  Orlando, FL 32819",
    "location": "Union"
  },
  {
    "name": "YourLogoGifts.com",
    "description": "Clothing Stores",
    "phone": "(407) 832-6446",
    "address": "5916 Caravan Court Resort Shoppe  Orlando, FL 32819",
    "location": "Union"
  },
  {
    "name": "Entertainment Apparel",
    "description": "Clothing Stores",
    "phone": "(407) 816-4100",
    "address": "6000 Turkey Lake Rd  Orlando, FL 32819",
    "location": "Union"
  },
  {
    "name": "Great Lakes Loyalty",
    "description": "Clothing Stores",
    "phone": "(716) 308-3676",
    "address": "8535 Lansmere Ln  Orlando, FL 32835",
    "location": "Union"
  },
  {
    "name": "The Stilo Co.",
    "description": "Clothing Stores",
    "phone": "(321) 417-0040",
    "address": "304 E Hillcrest St  Altamonte Springs, FL 32701",
    "location": "Union"
  },
  {
    "name": "Uniformity",
    "description": "Clothing Stores",
    "phone": "(407) 331-8287",
    "address": "1140 W State Road 434 Ste 100  Longwood, FL 32750",
    "location": "Union"
  },
  {
    "name": "Work 'N Gear",
    "description": "Clothing Stores",
    "phone": "(407) 767-6255",
    "address": "451 Altamonte Commerce Blvd Suite 401  Altamonte Springs, FL 32714",
    "location": "Union"
  },
  {
    "name": "Anchor Promotional Merchandise",
    "description": "Clothing Stores",
    "phone": "(407) 831-4233",
    "address": "925 Sunshine Ln Ste 1040  Altamonte Springs, FL 32714",
    "location": "Union"
  },
  {
    "name": "Rich Hippie",
    "description": "Clothing Stores",
    "phone": "(407) 682-7969",
    "address": "1094 Montgomery Rd  Altamonte Springs, FL 32714",
    "location": "Union"
  },
  {
    "name": "Butafrog Incorporation",
    "description": "Clothing Stores",
    "phone": "(407) 402-2580",
    "address": "115 Channel Cir  Lake Mary, FL 32746",
    "location": "Union"
  },
  {
    "name": "Free 2 Flex",
    "description": "Clothing Stores",
    "phone": "(407) 783-4959",
    "address": "255 Primera Blvd  Lake Mary, FL 32746",
    "location": "Union"
  },
  {
    "name": "Camille La Vie at Outlet Marketplace",
    "description": "Clothing Stores",
    "phone": "(407) 355-7261",
    "address": "5223 International Dr Suite D2  Orlando, FL 32819",
    "location": "Union"
  },
  {
    "name": "GUESS Factory",
    "description": "Clothing Stores",
    "phone": "(407) 345-1622",
    "address": "5269 International Dr Ste E  Orlando, FL 32819",
    "location": "Union"
  },
  {
    "name": "Curious Catt Boutique",
    "description": "Clothing Stores",
    "phone": "(321) 236-2288",
    "address": "5438 Long Rd  Orlando, FL 32808",
    "location": "Union"
  },
  {
    "name": "Wild Side Clothing and Shoes",
    "description": "Clothing Stores",
    "phone": "(407) 355-3150",
    "address": "6203 W Sand Lake Rd Ste C2  Orlando, FL 32819",
    "location": "Union"
  },
  {
    "name": "Superdry Outlet",
    "description": "Clothing Stores",
    "phone": "(407) 842-5305",
    "address": "Vineland Premium Outlet  Orlando, FL 32821",
    "location": "Union"
  },
  {
    "name": "Cavender's Boot City",
    "description": "Clothing Stores",
    "phone": "(407) 465-0195",
    "address": "11607 Regency Village Dr  Orlando, FL 32821",
    "location": "Union"
  },
  {
    "name": "Gap Outlet",
    "description": "Clothing Stores",
    "phone": "(321) 677-0243",
    "address": "8225 Vineland Ave  Orlando, FL 32821",
    "location": "Union"
  },
  {
    "name": "Converse Store (We moved to Suite 1225)",
    "description": "Clothing Stores",
    "phone": "(407) 239-0037",
    "address": "8166 Vineland Ave Ste 1725  Orlando, FL 32821",
    "location": "Union"
  },
  {
    "name": "The Children's Place Outlet",
    "description": "Clothing Stores",
    "phone": "(407) 634-6644",
    "address": "8174 Vineland Ave  Orlando, FL 32821",
    "location": "Union"
  },
  {
    "name": "Nike - Orlando",
    "description": "Clothing Stores",
    "phone": "(407) 239-3663",
    "address": "8200 Vineland Ave  Orlando, FL 32821",
    "location": "Union"
  },
  {
    "name": "Lucky Brand",
    "description": "Clothing Stores",
    "phone": "(407) 239-7267",
    "address": "8200 Vineland Ave Ste 805  Orlando, FL 32821",
    "location": "Union"
  },
  {
    "name": "Prada Orlando Premium",
    "description": "Clothing Stores",
    "phone": "(407) 238-6280",
    "address": "8200 Vineland Ave Ste 120  Orlando, FL 32821",
    "location": "Union"
  },
  {
    "name": "Cole Haan Outlet",
    "description": "Clothing Stores",
    "phone": "(407) 239-4900",
    "address": "8200 Vineland Ave Ste 325  Orlando, FL 32821",
    "location": "Union"
  },
  {
    "name": "Marc Jacobs - Orlando Vineland Premium Outlets",
    "description": "Clothing Stores",
    "phone": "(407) 605-6091",
    "address": "8200 Vineland Ave Ste 170  Orlando, FL 32821",
    "location": "Union"
  },
  {
    "name": "Gucci - Orlando Outlet",
    "description": "Clothing Stores",
    "phone": "(321) 329-3451",
    "address": "8200 Vineland Ave Ste 115  Orlando, FL 32821",
    "location": "Union"
  },
  {
    "name": "Puma Outlet Store",
    "description": "Clothing Stores",
    "phone": "(407) 239-6211",
    "address": "8200 Vineland Ave  Orlando, FL 32821",
    "location": "Union"
  },
  {
    "name": "COACH Outlet",
    "description": "Clothing Stores",
    "phone": "(407) 239-4673",
    "address": "8200 Vineland Ave Ste 430  Orlando, FL 32821",
    "location": "Union"
  },
  {
    "name": "Bottega Veneta",
    "description": "Clothing Stores",
    "phone": "(321) 329-3950",
    "address": "8200 Vineland Ave  Orlando, FL 32821",
    "location": "Union"
  },
  {
    "name": "Michael Kors Mens Outlet",
    "description": "Clothing Stores",
    "phone": "(407) 239-0231",
    "address": "8200 Vineland Ave Ste 815  Orlando, FL 32821",
    "location": "Union"
  },
  {
    "name": "Longchamp Orlando",
    "description": "Clothing Stores",
    "phone": "(407) 390-0527",
    "address": "8200 Vineland Ave Ste 165  Orlando, FL 32821",
    "location": "Union"
  },
  {
    "name": "BOSS Menswear Outlet",
    "description": "Clothing Stores",
    "phone": "(407) 465-0660",
    "address": "8200 Vineland Ave  Orlando, FL 32821",
    "location": "Union"
  },
  {
    "name": "Nike Factory Store - Orlando Vineland",
    "description": "Clothing Stores",
    "phone": "(407) 239-3663",
    "address": "8200 Vineland Ave Ste 600  Orlando, FL 32821",
    "location": "Union"
  },
  {
    "name": "FERRAGAMO Outlet",
    "description": "Clothing Stores",
    "phone": "(407) 477-0091",
    "address": "8200 Vineland Ave  Orlando, FL 32821",
    "location": "Union"
  },
  {
    "name": "Max Mara",
    "description": "Clothing Stores",
    "phone": "(407) 239-9485",
    "address": "8200 Vineland Ave  Orlando, FL 32821",
    "location": "Union"
  },
  {
    "name": "Zegna Outlet",
    "description": "Clothing Stores",
    "phone": "(407) 239-6300",
    "address": "8200 Vineland Ave Ste 1149  Orlando, FL 32821",
    "location": "Union"
  },
  {
    "name": "Hugo Boss Factory Outlet",
    "description": "Clothing Stores",
    "phone": "(407) 465-0660",
    "address": "8200 Vineland Ave Ste 1120  Orlando, FL 32821",
    "location": "Union"
  },
  {
    "name": "Giorgio Armani",
    "description": "Clothing Stores",
    "phone": "(407) 465-2121",
    "address": "8200 Vineland Ave Ste 305  Orlando, FL 32821",
    "location": "Union"
  },
  {
    "name": "Izod",
    "description": "Clothing Stores",
    "phone": "(407) 239-9356",
    "address": "8200 Vineland Ave Ste 1126  Orlando, FL 32821",
    "location": "Union"
  },
  {
    "name": "Ermenegildo Zegna",
    "description": "Clothing Stores",
    "phone": "(407) 239-6300",
    "address": "8200 Vineland Ave  Orlando, FL 32821",
    "location": "Union"
  },
  {
    "name": "Zadig & Voltaire",
    "description": "Clothing Stores",
    "phone": "(321) 346-0557",
    "address": "8200 Vineland Ave Ste 1124  Orlando, FL 32821",
    "location": "Union"
  },
  {
    "name": "Florida Lifestyle Apparel",
    "description": "Clothing Stores",
    "phone": "(407) 239-0988",
    "address": "12181 S Apopka Vineland Rd  Orlando, FL 32836",
    "location": "Union"
  },
  {
    "name": "S & K Menswear",
    "description": "Clothing Stores",
    "phone": "(407) 238-9716",
    "address": "15657 State Road 535  Orlando, FL 32821",
    "location": "Union"
  },
  {
    "name": "Big Dogs",
    "description": "Clothing Stores",
    "phone": "(407) 787-0053",
    "address": "15657 State Road 535  Orlando, FL 32821",
    "location": "Union"
  },
  {
    "name": "US Polo Assn",
    "description": "Clothing Stores",
    "phone": "(407) 787-3667",
    "address": "15719 State Road 535  Orlando, FL 32821",
    "location": "Union"
  },
  {
    "name": "Timberland Outlet - Orlando",
    "description": "Clothing Stores",
    "phone": "(407) 238-2042",
    "address": "15777 State Road 535  Orlando, FL 32821",
    "location": "Union"
  },
  {
    "name": "Superdry",
    "description": "Clothing Stores",
    "phone": "(321) 251-3351",
    "address": "1486 E Buena Vista Dr  Orlando, FL 32830",
    "location": "Union"
  },
  {
    "name": "GENEVA 88 FASHION",
    "description": "Handbags",
    "phone": "(407) 516-1006",
    "address": "9318 E Colonial Dr  Orlando, FL 32817",
    "location": "Union"
  },
  {
    "name": "Walmart Supercenter",
    "description": "General Merchandise",
    "phone": "(407) 281-8941",
    "address": "11250 E Colonial Dr  Orlando, FL 32817",
    "location": "Union"
  },
  {
    "name": "Footaction USA",
    "description": "Shoe Stores",
    "phone": "(407) 851-9620",
    "address": "S 8001 Orange Blossom Trl  Orlando, FL 32809",
    "location": "Union"
  },
  {
    "name": "Good Vibrations Inc",
    "description": "Sportswear",
    "phone": "(407) 896-5807",
    "address": "FASHION Square Mall  Orlando, FL 32803",
    "location": "Union"
  },
  {
    "name": "Avon Diva",
    "description": "Bras",
    "phone": "(407) 601-9442",
    "address": "ORLANDO Fl  Orlando, FL 32810",
    "location": "Union"
  },
  {
    "name": "The Limited",
    "description": "Women's Clothing",
    "phone": "(407) 896-3791",
    "address": "FASHION Square Mall  Orlando, FL 32803",
    "location": "Union"
  },
  {
    "name": "Kdab, Inc",
    "description": "Men's Clothing",
    "phone": "(407) 331-8001",
    "address": "6869 Stapoint Ct suite 111  Winter Park, FL 32792",
    "location": "Union"
  },
  {
    "name": "Target",
    "description": "General Merchandise",
    "phone": "(407) 482-8155",
    "address": "325 N Alafaya Trl  Orlando, FL 32828",
    "location": "Union"
  },
  {
    "name": "Men's Wearhouse",
    "description": "Men's Clothing",
    "phone": "(407) 281-6161",
    "address": "688 N Alafaya Trl Ste 101  Orlando, FL 32828",
    "location": "Union"
  },
  {
    "name": "AVON Independent Sales Rep.",
    "description": "Skin Care",
    "phone": "(321) 663-8626",
    "address": "131 Peppertree Dr  Orlando, FL 32825",
    "location": "Union"
  },
  {
    "name": "Full Court Press",
    "description": "T-Shirts",
    "phone": "(850) 510-8086",
    "address": "3932 Lake Mirage Blvd  Orlando, FL 32817",
    "location": "Union"
  },
  {
    "name": "Sayyed Scarf Intl",
    "description": "Women's Clothing",
    "phone": "(407) 802-9293",
    "address": "1360 N Goldenrod Rd  Orlando, FL 32807",
    "location": "Union"
  },
  {
    "name": "Allen Sportwear",
    "description": "Sportswear",
    "phone": "(407) 641-4900",
    "address": "2100 N Alafaya Trl  Orlando, FL 32826",
    "location": "Union"
  },
  {
    "name": "Dick's Sporting Goods",
    "description": "Exercise & Fitness Equipment",
    "phone": "(407) 380-9066",
    "address": "1100 N Alafaya Trl  Orlando, FL 32828",
    "location": "Union"
  },
  {
    "name": "Academy Sports + Outdoors",
    "description": "Sporting Goods",
    "phone": "(407) 243-2000",
    "address": "11955 E Colonial Dr  Orlando, FL 32826",
    "location": "Union"
  },
  {
    "name": "Style Encore",
    "description": "Resale Shops",
    "phone": "(407) 930-5888",
    "address": "610 N Alafaya Trl  Orlando, FL 32828",
    "location": "Union"
  },
  {
    "name": "Styles for Less",
    "description": "Women's Clothing",
    "phone": "(407) 275-3386",
    "address": "610 N Alafaya Trl Ste 107  Orlando, FL 32828",
    "location": "Union"
  },
  {
    "name": "Nine West",
    "description": "Shoe Stores",
    "phone": "(407) 273-9057",
    "address": "705 N Alafaya Trl  Orlando, FL 32828",
    "location": "Union"
  },
  {
    "name": "JoS. A. Bank",
    "description": "Men's Clothing",
    "phone": "(407) 275-1977",
    "address": "701 N Alafaya Trl  Orlando, FL 32828",
    "location": "Union"
  },
  {
    "name": "Lululemon",
    "description": "Sportswear",
    "phone": "(407) 798-7725",
    "address": "695 N Alafaya Trl Spc S01A  Orlando, FL 32828",
    "location": "Union"
  },
  {
    "name": "Ann Taylor",
    "description": "Women's Clothing",
    "phone": "(321) 235-0368",
    "address": "685 N Alafaya Trl  Orlando, FL 32828",
    "location": "Union"
  },
  {
    "name": "Rack Room Shoes",
    "description": "Shoe Stores",
    "phone": "(407) 281-9324",
    "address": "671 N Alafaya Trl  Orlando, FL 32828",
    "location": "Union"
  },
  {
    "name": "Lane Bryant",
    "description": "Women's Clothing",
    "phone": "(321) 354-9002",
    "address": "657 N Alafaya Trl  Orlando, FL 32828",
    "location": "Union"
  },
  {
    "name": "Downtown Divas",
    "description": "Women's Clothing",
    "phone": "(407) 275-3433",
    "address": "12082 Collegiate Way  Orlando, FL 32817",
    "location": "Union"
  },
  {
    "name": "Casual Male XL",
    "description": "Men's Clothing",
    "phone": "(407) 275-3642",
    "address": "464 N Alafaya Trl Ste 108  Orlando, FL 32828",
    "location": "Union"
  },
  {
    "name": "SKECHERS Warehouse Outlet",
    "description": "Shoe Stores",
    "phone": "(407) 207-1239",
    "address": "517 N Alafaya Trl  Orlando, FL 32828",
    "location": "Union"
  },
  {
    "name": "Henri Girl",
    "description": "Women's Clothing",
    "phone": "(407) 208-1001",
    "address": "12101 University Blvd  Orlando, FL 32817",
    "location": "Union"
  },
  {
    "name": "Victoria's Secret & PINK by Victoria's Secret",
    "description": "Lingerie",
    "phone": "(407) 482-0672",
    "address": "509 N Alafaya Trl  Orlando, FL 32828",
    "location": "Union"
  },
  {
    "name": "Francesca's",
    "description": "Women's Clothing",
    "phone": "(407) 377-7023",
    "address": "497 N Alafaya Trl  Orlando, FL 32828",
    "location": "Union"
  },
  {
    "name": "Soma Intimates",
    "description": "Lingerie",
    "phone": "(407) 926-0001",
    "address": "493 N Alafaya Trl  Orlando, FL 32828",
    "location": "Union"
  },
  {
    "name": "Crocs",
    "description": "Shoe Stores",
    "phone": "(407) 501-5947",
    "address": "485 N Alafaya Trl Ste 12  Orlando, FL 32828",
    "location": "Union"
  },
  {
    "name": "Cato",
    "description": "Women's Clothing",
    "phone": "(407) 277-4632",
    "address": "497 S Chickasaw Trl  Orlando, FL 32825",
    "location": "Union"
  },
  {
    "name": "Motherhood Maternity",
    "description": "Maternity Clothes",
    "phone": "(407) 482-8552",
    "address": "385 N Alafaya Trl  Orlando, FL 32828",
    "location": "Union"
  },
  {
    "name": "Famous Footwear",
    "description": "Shoe Stores",
    "phone": "(407) 482-9100",
    "address": "379 N Alafaya Trl  Orlando, FL 32828",
    "location": "Union"
  },
  {
    "name": "Hibbett Sports",
    "description": "Sporting Goods",
    "phone": "(407) 304-7780",
    "address": "355 N Alafaya Trl  Orlando, FL 32828",
    "location": "Union"
  },
  {
    "name": "DressBarn",
    "description": "Women's Clothing",
    "phone": "(407) 207-1282",
    "address": "351 N Alafaya Trl  Orlando, FL 32828",
    "location": "Union"
  },
  {
    "name": "Tri Sport",
    "description": "Sporting Goods",
    "phone": "(407) 673-2158",
    "address": "2721 Forsyth Rd  Winter Park, FL 32792",
    "location": "Union"
  },
  {
    "name": "Edwin Watts Golf",
    "description": "Golf Equipment & Supplies",
    "phone": "(407) 351-1444",
    "address": "12400 Lake Underhill Rd  Orlando, FL 32828",
    "location": "Union"
  },
  {
    "name": "One Two Three Dollar Store",
    "description": "Variety Stores",
    "phone": "(407) 720-3522",
    "address": "1502 N Semoran Blvd  Orlando, FL 32807",
    "location": "Union"
  },
  {
    "name": "Ezika Boutique",
    "description": "Women's Clothing",
    "phone": "(844) 921-4178",
    "address": "7814 Silverbrush Cir 203 Apt  Orlando, FL 32822",
    "location": "Union"
  },
  {
    "name": "Henry's Closet",
    "description": "Women's Clothing",
    "phone": "(855) 381-7797",
    "address": "2841 Carlisle Ave  Orlando, FL 32826",
    "location": "Union"
  },
  {
    "name": "Furioso",
    "description": "Department Stores",
    "phone": "(407) 219-3891",
    "address": "2455 E Sunrise Blvd  Orlando, FL 32801",
    "location": "Union"
  },
  {
    "name": "Second Image",
    "description": "Women's Clothing",
    "phone": "(407) 306-0150",
    "address": "520 N Semoran Blvd Ste 270  Orlando, FL 32807",
    "location": "Union"
  },
  {
    "name": "Angelina's Bridal",
    "description": "Bridal Shops",
    "phone": "(407) 574-3461",
    "address": "495 N Semoran Blvd  Winter Park, FL 32792",
    "location": "Union"
  },
  {
    "name": "Dillard's",
    "description": "Department Stores",
    "phone": "(407) 896-1211",
    "address": "3403 E Colonial Dr  Orlando, FL 32803",
    "location": "Union"
  },
  {
    "name": "Wal-Mart",
    "description": "General Merchandise",
    "phone": "(407) 277-0475",
    "address": "3838 S Semoran Blvd  Orlando, FL 32822",
    "location": "Union"
  },
  {
    "name": "ASA Moda Corp",
    "description": "Women's Clothing",
    "phone": "(407) 413-5743",
    "address": "2176 S Chickasaw Trl  Orlando, FL 32825",
    "location": "Union"
  },
  {
    "name": "On Target Staffing",
    "description": "General Merchandise",
    "phone": "(407) 277-1007",
    "address": "234 S Semoran Blvd  Orlando, FL 32807",
    "location": "Union"
  },
  {
    "name": "Amy's Walk-in Closet Shop",
    "description": "Consignment Service",
    "phone": "(407) 282-4291",
    "address": "2751 S Chickasaw Trl Ste 104  Orlando, FL 32829",
    "location": "Union"
  },
  {
    "name": "Sweetheartz",
    "description": "Women's Clothing",
    "phone": "(407) 988-3100",
    "address": "4937 E Colonial Dr  Orlando, FL 32803",
    "location": "Union"
  },
  {
    "name": "Perfect Shot Inc",
    "description": "Sportswear",
    "phone": "(407) 203-5094",
    "address": "5710 La Costa Dr  Orlando, FL 32807",
    "location": "Union"
  },
  {
    "name": "Pryceisright",
    "description": "Department Stores",
    "phone": "(407) 289-6162",
    "address": "1436 Blackwater Pond Dr  Orlando, FL 32828",
    "location": "Union"
  },
  {
    "name": "Foskett Sporting Goods",
    "description": "Sporting Goods",
    "phone": "(407) 658-0594",
    "address": "429 Gaston Foster Rd Ste H  Orlando, FL 32807",
    "location": "Union"
  },
  {
    "name": "The Finish Line",
    "description": "Shoe Stores",
    "phone": "(407) 896-5300",
    "address": "3505 E Colonial Dr  Orlando, FL 32803",
    "location": "Union"
  },
  {
    "name": "Champs Sports",
    "description": "Sportswear",
    "phone": "(407) 896-4644",
    "address": "3499 E Colonial Dr  Orlando, FL 32803",
    "location": "Union"
  },
  {
    "name": "Foot Locker",
    "description": "Shoe Stores",
    "phone": "(407) 896-0781",
    "address": "3383 E Colonial Dr Suite A-8  Orlando, FL 32803",
    "location": "Union"
  },
  {
    "name": "Beya",
    "description": "Women's Clothing",
    "phone": "(407) 894-0557",
    "address": "3379 E Colonial Dr  Orlando, FL 32803",
    "location": "Union"
  },
  {
    "name": "Men's Choice",
    "description": "Men's Clothing",
    "phone": "(407) 897-3331",
    "address": "3343 E Colonial Dr  Orlando, FL 32803",
    "location": "Union"
  },
  {
    "name": "Team Sports USA",
    "description": "Sportswear",
    "phone": "(407) 898-0113",
    "address": "3207 E Colonial Dr  Orlando, FL 32803",
    "location": "Union"
  },
  {
    "name": "Lids",
    "description": "Hat Shops",
    "phone": "(407) 228-1390",
    "address": "3201 E Colonial Dr  Orlando, FL 32803",
    "location": "Union"
  },
  {
    "name": "Frederick's of Hollywood",
    "description": "Lingerie",
    "phone": "(407) 896-8936",
    "address": "3201 E Colonial Dr Ste M4  Orlando, FL 32803",
    "location": "Union"
  },
  {
    "name": "Dollar Plus",
    "description": "Variety Stores",
    "phone": "(407) 897-5340",
    "address": "3201 E Colonial Dr Unit G2  Orlando, FL 32803",
    "location": "Union"
  },
  {
    "name": "Victoria's Secret",
    "description": "Lingerie",
    "phone": "(407) 895-0915",
    "address": "3201 E Colonial Dr  Orlando, FL 32803",
    "location": "Union"
  },
  {
    "name": "Kiwi",
    "description": "Women's Clothing",
    "phone": "(407) 893-0130",
    "address": "3201 E Colonial Dr  Orlando, FL 32803",
    "location": "Union"
  },
  {
    "name": "Body Central",
    "description": "Women's Clothing",
    "phone": "(407) 894-4577",
    "address": "3201 E Colonial Dr  Orlando, FL 32803",
    "location": "Union"
  },
  {
    "name": "Body Shop",
    "description": "Women's Clothing",
    "phone": "(407) 894-4577",
    "address": "3201 E Colonial Dr  Orlando, FL 32803",
    "location": "Union"
  },
  {
    "name": "Value Dollar UP",
    "description": "Variety Stores",
    "phone": "(407) 380-9630",
    "address": "3910 S Semoran Blvd  Orlando, FL 32822",
    "location": "Union"
  },
  {
    "name": "Architectural Elegance",
    "description": "Beauty Salons",
    "phone": "(407) 228-8210",
    "address": "2920 E Robinson St  Orlando, FL 32803",
    "location": "Union"
  },
  {
    "name": "Sketchers USA",
    "description": "Shoe Stores",
    "phone": "(407) 893-3704",
    "address": "2714 E Colonial Dr  Orlando, FL 32803",
    "location": "Union"
  },
  {
    "name": "A & G Sports Corner",
    "description": "Sports Cards & Memorabilia",
    "phone": "(407) 731-9871",
    "address": "5445 Lake Howell Rd Unit D5  Winter Park, FL 32792",
    "location": "Union"
  },
  {
    "name": "Play It Again Sports",
    "description": "Sporting Goods",
    "phone": "(407) 677-5007",
    "address": "1425 Tuskawilla Rd Ste 195  Winter Springs, FL 32708",
    "location": "Union"
  },
  {
    "name": "Tori's Closet",
    "description": "Women's Clothing",
    "phone": "(315) 447-1974",
    "address": "5415 Lake Howell Rd  Winter Park, FL 32792",
    "location": "Union"
  },
  {
    "name": "Vera Wear",
    "description": "Fashion Designers",
    "phone": "(407) 777-9557",
    "address": "467 Lake Howell Rd  Maitland, FL 32751",
    "location": "Union"
  },
  {
    "name": "Bon Worth Inc",
    "description": "Women's Clothing",
    "phone": "(407) 359-8769",
    "address": "1215 Oviedo Mall Blvd  Oviedo, FL 32765",
    "location": "Union"
  },
  {
    "name": "Sassy's Bridal",
    "description": "Bridal Shops",
    "phone": "(407) 542-4942",
    "address": "1245 Oviedo Mall Blvd  Oviedo, FL 32765",
    "location": "Union"
  },
  {
    "name": "Computech City",
    "description": "Department Stores",
    "phone": "(407) 366-4207",
    "address": "106 W Mitchell Hammock Rd  Oviedo, FL 32765",
    "location": "Union"
  },
  {
    "name": "Paul Harris",
    "description": "Women's Clothing",
    "phone": "(407) 977-2991",
    "address": "1240 Oviedo Mall Blvd  Oviedo, FL 32765",
    "location": "Union"
  },
  {
    "name": "Finish Line",
    "description": "Shoe Stores",
    "phone": "(407) 971-7300",
    "address": "1400 Oviedo Mall Blvd  Oviedo, FL 32765",
    "location": "Union"
  },
  {
    "name": "Paris Fashion",
    "description": "Women's Clothing",
    "phone": "(407) 542-0340",
    "address": "1452 Oviedo Mall Blvd  Oviedo, FL 32765",
    "location": "Union"
  },
  {
    "name": "Embroidery Solutions",
    "description": "Uniforms",
    "phone": "(407) 438-8188",
    "address": "6457 Hazeltine National Dr Ste 120  Orlando, FL 32822",
    "location": "Union"
  },
  {
    "name": "Track Shack of Orlando",
    "description": "Running Stores",
    "phone": "(407) 898-1313",
    "address": "1104 N Mills Ave  Orlando, FL 32803",
    "location": "Union"
  },
  {
    "name": "Yenne Exchange",
    "description": "Closets & Accessories",
    "phone": "(704) 699-7174",
    "address": "4301 Lizshire Ln  Orlando, FL 32822",
    "location": "Union"
  },
  {
    "name": "Home Centric",
    "description": "Housewares",
    "phone": "(407) 895-7532",
    "address": "2668 E Colonial Dr  Orlando, FL 32803",
    "location": "Union"
  },
  {
    "name": "FS La Moda",
    "description": "Online & Mail Order Shopping",
    "phone": "(407) 668-1107",
    "address": "2050 Corner Glen Dr  Orlando, FL 32820",
    "location": "Union"
  },
  {
    "name": "Skechers",
    "description": "Shoe Stores",
    "phone": "(407) 381-9001",
    "address": "2549 Seabranch St  Orlando, FL 32828",
    "location": "Union"
  },
  {
    "name": "Butterfly Kisses",
    "description": "Baby Accessories, Furnishings & Services",
    "phone": "(407) 666-8715",
    "address": "4002 Bounce Dr  Orlando, FL 32812",
    "location": "Union"
  },
  {
    "name": "The House on Lang",
    "description": "Men's Clothing",
    "phone": "(407) 456-0666",
    "address": "1308 Lang Ave  Orlando, FL 32803",
    "location": "Union"
  },
  {
    "name": "Sunny State Co",
    "description": "Department Stores",
    "phone": "(407) 730-4179",
    "address": "928 N Mills Ave  Orlando, FL 32803",
    "location": "Union"
  },
  {
    "name": "Pink",
    "description": "Women's Clothing",
    "phone": "(407) 895-7554",
    "address": "2227 Curry Ford Rd  Orlando, FL 32806",
    "location": "Union"
  },
  {
    "name": "Got Karma",
    "description": "Candles",
    "phone": "(407) 228-2106",
    "address": "817 Virginia Dr  Orlando, FL 32803",
    "location": "Union"
  },
  {
    "name": "Regalia",
    "description": "Online & Mail Order Shopping",
    "phone": "(407) 426-8003",
    "address": "813 E Washington St  Orlando, FL 32801",
    "location": "Union"
  },
  {
    "name": "ZIARA FASHION BOUTIQUE",
    "description": "Boutique Items",
    "phone": "(408) 800-7152",
    "address": "orlando  Orlando, FL 32824",
    "location": "Union"
  },
  {
    "name": "Zou Zou Boutique",
    "description": "Boutique Items",
    "phone": "(407) 843-3373",
    "address": "2 N Summerlin Ave  Orlando, FL 32801",
    "location": "Union"
  },
  {
    "name": "Jarboe Inc",
    "description": "Fashion Designers",
    "phone": "(407) 895-6878",
    "address": "1225 N Orange Ave  Orlando, FL 32804",
    "location": "Union"
  },
  {
    "name": "Cloak & Dapper",
    "description": "Hair Supplies & Accessories",
    "phone": "(407) 250-6783",
    "address": "1219 N Orange Ave  Orlando, FL 32804",
    "location": "Union"
  },
  {
    "name": "Kissed by the Sun Apparel, Inc",
    "description": "Women's Clothing",
    "phone": "(877) 875-7771",
    "address": "618 E South Street, Suite 500  Orlando, FL 32801",
    "location": "Union"
  },
  {
    "name": "360 Nutrition",
    "description": "Sportswear",
    "phone": "(321) 304-9612",
    "address": "4429 Hoffner Ave  Orlando, FL 32812",
    "location": "Union"
  },
  {
    "name": "Dgx",
    "description": "Variety Stores",
    "phone": "(321) 300-0722",
    "address": "50 S Rosalind Ave  Orlando, FL 32801",
    "location": "Union"
  },
  {
    "name": "Narcoossee Store",
    "description": "General Merchandise",
    "phone": "(407) 273-0012",
    "address": "8101 Narcoossee Rd  Orlando, FL 32822",
    "location": "Union"
  },
  {
    "name": "Violet Clover",
    "description": "Department Stores",
    "phone": "(407) 637-2937",
    "address": "339 S Park Ave  Winter Park, FL 32789",
    "location": "Union"
  },
  {
    "name": "Blue Door Denim",
    "description": "Women's Clothing",
    "phone": "(407) 647-2583",
    "address": "316 N Park Ave  Winter Park, FL 32789",
    "location": "Union"
  },
  {
    "name": "Cida's Consignment",
    "description": "Consignment Service",
    "phone": "(407) 644-5635",
    "address": "535 N Park Ave Ste 124  Winter Park, FL 32789",
    "location": "Union"
  },
  {
    "name": "Sassys Bridal",
    "description": "Bridal Shops",
    "phone": "(407) 542-4942",
    "address": "1665 Oviedo Mall Blvd  Oviedo, FL 32765",
    "location": "Union"
  },
  {
    "name": "Moda Park Avenue Boutique",
    "description": "Boutique Items",
    "phone": "(407) 645-4297",
    "address": "202 S Park Ave  Winter Park, FL 32789",
    "location": "Union"
  },
  {
    "name": "Bebes Baby Boutique",
    "description": "Boutique Items",
    "phone": "(407) 628-1680",
    "address": "311 S Park Ave  Winter Park, FL 32789",
    "location": "Union"
  },
  {
    "name": "Current",
    "description": "Men's Clothing",
    "phone": "(407) 628-1087",
    "address": "128 S Park Ave  Winter Park, FL 32789",
    "location": "Union"
  },
  {
    "name": "Eileen Fisher",
    "description": "Women's Clothing",
    "phone": "(407) 628-9260",
    "address": "112 N Park Ave  Winter Park, FL 32789",
    "location": "Union"
  },
  {
    "name": "Talbots",
    "description": "Women's Clothing",
    "phone": "(407) 629-6444",
    "address": "180 N Park Ave  Winter Park, FL 32789",
    "location": "Union"
  },
  {
    "name": "WRIGHT & COMPANY",
    "description": "Women's Clothing",
    "phone": "(407) 629-2550",
    "address": "234 N Park Ave  Winter Park, FL 32789",
    "location": "Union"
  },
  {
    "name": "The Impeccable Pig",
    "description": "Women's Clothing",
    "phone": "(407) 636-4043",
    "address": "316 N Park Ave  Winter Park, FL 32789",
    "location": "Union"
  },
  {
    "name": "Cottonways Inc",
    "description": "Women's Clothing",
    "phone": "(321) 203-4733",
    "address": "332 N Park Ave  Winter Park, FL 32789",
    "location": "Union"
  },
  {
    "name": "Markdown Mary's",
    "description": "Women's Fashion Accessories",
    "phone": "(407) 647-1122",
    "address": "340 N Park Ave  Winter Park, FL 32789",
    "location": "Union"
  },
  {
    "name": "Kkrows",
    "description": "Sportswear",
    "phone": "(407) 468-8854",
    "address": "269 Aulin Ave  Oviedo, FL 32765",
    "location": "Union"
  },
  {
    "name": "Bella",
    "description": "Women's Clothing",
    "phone": "(407) 644-6522",
    "address": "329 N Park Ave Ste 105  Winter Park, FL 32789",
    "location": "Union"
  },
  {
    "name": "Nice Shot Tennis & Golf",
    "description": "Tennis Equipment & Supplies",
    "phone": "(407) 678-4015",
    "address": "1015 State Road 436  Casselberry, FL 32707",
    "location": "Union"
  },
  {
    "name": "Cotton Ways",
    "description": "Boutique Items",
    "phone": "(407) 977-2888",
    "address": "200 S Central Ave  Oviedo, FL 32765",
    "location": "Union"
  },
  {
    "name": "Rei",
    "description": "Sporting Goods",
    "phone": "(407) 647-0731",
    "address": "430 Orlando Ave  Winter Park, FL 32789",
    "location": "Union"
  },
  {
    "name": "BeautiFull Bridal",
    "description": "Bridal Shops",
    "phone": "(407) 637-5506",
    "address": "909 State Road 436  Casselberry, FL 32707",
    "location": "Union"
  },
  {
    "name": "EDGE Sportswear",
    "description": "Uniforms",
    "phone": "(407) 599-3936",
    "address": "1298 Minnesota Ave  Winter Park, FL 32789",
    "location": "Union"
  },
  {
    "name": "Walk On Water",
    "description": "Women's Fashion Accessories",
    "phone": "(407) 539-1049",
    "address": "460 N Orlando Ave Ste 106  Winter Park, FL 32789",
    "location": "Union"
  },
  {
    "name": "Calvet Couture Bridal",
    "description": "Wedding Supplies & Services",
    "phone": "(407) 622-1393",
    "address": "460 N Orlando Ave Ste 100  Winter Park, FL 32789",
    "location": "Union"
  },
  {
    "name": "Ginger",
    "description": "Women's Clothing",
    "phone": "(407) 599-0014",
    "address": "460 N Orlando Ave Ste 108  Winter Park, FL 32789",
    "location": "Union"
  },
  {
    "name": "J. Jill",
    "description": "Women's Clothing",
    "phone": "(407) 629-0151",
    "address": "480 N Orlando Ave  Winter Park, FL 32789",
    "location": "Union"
  },
  {
    "name": "Versona",
    "description": "Women's Clothing",
    "phone": "(407) 622-0270",
    "address": "606 N Orlando Ave  Winter Park, FL 32789",
    "location": "Union"
  },
  {
    "name": "Sales Team USA Incorporated.Com",
    "description": "Department Stores",
    "phone": "(407) 365-7299",
    "address": "902 Lingo Ct  Oviedo, FL 32765",
    "location": "Union"
  },
  {
    "name": "Fleet Feet",
    "description": "Shoe Stores",
    "phone": "(407) 960-4519",
    "address": "120 Independence Ln  Maitland, FL 32751",
    "location": "Union"
  },
  {
    "name": "E-tennis",
    "description": "Tennis Equipment & Supplies",
    "phone": "(407) 673-9200",
    "address": "2145 W Fairbanks Ave  Winter Park, FL 32789",
    "location": "Union"
  },
  {
    "name": "Florida Specialty Products",
    "description": "General Merchandise",
    "phone": "(321) 765-4975",
    "address": "1636 Smithfield Way  Oviedo, FL 32765",
    "location": "Union"
  },
  {
    "name": "Farst Ronald L & Co",
    "description": "Women's Clothing",
    "phone": "(407) 647-3027",
    "address": "2281 Lee Rd  Winter Park, FL 32789",
    "location": "Union"
  },
  {
    "name": "Beachcombers",
    "description": "Women's Clothing",
    "phone": "(407) 236-7878",
    "address": "2525 Edgewater Dr  Orlando, FL 32804",
    "location": "Union"
  },
  {
    "name": "Modern Grace Boutique",
    "description": "Women's Clothing",
    "phone": "(407) 648-1777",
    "address": "2810 Edgewater Dr  Orlando, FL 32804",
    "location": "Union"
  },
  {
    "name": "Fleet Feet Sports",
    "description": "Shoe Stores",
    "phone": "(407) 930-6056",
    "address": "25 W Crystal Lake St  Orlando, FL 32806",
    "location": "Union"
  },
  {
    "name": "West Marine",
    "description": "Boat Equipment & Supplies",
    "phone": "(407) 644-8557",
    "address": "670 Lee Rd  Orlando, FL 32810",
    "location": "Union"
  },
  {
    "name": "Our Bargain Store",
    "description": "Department Stores",
    "phone": "(407) 422-4855",
    "address": "911 W Central Blvd  Orlando, FL 32805",
    "location": "Union"
  },
  {
    "name": "Lavina Marketplace",
    "description": "Department Stores",
    "phone": "(407) 658-6734",
    "address": "9161 Narcoossee Rd  Orlando, FL 32827",
    "location": "Union"
  },
  {
    "name": "FetishShoetique",
    "description": "Shoe Stores",
    "phone": "(407) 413-9578",
    "address": "4893 S Orange Ave  Orlando, FL 32806",
    "location": "Union"
  },
  {
    "name": "Gucci",
    "description": "Women's Clothing",
    "phone": "(407) 851-9236",
    "address": "801 S Orange Blossom Trl  Orlando, FL 32805",
    "location": "Union"
  },
  {
    "name": "Parties Are US",
    "description": "Discount Stores",
    "phone": "(407) 601-7732",
    "address": "5151 S Orange Ave  Orlando, FL 32809",
    "location": "Union"
  },
  {
    "name": "Hair For Less",
    "description": "Women's Clothing",
    "phone": "(407) 540-1484",
    "address": "2155 W Colonial Dr  Orlando, FL 32804",
    "location": "Union"
  },
  {
    "name": "Kim DO",
    "description": "Women's Clothing",
    "phone": "(407) 244-3500",
    "address": "2155 W Colonial Dr  Orlando, FL 32804",
    "location": "Union"
  },
  {
    "name": "Houze of Herron",
    "description": "Women's Clothing",
    "phone": "(844) 435-2868",
    "address": "2155 W Colonial Dr  Orlando, FL 32804",
    "location": "Union"
  },
  {
    "name": "Mango",
    "description": "Women's Clothing",
    "phone": "(321) 352-7248",
    "address": "1 Jeff Fuqua Blvd  Orlando, FL 32827",
    "location": "Union"
  },
  {
    "name": "Kouture Konnections",
    "description": "Women's Clothing",
    "phone": "(407) 203-8968",
    "address": "651 N John Young Pkwy  Orlando, FL 32805",
    "location": "Union"
  },
  {
    "name": "Kate Paris",
    "description": "Women's Clothing",
    "phone": "(407) 230-7807",
    "address": "1900 Summit Tower Blvd  Orlando, FL 32810",
    "location": "Union"
  },
  {
    "name": "SKECHERS Retail",
    "description": "Shoe Stores",
    "phone": "(407) 825-3208",
    "address": "9403 Jeff Fuqua Blvd # 8066  Orlando, FL 32827",
    "location": "Union"
  },
  {
    "name": "Johnston & Murphy",
    "description": "Shoe Stores",
    "phone": "(407) 825-7111",
    "address": "9403 Jeff Fuqua Blvd  Orlando, FL 32827",
    "location": "Union"
  },
  {
    "name": "DTLR",
    "description": "Shoe Stores",
    "phone": "(407) 859-3146",
    "address": "4614 S Orange Blossom Trl  Orlando, FL 32839",
    "location": "Union"
  },
  {
    "name": "Dollar Plus USA Inc",
    "description": "Variety Stores",
    "phone": "(407) 857-2676",
    "address": "4628 S Orange Blossom Trl  Orlando, FL 32839",
    "location": "Union"
  },
  {
    "name": "I Dollar Store",
    "description": "Variety Stores",
    "phone": "(407) 388-1239",
    "address": "1750 Sunshadow Dr  Casselberry, FL 32707",
    "location": "Union"
  },
  {
    "name": "Patricia Sullivan",
    "description": "Women's Fashion Accessories",
    "phone": "(407) 219-1189",
    "address": "200 S West St  Maitland, FL 32751",
    "location": "Union"
  },
  {
    "name": "Elegant Etchings",
    "description": "Women's Clothing",
    "phone": "(407) 767-6559",
    "address": "290 Bay St  Casselberry, FL 32707",
    "location": "Union"
  },
  {
    "name": "Eclipse Inc",
    "description": "Women's Clothing",
    "phone": "(407) 628-3338",
    "address": "2699 Lee Rd  Winter Park, FL 32789",
    "location": "Union"
  },
  {
    "name": "Prairie Lake Plaza",
    "description": "Department Stores",
    "phone": "(407) 332-8947",
    "address": "1140 E Altamonte Dr Ste 1016  Altamonte Springs, FL 32701",
    "location": "Union"
  },
  {
    "name": "Blue Giraffe Boutique",
    "description": "Women's Clothing",
    "phone": "(407) 421-0358",
    "address": "3007 Nela Ave  Belle Isle, FL 32809",
    "location": "Union"
  },
  {
    "name": "Dollar Days",
    "description": "Department Stores",
    "phone": "(407) 767-7700",
    "address": "188 S Us Highway 17 92  Longwood, FL 32750",
    "location": "Union"
  },
  {
    "name": "Charming Beauty Express",
    "description": "Women's Fashion Accessories",
    "phone": "(407) 865-7565",
    "address": "895 Wymore Rd  Altamonte Springs, FL 32714",
    "location": "Union"
  },
  {
    "name": "Peru Unlimited",
    "description": "Men's Clothing Wholesalers & Manufacturers",
    "phone": "(407) 831-2788",
    "address": "1335 Bennett Dr Unit 113  Longwood, FL 32750",
    "location": "Union"
  },
  {
    "name": "Macy's Backstage",
    "description": "Men's Clothing",
    "phone": "(407) 830-2300",
    "address": "451 E Altamonte Dr  Altamonte Springs, FL 32701",
    "location": "Union"
  },
  {
    "name": "Vans",
    "description": "Shoe Stores",
    "phone": "(321) 207-3254",
    "address": "451 E Altamonte Dr Ste 1369  Altamonte Springs, FL 32701",
    "location": "Union"
  },
  {
    "name": "Cache Inc",
    "description": "Women's Clothing",
    "phone": "(407) 830-0881",
    "address": "451 E Altamonte Dr  Altamonte Springs, FL 32701",
    "location": "Union"
  },
  {
    "name": "Elite",
    "description": "Men's Clothing",
    "phone": "(407) 834-0584",
    "address": "451 E Altamonte Dr  Altamonte Springs, FL 32701",
    "location": "Union"
  },
  {
    "name": "Garcia Leon Enterprises",
    "description": "Women's Clothing",
    "phone": "(407) 834-0296",
    "address": "451 E Altamonte Dr  Altamonte Springs, FL 32701",
    "location": "Union"
  },
  {
    "name": "Michael Kors",
    "description": "Women's Clothing",
    "phone": "(407) 551-4000",
    "address": "451 E Altamonte Dr Ste 2157  Altamonte Springs, FL 32701",
    "location": "Union"
  },
  {
    "name": "Pro Image",
    "description": "Sportswear",
    "phone": "(407) 755-2004",
    "address": "451 E Altamonte Dr  Altamonte Springs, FL 32701",
    "location": "Union"
  },
  {
    "name": "Volcom",
    "description": "Sportswear",
    "phone": "(689) 227-7845",
    "address": "451 E Altamonte Dr  Altamonte Springs, FL 32701",
    "location": "Union"
  },
  {
    "name": "Ballball",
    "description": "Sportswear",
    "phone": "(407) 960-6654",
    "address": "303 E Altamonte Dr  Altamonte Springs, FL 32701",
    "location": "Union"
  },
  {
    "name": "Mary's Alteration in Orlando",
    "description": "Bridal Shops",
    "phone": "(407) 535-2855",
    "address": "1915 Bobtail Dr  Maitland, FL 32751",
    "location": "Union"
  },
  {
    "name": "bebe",
    "description": "Women's Clothing",
    "phone": "(321) 263-0149",
    "address": "451 E Altamonte Dr Ste 2437  Altamonte Springs, FL 32701",
    "location": "Union"
  },
  {
    "name": "Avant-Guard II Dress & Lingerie Boutique",
    "description": "Lingerie",
    "phone": "(407) 843-1233",
    "address": "3985 S Orange Blossom Trl  Orlando, FL 32839",
    "location": "Union"
  },
  {
    "name": "Closet Factory",
    "description": "Closets & Accessories",
    "phone": "(407) 767-7111",
    "address": "1620 Timocuan Way Ste 124  Longwood, FL 32750",
    "location": "Union"
  },
  {
    "name": "My French Wardrobe",
    "description": "Lingerie",
    "phone": "(407) 580-1548",
    "address": "6220 S Orange Blossom Trl  Orlando, FL 32809",
    "location": "Union"
  },
  {
    "name": "Clotheshorse Too",
    "description": "Consignment Service",
    "phone": "(407) 333-0808",
    "address": "3895 Lake Emma Rd Ste 125  Lake Mary, FL 32746",
    "location": "Union"
  },
  {
    "name": "Anthropologie",
    "description": "Women's Clothing",
    "phone": "(407) 345-9153",
    "address": "4200 Conroy Rd  Orlando, FL 32839",
    "location": "Union"
  },
  {
    "name": "Premier Couples Superstore",
    "description": "Women's Clothing",
    "phone": "(407) 857-2050",
    "address": "5009 S Orange Blossom Trl  Orlando, FL 32839",
    "location": "Union"
  },
  {
    "name": "AA Fashions",
    "description": "Men's Clothing",
    "phone": "(407) 253-6004",
    "address": "2711 N Pine Hills Rd Ste 3  Orlando, FL 32808",
    "location": "Union"
  },
  {
    "name": "Pretty Women Consignment",
    "description": "Women's Clothing",
    "phone": "(407) 447-1023",
    "address": "6616 Old Winter Garden Rd  Orlando, FL 32835",
    "location": "Union"
  },
  {
    "name": "Tennis Plaza (Orlando)",
    "description": "Tennis Equipment & Supplies",
    "phone": "(407) 288-8088",
    "address": "5540 International Dr  Orlando, FL 32819",
    "location": "Union"
  },
  {
    "name": "Bloomingdale's",
    "description": "Department Stores",
    "phone": "(407) 264-2400",
    "address": "4152 Conroy Rd  Orlando, FL 32839",
    "location": "Union"
  },
  {
    "name": "Dollar Store",
    "description": "Variety Stores",
    "phone": "(407) 969-0358",
    "address": "4716 S Orange Blossom Trl  Orlando, FL 32839",
    "location": "Union"
  },
  {
    "name": "Gems Resale Store",
    "description": "Thrift Shops",
    "phone": "(407) 730-6274",
    "address": "563 Ferguson Dr  Orlando, FL 32805",
    "location": "Union"
  },
  {
    "name": "Jay Jacobs",
    "description": "Women's Clothing",
    "phone": "(407) 857-5518",
    "address": "8001 S Orange Ave  Orlando, FL 32809",
    "location": "Union"
  },
  {
    "name": "BCBGMAXAZRIA",
    "description": "Women's Clothing",
    "phone": "(407) 857-0358",
    "address": "8001 S Orange Ave  Orlando, FL 32809",
    "location": "Union"
  },
  {
    "name": "Merry-Go-Round",
    "description": "Women's Clothing",
    "phone": "(407) 859-6864",
    "address": "8001 S Orange Ave  Orlando, FL 32809",
    "location": "Union"
  },
  {
    "name": "Jcpennev Co Inc",
    "description": "Department Stores",
    "phone": "(407) 851-5200",
    "address": "8001 S Orange Ave  Orlando, FL 32809",
    "location": "Union"
  },
  {
    "name": "Have Faith Hair And Nails",
    "description": "Beauty Salons",
    "phone": "(407) 522-5535",
    "address": "927 S Goldwyn Ave  Orlando, FL 32805",
    "location": "Union"
  },
  {
    "name": "Runway Styles",
    "description": "Women's Clothing",
    "phone": "(407) 730-3426",
    "address": "927 S Goldwyn Ave  Orlando, FL 32805",
    "location": "Union"
  },
  {
    "name": "Edge Apparel",
    "description": "Caps",
    "phone": "(407) 286-1174",
    "address": "Po Box 616150  Orlando, FL 32861",
    "location": "Union"
  },
  {
    "name": "Destiny C Fashions",
    "description": "Men's Clothing",
    "phone": "(866) 721-4815",
    "address": "Po Box 2685  Orlando, FL 32802",
    "location": "Union"
  },
  {
    "name": "All American Al Uminum",
    "description": "Aluminum Products",
    "phone": "(407) 516-5454",
    "address": "3740 All American Blvd  Orlando, FL 32810",
    "location": "Union"
  },
  {
    "name": "Bhnis Bhn DP",
    "description": "Sportswear",
    "phone": "(407) 286-7959",
    "address": "3767 All American Blvd  Orlando, FL 32810",
    "location": "Union"
  },
  {
    "name": "Bhn DP Arthur T Lattimore",
    "description": "Sportswear",
    "phone": "(407) 704-3807",
    "address": "3767 All American Blvd  Orlando, FL 32810",
    "location": "Union"
  },
  {
    "name": "Gees Spot",
    "description": "Women's Clothing",
    "phone": "(407) 286-0590",
    "address": "3941 Columbia St  Orlando, FL 32805",
    "location": "Union"
  },
  {
    "name": "Annettes Discounts",
    "description": "Discount Stores",
    "phone": "(407) 438-6711",
    "address": "5850 S Orange Blossom Trl  Orlando, FL 32839",
    "location": "Union"
  },
  {
    "name": "Millennium Team Sports",
    "description": "T-Shirts",
    "phone": "(407) 362-7945",
    "address": "9187 Boggy Creek Rd  Orlando, FL 32824",
    "location": "Union"
  },
  {
    "name": "Simply Fashion",
    "description": "Women's Clothing",
    "phone": "(407) 854-8336",
    "address": "2141 Americana Blvd  Orlando, FL 32839",
    "location": "Union"
  },
  {
    "name": "Burgundy boutique",
    "description": "Hat Shops",
    "phone": "(862) 324-2005",
    "address": "Online  Orlando, FL 32810",
    "location": "Union"
  },
  {
    "name": "Doll House Boutique",
    "description": "Women's Clothing",
    "phone": "(407) 421-1797",
    "address": "5744 N Orange Blossom Trail  Orlando, FL 32810",
    "location": "Union"
  },
  {
    "name": "Prerana Beauty & Boutique",
    "description": "Boutique Items",
    "phone": "(321) 217-2220",
    "address": "1179 Doss Ave  Orlando, FL 32809",
    "location": "Union"
  },
  {
    "name": "Allen Brothers Department Store",
    "description": "Department Stores",
    "phone": "(407) 251-2830",
    "address": "6021 S Rio Grande Ave  Orlando, FL 32809",
    "location": "Union"
  },
  {
    "name": "Dollar Mart",
    "description": "Variety Stores",
    "phone": "(407) 240-0797",
    "address": "5233 S John Young Pkwy  Orlando, FL 32839",
    "location": "Union"
  },
  {
    "name": "Perfect Shot Pro Shop",
    "description": "Bowling Equipment & Accessories",
    "phone": "(407) 251-0770",
    "address": "7401 S Orange Blossom Trl  Orlando, FL 32809",
    "location": "Union"
  },
  {
    "name": "Teri Lyn Design",
    "description": "Women's Clothing",
    "phone": "(407) 295-3541",
    "address": "4553 Malik Cres  Orlando, FL 32810",
    "location": "Union"
  },
  {
    "name": "Sweetheartz USA Inc",
    "description": "Resale Shops",
    "phone": "(407) 888-9112",
    "address": "7478 S Orange Blossom Trl  Orlando, FL 32809",
    "location": "Union"
  },
  {
    "name": "Rock Em Apparel",
    "description": "Sportswear",
    "phone": "(407) 730-7931",
    "address": "3718 Vineland Rd  Orlando, FL 32811",
    "location": "Union"
  },
  {
    "name": "Rainbow Apparel Company",
    "description": "Women's Clothing",
    "phone": "(407) 852-1497",
    "address": "7633 S Orange Blossom Trl  Orlando, FL 32809",
    "location": "Union"
  },
  {
    "name": "Dollar 99",
    "description": "Department Stores",
    "phone": "(407) 826-5268",
    "address": "7657 S Orange Blossom Trl  Orlando, FL 32809",
    "location": "Union"
  },
  {
    "name": "pOpshelf",
    "description": "Variety Stores",
    "phone": "(689) 257-4135",
    "address": "4620 Millenia Plaza Way  Orlando, FL 32839",
    "location": "Union"
  },
  {
    "name": "Em Apparel Rock",
    "description": "Sportswear",
    "phone": "(407) 730-7931",
    "address": "4490 SW 34th St  Orlando, FL 32811",
    "location": "Union"
  },
  {
    "name": "Fashion Full Figure",
    "description": "Boutique Items",
    "phone": "(407) 521-7473",
    "address": "400 N Pine Hills Rd Ste A  Orlando, FL 32811",
    "location": "Union"
  },
  {
    "name": "Kate Spade - Closed",
    "description": "Women's Clothing",
    "phone": "(407) 363-4805",
    "address": "4200 Conroy Rd Spc B172  Orlando, FL 32839",
    "location": "Union"
  },
  {
    "name": "Aerie",
    "description": "Women's Clothing",
    "phone": "(407) 563-1811",
    "address": "4200 Conroy Rd Ste L  Orlando, FL 32839",
    "location": "Union"
  },
  {
    "name": "Hermes",
    "description": "Department Stores",
    "phone": "(407) 248-8548",
    "address": "4200 Conroy Rd  Orlando, FL 32839",
    "location": "Union"
  },
  {
    "name": "Marciano",
    "description": "Women's Clothing",
    "phone": "(407) 226-0213",
    "address": "4200 Conroy Rd  Orlando, FL 32839",
    "location": "Union"
  },
  {
    "name": "Juicy Couture",
    "description": "Women's Clothing",
    "phone": "(407) 354-0228",
    "address": "4200 Conroy Rd  Orlando, FL 32839",
    "location": "Union"
  },
  {
    "name": "Allen Edmonds",
    "description": "Shoe Stores",
    "phone": "(407) 845-6379",
    "address": "4200 Conroy Rd Ste 299  Orlando, FL 32839",
    "location": "Union"
  },
  {
    "name": "Saks Fifth Avenue",
    "description": "Department Stores",
    "phone": "(407) 355-3165",
    "address": "4200 Conroy Rd  Orlando, FL 32839",
    "location": "Union"
  },
  {
    "name": "Max Studio",
    "description": "Women's Clothing",
    "phone": "(321) 281-1464",
    "address": "4200 Conroy Rd  Orlando, FL 32839",
    "location": "Union"
  },
  {
    "name": "Dieguez, Iris",
    "description": "General Merchandise",
    "phone": "(321) 247-5900",
    "address": "4200 Conroy Rd  Orlando, FL 32839",
    "location": "Union"
  },
  {
    "name": "Fabletics",
    "description": "Sportswear",
    "phone": "(321) 209-6932",
    "address": "4200 Conroy Rd  Orlando, FL 32839",
    "location": "Union"
  },
  {
    "name": "Gucci America",
    "description": "Women's Clothing",
    "phone": "(407) 903-1056",
    "address": "4200 Conroy Rd  Orlando, FL 32839",
    "location": "Union"
  },
  {
    "name": "Neiman Marcus",
    "description": "Department Stores",
    "phone": "(800) 590-7046",
    "address": "4170 Conroy Rd  Orlando, FL 32839",
    "location": "Union"
  },
  {
    "name": "Ermenegildo Zegna at Neiman Marcus",
    "description": "Men's Clothing",
    "phone": "(407) 264-5900",
    "address": "4170 Conroy Rd  Orlando, FL 32839",
    "location": "Union"
  },
  {
    "name": "Lady Foot Locker",
    "description": "Shoe Stores",
    "phone": "(407) 858-2532",
    "address": "8001 S Orange Blossom Trl Ste 1202A  Orlando, FL 32809",
    "location": "Union"
  },
  {
    "name": "Ps Imports Fl Inc Dba Beya",
    "description": "Women's Clothing",
    "phone": "(407) 438-5900",
    "address": "8001 S Orange Blossom Trl  Orlando, FL 32809",
    "location": "Union"
  },
  {
    "name": "Cooper and Brass",
    "description": "Aluminum Products",
    "phone": "(407) 826-4217",
    "address": "2487 Tradeport Dr Ste 100  Orlando, FL 32824",
    "location": "Union"
  },
  {
    "name": "B and M 99 Cent and Up",
    "description": "Discount Stores",
    "phone": "(407) 776-4001",
    "address": "4527 N Pine Hills Rd  Orlando, FL 32808",
    "location": "Union"
  },
  {
    "name": "The Friendly Dollar",
    "description": "Women's Clothing",
    "phone": "(407) 917-3056",
    "address": "8421 S Orange Blossom Trl Ste 250  Orlando, FL 32809",
    "location": "Union"
  },
  {
    "name": "Shoe Land",
    "description": "Shoe Stores",
    "phone": "(407) 251-1717",
    "address": "8506 S Orange Blossom Trl  Orlando, FL 32809",
    "location": "Union"
  },
  {
    "name": "Myasia Kouture & Salon Inc",
    "description": "Beauty Salons",
    "phone": "(407) 299-8099",
    "address": "485 S Kirkman Rd  Orlando, FL 32811",
    "location": "Union"
  },
  {
    "name": "Luxury Kouture Boutique",
    "description": "Women's Clothing",
    "phone": "(888) 447-2532",
    "address": "4700 Millenia Blvd Ste 175  Orlando, FL 32839",
    "location": "Union"
  },
  {
    "name": "Cato Fashions",
    "description": "Women's Clothing",
    "phone": "(407) 445-2437",
    "address": "2266 S Kirkman Rd  Orlando, FL 32811",
    "location": "Union"
  },
  {
    "name": "Avon Representative",
    "description": "Girls Clothing",
    "phone": "(786) 223-5770",
    "address": "3024 N Powers Dr Apt 254  Orlando, FL 32818",
    "location": "Union"
  },
  {
    "name": "Vision 4 Your Waist",
    "description": "Women's Clothing",
    "phone": "(800) 404-5731",
    "address": "885 N Powers Dr  Orlando, FL 32818",
    "location": "Union"
  },
  {
    "name": "Home Shopping Club Outlet",
    "description": "Department Stores",
    "phone": "(407) 440-2225",
    "address": "6389 W Colonial Dr  Orlando, FL 32818",
    "location": "Union"
  },
  {
    "name": "Super Deal Dollar Store",
    "description": "Variety Stores",
    "phone": "(407) 295-6180",
    "address": "2725 N Hiawassee Rd  Orlando, FL 32818",
    "location": "Union"
  },
  {
    "name": "Iveline International Dress Store",
    "description": "Women's Clothing",
    "phone": "(407) 203-6872",
    "address": "2741 N Hiawassee Rd  Orlando, FL 32818",
    "location": "Union"
  },
  {
    "name": "Save Discount",
    "description": "Discount Stores",
    "phone": "(407) 290-5002",
    "address": "2793 N Hiawassee Rd  Orlando, FL 32818",
    "location": "Union"
  },
  {
    "name": "Dollar City",
    "description": "Discount Stores",
    "phone": "(407) 578-6576",
    "address": "2700 N Hiawassee Rd  Orlando, FL 32818",
    "location": "Union"
  },
  {
    "name": "Jerabet Sales",
    "description": "Women's Clothing",
    "phone": "(203) 489-5277",
    "address": "3200 N Hiawassee Rd  Orlando, FL 32818",
    "location": "Union"
  },
  {
    "name": "Reebok",
    "description": "Shoe Stores",
    "phone": "(407) 351-9335",
    "address": "4950 International Dr  Orlando, FL 32819",
    "location": "Union"
  },
  {
    "name": "Adidas AG",
    "description": "Sportswear",
    "phone": "(407) 351-5750",
    "address": "4950 International Dr  Orlando, FL 32819",
    "location": "Union"
  },
  {
    "name": "Ecko Unlimited",
    "description": "Men's Clothing",
    "phone": "(407) 354-4407",
    "address": "4949 International Dr  Orlando, FL 32819",
    "location": "Union"
  },
  {
    "name": "Steps New York",
    "description": "Department Stores",
    "phone": "(407) 888-9141",
    "address": "4949 International Dr  Orlando, FL 32819",
    "location": "Union"
  },
  {
    "name": "Sportswear Retail",
    "description": "Sportswear",
    "phone": "(407) 240-0610",
    "address": "8001 S Orange Blossom Trl Ste 904  Orlando, FL 32809",
    "location": "Union"
  },
  {
    "name": "Burlington Stores",
    "description": "Department Stores",
    "phone": "(407) 857-0980",
    "address": "8204 S Orange Blossom Trl  Orlando, FL 32809",
    "location": "Union"
  },
  {
    "name": "Multibuy Store",
    "description": "General Merchandise",
    "phone": "(407) 757-0421",
    "address": "1507 S Hiawassee Rd  Orlando, FL 32835",
    "location": "Union"
  },
  {
    "name": "Love Culture",
    "description": "Women's Clothing",
    "phone": "(407) 345-0651",
    "address": "4951 International Dr  Orlando, FL 32819",
    "location": "Union"
  },
  {
    "name": "Lane Bryant Outlet - Closed",
    "description": "Shoe Stores",
    "phone": "(321) 354-2076",
    "address": "4953 International Dr  Orlando, FL 32819",
    "location": "Union"
  },
  {
    "name": "Time Factory Watch Outlet",
    "description": "Outlet Malls",
    "phone": "(407) 248-8215",
    "address": "4953 International Dr  Orlando, FL 32819",
    "location": "Union"
  },
  {
    "name": "Kate Spade",
    "description": "Women's Clothing",
    "phone": "(407) 351-6912",
    "address": "4953 International Dr  Orlando, FL 32819",
    "location": "Union"
  },
  {
    "name": "Kate Spade Outlet",
    "description": "Women's Clothing",
    "phone": "(407) 226-9717",
    "address": "4959 International Dr Ste 1F  Orlando, FL 32819",
    "location": "Union"
  },
  {
    "name": "Victoria's Secret Outlet",
    "description": "Lingerie",
    "phone": "(407) 355-9890",
    "address": "4959 International Dr  Orlando, FL 32819",
    "location": "Union"
  },
  {
    "name": "Juicy Outlet",
    "description": "Outlet Malls",
    "phone": "(407) 355-7225",
    "address": "4959 International Dr  Orlando, FL 32819",
    "location": "Union"
  },
  {
    "name": "Dockers Store",
    "description": "Department Stores",
    "phone": "(407) 351-0917",
    "address": "4967 International Dr  Orlando, FL 32819",
    "location": "Union"
  },
  {
    "name": "SKECHERS Factory Outlet",
    "description": "Shoe Stores",
    "phone": "(407) 370-2945",
    "address": "4967 International Dr  Orlando, FL 32819",
    "location": "Union"
  },
  {
    "name": "Adidas Outlet Store",
    "description": "Outlet Stores",
    "phone": "(407) 903-7240",
    "address": "4973 International Dr  Orlando, FL 32819",
    "location": "Union"
  },
  {
    "name": "Reebok Outlet",
    "description": "Men's Clothing Wholesalers & Manufacturers",
    "phone": "(407) 370-4449",
    "address": "4976 International Dr  Orlando, FL 32819",
    "location": "Union"
  },
  {
    "name": "Reebok Factory Direct Store",
    "description": "Shoe Stores",
    "phone": "(407) 363-5334",
    "address": "4976 International Dr  Orlando, FL 32819",
    "location": "Union"
  },
  {
    "name": "ASICS Outlet",
    "description": "Shoe Stores",
    "phone": "(407) 248-8227",
    "address": "4975 International Dr  Orlando, FL 32819",
    "location": "Union"
  },
  {
    "name": "The PUMA Store",
    "description": "Shoe Stores",
    "phone": "(407) 351-9721",
    "address": "4977 International Dr  Orlando, FL 32819",
    "location": "Union"
  },
  {
    "name": "Titania Golf",
    "description": "Women's Clothing",
    "phone": "(407) 903-9701",
    "address": "8810 Commodity Cir Ste 14  Orlando, FL 32819",
    "location": "Union"
  },
  {
    "name": "Player Athletics Office",
    "description": "Sportswear",
    "phone": "(407) 866-1168",
    "address": "8810 Commodity Cir  Orlando, FL 32819",
    "location": "Union"
  },
  {
    "name": "Apricot Lane Boutique",
    "description": "Boutique Items",
    "phone": "(407) 286-4835",
    "address": "13887 Narcoossee Rd  Orlando, FL 32832",
    "location": "Union"
  },
  {
    "name": "Masquerade Express",
    "description": "Costumes",
    "phone": "(888) 869-8332",
    "address": "5401 S Kirkman Rd Ste 301  Orlando, FL 32819",
    "location": "Union"
  },
  {
    "name": "Grand's",
    "description": "Department Stores",
    "phone": "(407) 286-1567",
    "address": "7175 W Colonial Dr  Orlando, FL 32818",
    "location": "Union"
  },
  {
    "name": "Nine West Outlet",
    "description": "Shoe Stores",
    "phone": "(407) 363-7703",
    "address": "5211 International Dr  Orlando, FL 32819",
    "location": "Union"
  },
  {
    "name": "Group USA",
    "description": "Women's Clothing",
    "phone": "(407) 355-7719",
    "address": "5223 International Dr  Orlando, FL 32819",
    "location": "Union"
  },
  {
    "name": "Lucky Me Stores",
    "description": "Women's Clothing",
    "phone": "(407) 250-5474",
    "address": "5295 International Dr  Orlando, FL 32819",
    "location": "Union"
  },
  {
    "name": "JK Fenix Sports",
    "description": "Sportswear",
    "phone": "(321) 877-8427",
    "address": "2620 N Hiawassee Rd Local A5  Orlando, FL 32818",
    "location": "Union"
  },
  {
    "name": "Special Tee Golf & Tennis",
    "description": "Golf Equipment & Supplies",
    "phone": "(407) 352-3673",
    "address": "5400 International Dr  Orlando, FL 32819",
    "location": "Union"
  },
  {
    "name": "Dxl Destination Xl Outlet",
    "description": "Men's Clothing",
    "phone": "(407) 363-5570",
    "address": "5443 International Dr  Orlando, FL 32819",
    "location": "Union"
  },
  {
    "name": "Westgate Shellworld",
    "description": "Department Stores",
    "phone": "(407) 447-5040",
    "address": "7012 Municipal Dr  Orlando, FL 32819",
    "location": "Union"
  },
  {
    "name": "Herstory Boutique",
    "description": "Boutique Items",
    "phone": "(407) 291-7101",
    "address": "7649 W Colonial Dr  Orlando, FL 32818",
    "location": "Union"
  },
  {
    "name": "Brands For You",
    "description": "Department Stores",
    "phone": "(407) 351-1027",
    "address": "5627 International Dr  Orlando, FL 32819",
    "location": "Union"
  },
  {
    "name": "Cuffllinks Depot",
    "description": "Department Stores",
    "phone": "(407) 253-7075",
    "address": "6996 Piazza Grande Ave  Orlando, FL 32835",
    "location": "Union"
  },
  {
    "name": "Orlando Dollar",
    "description": "Department Stores",
    "phone": "(407) 850-2288",
    "address": "11312 S Orange Blossom Trl  Orlando, FL 32837",
    "location": "Union"
  },
  {
    "name": "Naked Turtle Sunscreen & Apparel",
    "description": "Women's Clothing",
    "phone": "(407) 299-7333",
    "address": "7652 Ashley Park Ct Ste 305  Orlando, FL 32835",
    "location": "Union"
  },
  {
    "name": "Mr barberspa",
    "description": "Day Spas",
    "phone": "(321) 695-0117",
    "address": "5907 Turkey Lake Rd Ste 112  Orlando, FL 32819",
    "location": "Union"
  },
  {
    "name": "Bosswag",
    "description": "Women's Clothing",
    "phone": "(321) 297-1975",
    "address": "13609 Bayview Isle Dr  Orlando, FL 32824",
    "location": "Union"
  },
  {
    "name": "Mimi's Boutique",
    "description": "Swimwear & Accessories",
    "phone": "(407) 393-4023",
    "address": "4040 Central Florida Pkwy  Orlando, FL 32837",
    "location": "Union"
  },
  {
    "name": "Intelaweb",
    "description": "Discount Stores",
    "phone": "(407) 203-6768",
    "address": "2238 Kettle Dr  Orlando, FL 32835",
    "location": "Union"
  },
  {
    "name": "Big Blondes",
    "description": "Department Stores",
    "phone": "(407) 634-0710",
    "address": "7679 International Dr  Orlando, FL 32819",
    "location": "Union"
  },
  {
    "name": "Donato Orlando",
    "description": "Men's Clothing",
    "phone": "(407) 856-7083",
    "address": "12963 S Orange Blossom Trl  Orlando, FL 32837",
    "location": "Union"
  },
  {
    "name": "Golf Galaxy",
    "description": "Exercise & Fitness Equipment",
    "phone": "(407) 248-4990",
    "address": "8055 Turkey Lake Rd  Orlando, FL 32819",
    "location": "Union"
  },
  {
    "name": "Walmart Garden Center",
    "description": "General Merchandise",
    "phone": "(407) 351-2229",
    "address": "8990 Turkey Lake Rd  Orlando, FL 32819",
    "location": "Union"
  },
  {
    "name": "Lelui Jeans",
    "description": "Department Stores",
    "phone": "(407) 477-8617",
    "address": "11237 Purple Plum Ct  Orlando, FL 32821",
    "location": "Union"
  },
  {
    "name": "HomeSense Store #2008 Orlando FL",
    "description": "Department Stores",
    "phone": "(407) 363-0654",
    "address": "7600 Dr Phillips Blvd  Orlando, FL 32819",
    "location": "Union"
  },
  {
    "name": "Stylezzle",
    "description": "Women's Clothing",
    "phone": "(787) 932-2133",
    "address": "7512 Dr Phillips Blvd Ste 50-280  Orlando, FL 32819",
    "location": "Union"
  },
  {
    "name": "Walmart",
    "description": "General Merchandise",
    "phone": "(407) 774-9966",
    "address": "200 S State Road 434  Altamonte Springs, FL 32714",
    "location": "Union"
  },
  {
    "name": "Your Closet Consignment",
    "description": "Men's Clothing",
    "phone": "(407) 774-4004",
    "address": "195 S Westmonte Dr  Altamonte Springs, FL 32714",
    "location": "Union"
  },
  {
    "name": "Rip the Rack PRO Shop",
    "description": "Golf Equipment & Supplies",
    "phone": "(407) 834-4004",
    "address": "607 Savage Ct  Longwood, FL 32750",
    "location": "Union"
  },
  {
    "name": "The Greenleaf Garden",
    "description": "Merchandising Service",
    "phone": "(732) 567-5413",
    "address": "PO Box 150604  Altamonte Springs, FL 32715",
    "location": "Union"
  },
  {
    "name": "Super Hot Bats",
    "description": "Baseball Clubs & Parks",
    "phone": "(747) 900-2287",
    "address": "450 Harbour Isle Way  Longwood, FL 32750",
    "location": "Union"
  },
  {
    "name": "I Woman Corp",
    "description": "Women's Clothing",
    "phone": "(407) 834-7112",
    "address": "1903 W State Road 434  Longwood, FL 32750",
    "location": "Union"
  },
  {
    "name": "Dresses By Heather",
    "description": "Women's Clothing",
    "phone": "(407) 733-7831",
    "address": "1958 Longwood Lake Mary Rd  Longwood, FL 32750",
    "location": "Union"
  },
  {
    "name": "P.S. I love you! Clothing",
    "description": "Fashion Designers",
    "phone": "(407) 702-5284",
    "address": "540 N State Road 434 Ste 134  Altamonte Springs, FL 32714",
    "location": "Union"
  },
  {
    "name": "BonWorth",
    "description": "Women's Clothing",
    "phone": "(407) 682-2164",
    "address": "955 W State Road 436 Ste 1020  Altamonte Springs, FL 32714",
    "location": "Union"
  },
  {
    "name": "Play It Again Sports - Altamonte Springs",
    "description": "Sporting Goods",
    "phone": "(407) 788-8280",
    "address": "950 N State Road 434  Altamonte Springs, FL 32714",
    "location": "Union"
  },
  {
    "name": "Bb2resale",
    "description": "Sportswear",
    "phone": "(321) 972-6688",
    "address": "134 W York Ct  Longwood, FL 32779",
    "location": "Union"
  },
  {
    "name": "National Sportswear Inc",
    "description": "Sportswear",
    "phone": "(407) 880-3686",
    "address": "2172 Platinum Rd  Apopka, FL 32703",
    "location": "Union"
  },
  {
    "name": "Judith Zavatchin",
    "description": "Department Stores",
    "phone": "(407) 884-4738",
    "address": "1279 Erdman Ct  Apopka, FL 32703",
    "location": "Union"
  },
  {
    "name": "Bealls Department Store",
    "description": "Department Stores",
    "phone": "(407) 886-2719",
    "address": "2302 E Semoran Blvd  Apopka, FL 32703",
    "location": "Union"
  },
  {
    "name": "Bealls Florida",
    "description": "Home Furnishings",
    "phone": "(407) 886-2719",
    "address": "2302 E Semoran Blvd  Apopka, FL 32703",
    "location": "Union"
  },
  {
    "name": "Stylesfourless",
    "description": "Women's Clothing",
    "phone": "(407) 464-0527",
    "address": "2195 E Semoran Blvd  Apopka, FL 32703",
    "location": "Union"
  },
  {
    "name": "Zema Boutique",
    "description": "Boutique Items",
    "phone": "(407) 790-4036",
    "address": "208 Lyndhurst Ct  Longwood, FL 32779",
    "location": "Union"
  },
  {
    "name": "Tgb Fashion",
    "description": "Women's Clothing",
    "phone": "(407) 814-3919",
    "address": "2169 E Semoran Blvd  Apopka, FL 32703",
    "location": "Union"
  },
  {
    "name": "lucy",
    "description": "Women's Clothing",
    "phone": "(407) 910-6087",
    "address": "3216 Dew Ct  Kissimmee, FL 34744",
    "location": "Union"
  },
  {
    "name": "Geneva General Store",
    "description": "General Merchandise",
    "phone": "(407) 349-5827",
    "address": "155 W State Road 46  Geneva, FL 32732",
    "location": "Union"
  },
  {
    "name": "Family Dollar Store",
    "description": "Department Stores",
    "phone": "(407) 322-8139",
    "address": "4243 N US Highway 17/92  Sanford, FL 32773",
    "location": "Union"
  },
  {
    "name": "Jerry Phillips Collection",
    "description": "Men's Clothing",
    "phone": "(407) 401-9364",
    "address": "280 Humphrey Rd  Lake Mary, FL 32746",
    "location": "Union"
  },
  {
    "name": "Sophie and Trey",
    "description": "Women's Clothing",
    "phone": "(407) 324-5747",
    "address": "136 N 4th St Ste 1290  Lake Mary, FL 32746",
    "location": "Union"
  },
  {
    "name": "Kyrscorp Inc",
    "description": "Women's Clothing",
    "phone": "(407) 878-5886",
    "address": "136 N 4th St  Lake Mary, FL 32746",
    "location": "Union"
  },
  {
    "name": "Dat Kloset",
    "description": "Women's Clothing",
    "phone": "(407) 280-3060",
    "address": "PO Box 1684  Sanford, FL 32772",
    "location": "Union"
  },
  {
    "name": "Contiuum Inc",
    "description": "Women's Clothing",
    "phone": "(407) 333-8888",
    "address": "1210 S International Pkwy  Lake Mary, FL 32746",
    "location": "Union"
  },
  {
    "name": "House of Tinks",
    "description": "Women's Clothing",
    "phone": "(407) 432-3499",
    "address": "160 International Pkwy Ste 276  Lake Mary, FL 32746",
    "location": "Union"
  },
  {
    "name": "Dresses For Less",
    "description": "Women's Clothing",
    "phone": "(407) 281-8808",
    "address": "7621 S Orange Blossom Trl  Orlando, FL 32809",
    "location": "Union"
  },
  {
    "name": "Scholar-BallerÂ® / AthletesThinkÂ®",
    "description": "Women's Clothing",
    "phone": "(321) 443-0652",
    "address": "PO Box 780322  Orlando, FL 32878",
    "location": "Union"
  },
  {
    "name": "Aire Gypsy Women's Clothing Boutique Orlando Florida",
    "description": "Women's Clothing",
    "phone": "(863) 258-7511",
    "address": "13526 Village Park Dr  Orlando, FL 32837",
    "location": "Union"
  },
  {
    "name": "Gregory Askins",
    "description": "Department Stores",
    "phone": "(321) 300-3332",
    "address": "2869 Falling Tree Cir  Orlando, FL 32837",
    "location": "Union"
  },
  {
    "name": "Bain, Richard N",
    "description": "Department Stores",
    "phone": "(407) 660-4449",
    "address": "8998 Crichton Wood Dr  Orlando, FL 32819",
    "location": "Union"
  },
  {
    "name": "Columbia Sportswear",
    "description": "Sportswear",
    "phone": "(407) 238-0631",
    "address": "8166 Vineland Ave Ste 1765  Orlando, FL 32821",
    "location": "Union"
  },
  {
    "name": "Motherhood Maternity Outlet",
    "description": "Maternity Clothes",
    "phone": "(407) 238-5481",
    "address": "8166 Vineland Ave  Orlando, FL 32821",
    "location": "Union"
  },
  {
    "name": "Maidenform",
    "description": "Lingerie",
    "phone": "(407) 238-2744",
    "address": "8200 Vineland Ave  Orlando, FL 32821",
    "location": "Union"
  },
  {
    "name": "Michael Kors Outlet",
    "description": "Women's Clothing",
    "phone": "(407) 238-9641",
    "address": "8200 Vineland Ave Ste 900  Orlando, FL 32821",
    "location": "Union"
  },
  {
    "name": "Carolina Herrera",
    "description": "Women's Clothing",
    "phone": "(407) 465-5524",
    "address": "8200 Vineland Ave  Orlando, FL 32821",
    "location": "Union"
  },
  {
    "name": "Cucinelli Retail Orl",
    "description": "General Merchandise",
    "phone": "(407) 465-1200",
    "address": "8200 Vineland Ave  Orlando, FL 32821",
    "location": "Union"
  },
  {
    "name": "Smart Department Store",
    "description": "Department Stores",
    "phone": "(407) 239-4100",
    "address": "12236 S Apopka Vineland Rd  Orlando, FL 32836",
    "location": "Union"
  },
  {
    "name": "Soccer Shop US",
    "description": "Sportswear",
    "phone": "(321) 280-6673",
    "address": "8946 Leeland Archer Blvd  Orlando, FL 32836",
    "location": "Union"
  },
  {
    "name": "Tennis Plaza",
    "description": "Tennis Equipment & Supplies",
    "phone": "(407) 778-4864",
    "address": "13401 Blue Heron Beach Dr Ste 101  Orlando, FL 32821",
    "location": "Union"
  },
  {
    "name": "Sarai Lingerie Inc",
    "description": "Lingerie",
    "phone": "(407) 238-4404",
    "address": "15525 State Road 535  Orlando, FL 32821",
    "location": "Union"
  },
  {
    "name": "Athletic Action",
    "description": "Sportswear",
    "phone": "(407) 465-0337",
    "address": "15577 State Road 535  Orlando, FL 32821",
    "location": "Union"
  },
  {
    "name": "Bonworth",
    "description": "Women's Clothing",
    "phone": "(407) 778-1453",
    "address": "15563 State Road 535  Orlando, FL 32821",
    "location": "Union"
  },
  {
    "name": "Nike",
    "description": "Sportswear",
    "phone": "(407) 238-0528",
    "address": "15609 State Road 535  Orlando, FL 32821",
    "location": "Union"
  },
  {
    "name": "Character Outlet",
    "description": "Department Stores",
    "phone": "(407) 239-3690",
    "address": "15629 State Road 535  Orlando, FL 32821",
    "location": "Union"
  },
  {
    "name": "Under Armour",
    "description": "Sportswear",
    "phone": "(407) 238-2025",
    "address": "15657 State Road 535  Orlando, FL 32821",
    "location": "Union"
  },
  {
    "name": "Fashion World Fl",
    "description": "Women's Clothing",
    "phone": "(407) 239-0600",
    "address": "15745 State Road 535  Orlando, FL 32821",
    "location": "Union"
  }
]