[
  {
    "name": "On A Whim",
    "description": "Women's Clothing",
    "phone": "(850) 926-2729",
    "address": "87 Forest Ln  Crawfordville, FL 32327",
    "location": "Wakulla"
  },
  {
    "name": "Hot Tee Shop",
    "description": "Clothing Stores",
    "phone": "(855) 551-4111",
    "address": "186 ashley hall rd  crawfordville, FL 32327",
    "location": "Wakulla"
  },
  {
    "name": "T C's Unique Fashion",
    "description": "Clothing Stores",
    "phone": "(850) 745-6042",
    "address": "1626 Crawfordville Hwy  Crawfordville, FL 32327",
    "location": "Wakulla"
  },
  {
    "name": "Maurices",
    "description": "Clothing Stores",
    "phone": "(850) 926-6175",
    "address": "2000 Crawfordville Hwy Ste B  Crawfordville, FL 32327",
    "location": "Wakulla"
  },
  {
    "name": "Bealls",
    "description": "Clothing Stores",
    "phone": "(850) 926-7924",
    "address": "2646 Crawfordville Hwy  Crawfordville, FL 32327",
    "location": "Wakulla"
  },
  {
    "name": "Bealls Outlet Stores",
    "description": "Clothing Stores",
    "phone": "(850) 926-7924",
    "address": "2646 Crawfordville Hwy  Crawfordville, FL 32327",
    "location": "Wakulla"
  },
  {
    "name": "Walmart Supercenter",
    "description": "General Merchandise",
    "phone": "(850) 926-1560",
    "address": "35 Mike Stewart  Crawfordville, FL 32327",
    "location": "Wakulla"
  },
  {
    "name": "Hibbett Sports",
    "description": "Sporting Goods",
    "phone": "(850) 926-4853",
    "address": "2000 Crawfordville Hwy  Crawfordville, FL 32327",
    "location": "Wakulla"
  },
  {
    "name": "Walmart Grocery Pickup",
    "description": "Department Stores",
    "phone": "(850) 694-1026",
    "address": "35 Mike Stewart  Crawfordville, FL 32327",
    "location": "Wakulla"
  },
  {
    "name": "Iris Anne's",
    "description": "Women's Clothing",
    "phone": "(850) 926-6241",
    "address": "1616 Crawfordville Hwy Ste B  Crawfordville, FL 32327",
    "location": "Wakulla"
  },
  {
    "name": "Pazaaz",
    "description": "Clothing Stores",
    "phone": "(850) 210-3281",
    "address": "5353 Capital Cir SW  Tallahassee, FL 32305",
    "location": "Wakulla"
  },
  {
    "name": "Anai Clothing Co",
    "description": "Clothing Stores",
    "phone": "(850) 402-1753",
    "address": "5032 Capital Cir SW  Tallahassee, FL 32305",
    "location": "Wakulla"
  },
  {
    "name": "Momma Jay Evening Gowns Inc",
    "description": "Women's Clothing",
    "phone": "(850) 895-1529",
    "address": "Online Store  Tallahassee, FL 32305",
    "location": "Wakulla"
  },
  {
    "name": "Mels Boutique & Variety",
    "description": "Department Stores",
    "phone": "(850) 241-4204",
    "address": "PO Box 309  Woodville, FL 32362",
    "location": "Wakulla"
  },
  {
    "name": "Sun Shack",
    "description": "Discount Stores",
    "phone": "(850) 421-8048",
    "address": "8790 Woodville Hwy  Tallahassee, FL 32305",
    "location": "Wakulla"
  },
  {
    "name": "Essence Of Grace",
    "description": "Women's Clothing",
    "phone": "(850) 926-6241",
    "address": "3049 Crawfordville Hwy  Crawfordville, FL 32327",
    "location": "Wakulla"
  },
  {
    "name": "Tracy's Dresses and More",
    "description": "Women's Clothing",
    "phone": "(850) 597-9043",
    "address": "1879 Oak Ridge Rd E  Tallahassee, FL 32305",
    "location": "Wakulla"
  },
  {
    "name": "Charlotte Tilbury",
    "description": "Clothing Stores",
    "phone": "(850) 402-0105",
    "address": "1500 Apalachee Pkwy Ste 1425  Tallahassee, FL 32301",
    "location": "Wakulla"
  },
  {
    "name": "Garnet & Gold (Governor's Square Mall)",
    "description": "Clothing Stores",
    "phone": "(850) 942-2221",
    "address": "1500 Apalachee Pkwy Ste 1090  Tallahassee, FL 32301",
    "location": "Wakulla"
  },
  {
    "name": "Buckle",
    "description": "Clothing Stores",
    "phone": "(850) 877-2500",
    "address": "1500 Apalachee Pkwy  Tallahassee, FL 32301",
    "location": "Wakulla"
  },
  {
    "name": "M & R Clothing",
    "description": "Clothing Stores",
    "phone": "(850) 298-4358",
    "address": "1214 Capital Cir SE  Tallahassee, FL 32301",
    "location": "Wakulla"
  },
  {
    "name": "Hot Topic",
    "description": "Clothing Stores",
    "phone": "(850) 656-2102",
    "address": "1500 Apalachee Pkwy  Tallahassee, FL 32301",
    "location": "Wakulla"
  },
  {
    "name": "Olde Fields Clothing Co",
    "description": "Clothing Stores",
    "phone": "(850) 425-2785",
    "address": "519 W Gaines St  Tallahassee, FL 32301",
    "location": "Wakulla"
  },
  {
    "name": "Old Navy",
    "description": "Clothing Stores",
    "phone": "(850) 942-5480",
    "address": "1654 Governors Square Blvd  Tallahassee, FL 32301",
    "location": "Wakulla"
  },
  {
    "name": "PacSun",
    "description": "Clothing Stores",
    "phone": "(850) 216-2352",
    "address": "1500 Apalachee Pkwy  Tallahassee, FL 32301",
    "location": "Wakulla"
  },
  {
    "name": "American Eagle",
    "description": "Clothing Stores",
    "phone": "(850) 878-6005",
    "address": "1500 Apalachee Pkwy Ste 1225  Tallahassee, FL 32301",
    "location": "Wakulla"
  },
  {
    "name": "Rue21",
    "description": "Clothing Stores",
    "phone": "(850) 210-0396",
    "address": "1500 Apalachee Pkwy Ste 1015  Tallahassee, FL 32301",
    "location": "Wakulla"
  },
  {
    "name": "Urban Outfitters",
    "description": "Clothing Stores",
    "phone": "(850) 577-0051",
    "address": "717 S Woodward Ave  Tallahassee, FL 32304",
    "location": "Wakulla"
  },
  {
    "name": "Burlington Coat Factory",
    "description": "Clothing Stores",
    "phone": "(850) 745-2025",
    "address": "1719 Apalachee Pkwy  Tallahassee, FL 32301",
    "location": "Wakulla"
  },
  {
    "name": "Aeropostale",
    "description": "Clothing Stores",
    "phone": "(850) 219-0356",
    "address": "1500 Apalachee Pkwy  Tallahassee, FL 32301",
    "location": "Wakulla"
  },
  {
    "name": "Garnet & Gold (Stadium Store)",
    "description": "Clothing Stores",
    "phone": "(850) 222-1378",
    "address": "1001 W Pensacola St  Tallahassee, FL 32304",
    "location": "Wakulla"
  },
  {
    "name": "sensationalco.",
    "description": "Clothing Stores",
    "phone": "(561) 983-1752",
    "address": "111 Columbia Dr Apt 4  Tallahassee, FL 32304",
    "location": "Wakulla"
  },
  {
    "name": "Jimmy Jazz",
    "description": "Clothing Stores",
    "phone": "(850) 325-6560",
    "address": "1500 Apalachee Pkwy  Tallahassee, FL 32301",
    "location": "Wakulla"
  },
  {
    "name": "H&M",
    "description": "Clothing Stores",
    "phone": "(855) 466-7467",
    "address": "1500 Apalachee Pkwy  Tallahassee, FL 32301",
    "location": "Wakulla"
  },
  {
    "name": "Alche Luxury Fashions",
    "description": "Clothing Stores",
    "phone": "(850) 666-0535",
    "address": "243 Ross Rd  Tallahassee, FL 32305",
    "location": "Wakulla"
  },
  {
    "name": "Couture D'elegance",
    "description": "Clothing Stores",
    "phone": "(850) 345-2622",
    "address": "4510 Deslin Ct  Tallahassee, FL 32305",
    "location": "Wakulla"
  },
  {
    "name": "Divas Fashion",
    "description": "Clothing Stores",
    "phone": "(850) 329-2499",
    "address": "1101 Ridge Rd  Tallahassee, FL 32305",
    "location": "Wakulla"
  },
  {
    "name": "Icy Apparel",
    "description": "Clothing Stores",
    "phone": "(850) 999-8783",
    "address": "300 Orange Ave E  Tallahassee, FL 32301",
    "location": "Wakulla"
  },
  {
    "name": "Aj Fashions",
    "description": "Clothing Stores",
    "phone": "(850) 329-2390",
    "address": "2315 Jackson Bluff Rd  Tallahassee, FL 32304",
    "location": "Wakulla"
  },
  {
    "name": "Ooh La La Clothing",
    "description": "Clothing Stores",
    "phone": "(850) 583-8980",
    "address": "699 W Gaines St  Tallahassee, FL 32304",
    "location": "Wakulla"
  },
  {
    "name": "Queen Savii",
    "description": "Clothing Stores",
    "phone": "(850) 597-8475",
    "address": "439 W Gaines St  Tallahassee, FL 32301",
    "location": "Wakulla"
  },
  {
    "name": "Mouthful",
    "description": "Clothing Stores",
    "phone": "(850) 270-9882",
    "address": "1500 Capital Cir SE Ste 3  Tallahassee, FL 32301",
    "location": "Wakulla"
  },
  {
    "name": "Boutique Reef",
    "description": "Clothing Stores",
    "phone": "(850) 727-5758",
    "address": "815 W Madison St Ste 110  Tallahassee, FL 32304",
    "location": "Wakulla"
  },
  {
    "name": "Garnett Gold Superstore",
    "description": "Clothing Stores",
    "phone": "(850) 656-9724",
    "address": "1500 Apalachee Pkwy Ste 1090  Tallahassee, FL 32301",
    "location": "Wakulla"
  },
  {
    "name": "Undergound by Journeys",
    "description": "Clothing Stores",
    "phone": "(850) 877-7783",
    "address": "1500 Apalachee Pkwy  Tallahassee, FL 32301",
    "location": "Wakulla"
  },
  {
    "name": "Tommy Hilfiger",
    "description": "Clothing Stores",
    "phone": "(850) 325-2702",
    "address": "1500 Apalachee Pkwy  Tallahassee, FL 32301",
    "location": "Wakulla"
  },
  {
    "name": "AÃ©ropostale",
    "description": "Clothing Stores",
    "phone": "(850) 219-0356",
    "address": "1500 Apalachee Pkwy  Tallahassee, FL 32301",
    "location": "Wakulla"
  },
  {
    "name": "Snipes",
    "description": "Clothing Stores",
    "phone": "(850) 756-7647",
    "address": "1500 Apalachee Pkwy Ste 1235  Tallahassee, FL 32301",
    "location": "Wakulla"
  },
  {
    "name": "A'nai Clothing Company",
    "description": "Clothing Stores",
    "phone": "(850) 402-1753",
    "address": "Capital Cir SE  Tallahassee, FL 32301",
    "location": "Wakulla"
  },
  {
    "name": "Moyeva Inc",
    "description": "Clothing Stores",
    "phone": "(850) 445-2557",
    "address": "527 E Park Ave  Tallahassee, FL 32301",
    "location": "Wakulla"
  },
  {
    "name": "Mo Stylz N Threadz Clothing",
    "description": "Clothing Stores",
    "phone": "(850) 792-4007",
    "address": "75 N Woodward Ave  Tallahassee, FL 32313",
    "location": "Wakulla"
  },
  {
    "name": "Southern Compass Outfitters",
    "description": "Clothing Stores",
    "phone": "(850) 536-6622",
    "address": "1705 W Tennessee St  Tallahassee, FL 32304",
    "location": "Wakulla"
  },
  {
    "name": "Phenomenal Boutique In Florida",
    "description": "Clothing Stores",
    "phone": "(850) 405-3070",
    "address": "810 Wadsworth St Apt 101c  Tallahassee, FL 32304",
    "location": "Wakulla"
  },
  {
    "name": "Gaia Threads",
    "description": "Clothing Stores",
    "phone": "(850) 877-4242",
    "address": "217 E 3rd Ave  Tallahassee, FL 32303",
    "location": "Wakulla"
  },
  {
    "name": "Arrons Fine Custom Clothing",
    "description": "Clothing Stores",
    "phone": "(850) 510-2893",
    "address": "313 Williams St  Tallahassee, FL 32303",
    "location": "Wakulla"
  },
  {
    "name": "Underground Station",
    "description": "Clothing Stores",
    "phone": "(850) 877-7783",
    "address": "1500 Apalachee Pkwy  Tallahassee, FL 32301",
    "location": "Wakulla"
  },
  {
    "name": "Citi Trends",
    "description": "Clothing Stores",
    "phone": "(850) 253-7400",
    "address": "2525 S Monroe St Ste 18C  Tallahassee, FL 32301",
    "location": "Wakulla"
  },
  {
    "name": "Allison's Two Consignment Shop",
    "description": "Clothing Stores",
    "phone": "(850) 942-2345",
    "address": "2475 Apalachee Pkwy Ste 112  Tallahassee, FL 32301",
    "location": "Wakulla"
  },
  {
    "name": "Hollister",
    "description": "Clothing Stores",
    "phone": "(850) 656-8782",
    "address": "1500 Apalachee Pkwy Ste 1400  Tallahassee, FL 32301",
    "location": "Wakulla"
  },
  {
    "name": "Banana Republic",
    "description": "Clothing Stores",
    "phone": "(850) 309-7373",
    "address": "1500 Apalachee Pkwy  Tallahassee, FL 32301",
    "location": "Wakulla"
  },
  {
    "name": "Man Alive",
    "description": "Clothing Stores",
    "phone": "(850) 325-6560",
    "address": "1500 Apalachee Pkwy Ste 1025  Tallahassee, FL 32301",
    "location": "Wakulla"
  },
  {
    "name": "Express Factory Outlet",
    "description": "Clothing Stores",
    "phone": "(850) 942-1123",
    "address": "1500 Apalachee Pkwy  Tallahassee, FL 32301",
    "location": "Wakulla"
  },
  {
    "name": "Abercrombie & Fitch",
    "description": "Clothing Stores",
    "phone": "(850) 656-4777",
    "address": "1500 Apalachee Pkwy Ste 2018  Tallahassee, FL 32301",
    "location": "Wakulla"
  },
  {
    "name": "La Fashion Boutique",
    "description": "Clothing Stores",
    "phone": "(850) 878-8280",
    "address": "2525 S Monroe St Ste 6  Tallahassee, FL 32301",
    "location": "Wakulla"
  },
  {
    "name": "Macy's",
    "description": "Clothing Stores",
    "phone": "(850) 325-2800",
    "address": "1500 Apalachee Pkwy  Tallahassee, FL 32301",
    "location": "Wakulla"
  },
  {
    "name": "Marshalls",
    "description": "Clothing Stores",
    "phone": "(850) 877-1951",
    "address": "1514 Governors Square Blvd  Tallahassee, FL 32301",
    "location": "Wakulla"
  },
  {
    "name": "Forever 21",
    "description": "Clothing Stores",
    "phone": "(850) 558-9421",
    "address": "1500 Apalachee Pkwy Ste 1245  Tallahassee, FL 32301",
    "location": "Wakulla"
  },
  {
    "name": "Catherines Plus Sizes",
    "description": "Clothing Stores",
    "phone": "(850) 296-3539",
    "address": "1217 Apalachee Pkwy  Tallahassee, FL 32301",
    "location": "Wakulla"
  },
  {
    "name": "Torrid",
    "description": "Clothing Stores",
    "phone": "(850) 402-9010",
    "address": "1500 Apalachee Pkwy  Tallahassee, FL 32301",
    "location": "Wakulla"
  },
  {
    "name": "Cache",
    "description": "Clothing Stores",
    "phone": "(850) 877-6400",
    "address": "1500 Apalachee Pkwy  Tallahassee, FL 32301",
    "location": "Wakulla"
  },
  {
    "name": "JCPenney",
    "description": "Clothing Stores",
    "phone": "(850) 878-8111",
    "address": "1500 Apalachee Pkwy  Tallahassee, FL 32301",
    "location": "Wakulla"
  },
  {
    "name": "Oxford Street",
    "description": "Clothing Stores",
    "phone": "(850) 877-8703",
    "address": "1500 Apalachee Pkwy Ste 2445  Tallahassee, FL 32301",
    "location": "Wakulla"
  },
  {
    "name": "Justice",
    "description": "Clothing Stores",
    "phone": "(850) 688-4905",
    "address": "1500 Apalachee Pkwy Ste 2070  Tallahassee, FL 32301",
    "location": "Wakulla"
  },
  {
    "name": "SEPHORA at Kohl's",
    "description": "Clothing Stores",
    "phone": "(850) 656-1985",
    "address": "2010 Apalachee Pkwy  Tallahassee, FL 32301",
    "location": "Wakulla"
  },
  {
    "name": "Bealls Outlet",
    "description": "Clothing Stores",
    "phone": "(850) 942-2430",
    "address": "1141 Apalachee Pkwy  Tallahassee, FL 32301",
    "location": "Wakulla"
  },
  {
    "name": "Journeys",
    "description": "Clothing Stores",
    "phone": "(850) 216-2776",
    "address": "1500 Apalachee Pkwy  Tallahassee, FL 32301",
    "location": "Wakulla"
  },
  {
    "name": "City Gear",
    "description": "Clothing Stores",
    "phone": "(850) 294-0099",
    "address": "1215 Apalachee Pkwy Ste 270  Tallahassee, FL 32301",
    "location": "Wakulla"
  },
  {
    "name": "Five Below",
    "description": "Clothing Stores",
    "phone": "(850) 402-0216",
    "address": "1544 Governors Square Blvd  Tallahassee, FL 32301",
    "location": "Wakulla"
  },
  {
    "name": "Windsor",
    "description": "Clothing Stores",
    "phone": "(888) 495-4957",
    "address": "1500 Apalachee Pkwy  Tallahassee, FL 32301",
    "location": "Wakulla"
  },
  {
    "name": "LOFT Outlet",
    "description": "Clothing Stores",
    "phone": "(850) 877-4414",
    "address": "1500 Apalachee Pkwy  Tallahassee, FL 32301",
    "location": "Wakulla"
  },
  {
    "name": "Shoe Show",
    "description": "Clothing Stores",
    "phone": "(850) 671-4322",
    "address": "1500 Apalachee Pkwy Ste 2115  Tallahassee, FL 32301",
    "location": "Wakulla"
  },
  {
    "name": "SmartLegs Healthy Hosiery",
    "description": "Clothing Stores",
    "phone": "(850) 877-8177",
    "address": "132 Salem Ct  Tallahassee, FL 32301",
    "location": "Wakulla"
  },
  {
    "name": "Zumiez",
    "description": "Clothing Stores",
    "phone": "(850) 309-0059",
    "address": "1500 Apalachee Pkwy Ste 1395  Tallahassee, FL 32301",
    "location": "Wakulla"
  },
  {
    "name": "Bealls Department Store",
    "description": "Clothing Stores",
    "phone": "(850) 942-2430",
    "address": "1121 Apalachee Pkwy  Tallahassee, FL 32301",
    "location": "Wakulla"
  },
  {
    "name": "S.A. Elite",
    "description": "Clothing Stores",
    "phone": "(850) 878-5381",
    "address": "1644 Governors Square Blvd  Tallahassee, FL 32301",
    "location": "Wakulla"
  },
  {
    "name": "Aeropostale Factory Store",
    "description": "Clothing Stores",
    "phone": "(850) 219-0356",
    "address": "1500 Apalachee Pkwy  Tallahassee, FL 32301",
    "location": "Wakulla"
  },
  {
    "name": "Garnet & Gold",
    "description": "Clothing Stores",
    "phone": "(850) 942-2221",
    "address": "1504 Governors Square Blvd  Tallahassee, FL 32301",
    "location": "Wakulla"
  },
  {
    "name": "5.7.9",
    "description": "Clothing Stores",
    "phone": "(850) 575-2299",
    "address": "1122 Sawmill Rd  Tallahassee, FL 32305",
    "location": "Wakulla"
  },
  {
    "name": "Formals By Vince",
    "description": "Clothing Stores",
    "phone": "(850) 402-9884",
    "address": "1500 Apalachee Pkwy  Tallahassee, FL 32301",
    "location": "Wakulla"
  },
  {
    "name": "Office",
    "description": "Clothing Stores",
    "phone": "(850) 224-0204",
    "address": "212 S Monroe St  Tallahassee, FL 32301",
    "location": "Wakulla"
  },
  {
    "name": "The Children's Place",
    "description": "Clothing Stores",
    "phone": "(850) 219-8142",
    "address": "1500 Apalachee Pkwy  Tallahassee, FL 32301",
    "location": "Wakulla"
  },
  {
    "name": "Modest Formal Wear",
    "description": "Clothing Stores",
    "phone": "(850) 765-0176",
    "address": "1500 Apalachee Pkwy  Tallahassee, FL 32301",
    "location": "Wakulla"
  },
  {
    "name": "Cotton On Kids",
    "description": "Clothing Stores",
    "phone": "(448) 200-5960",
    "address": "1500 Apalachee Pkwy  Tallahassee, FL 32301",
    "location": "Wakulla"
  },
  {
    "name": "Be Loved Boutique",
    "description": "Clothing Stores",
    "phone": "(904) 762-3875",
    "address": "2525 W Tennessee St  Tallahassee, FL 32304",
    "location": "Wakulla"
  },
  {
    "name": "B & B Sporting Goods",
    "description": "Clothing Stores",
    "phone": "(850) 222-0682",
    "address": "1139 E Tennessee St  Tallahassee, FL 32308",
    "location": "Wakulla"
  },
  {
    "name": "New York & Company",
    "description": "Clothing Stores",
    "phone": "(850) 878-7650",
    "address": "1500 Apalachee Pkwy Ste 2102  Tallahassee, FL 32301",
    "location": "Wakulla"
  },
  {
    "name": "Sears",
    "description": "Clothing Stores",
    "phone": "(850) 671-6284",
    "address": "132 N Calhoun St  Tallahassee, FL 32301",
    "location": "Wakulla"
  },
  {
    "name": "Ross Dress for Less",
    "description": "Clothing Stores",
    "phone": "(850) 656-2325",
    "address": "1233 Apalachee Pkwy  Tallahassee, FL 32301",
    "location": "Wakulla"
  },
  {
    "name": "Wet Seal",
    "description": "Clothing Stores",
    "phone": "(850) 942-2877",
    "address": "1500 Apalachee Pkwy  Tallahassee, FL 32301",
    "location": "Wakulla"
  },
  {
    "name": "Nic's Toggery Inc",
    "description": "Clothing Stores",
    "phone": "(850) 222-0687",
    "address": "212 S Monroe St  Tallahassee, FL 32301",
    "location": "Wakulla"
  },
  {
    "name": "Red Apple Apparel",
    "description": "Clothing Stores",
    "phone": "(850) 727-0850",
    "address": "2016 S Adams St  Tallahassee, FL 32301",
    "location": "Wakulla"
  },
  {
    "name": "BCBGMAXAZRIA",
    "description": "Women's Clothing",
    "phone": "(850) 656-3925",
    "address": "1500 Apalachee Pkwy  Tallahassee, FL 32301",
    "location": "Wakulla"
  },
  {
    "name": "Tammy's Nighttime Treasures",
    "description": "Lingerie",
    "phone": "(850) 264-7392",
    "address": "2221 S Monroe St  Tallahassee, FL 32301",
    "location": "Wakulla"
  },
  {
    "name": "Absolute Haven Bridal",
    "description": "Bridal Shops",
    "phone": "(850) 222-1197",
    "address": "1020 N Monroe St  Tallahassee, FL 32303",
    "location": "Wakulla"
  },
  {
    "name": "Specialty Sportswear & Promotions LLC",
    "description": "Sportswear",
    "phone": "(850) 350-3723",
    "address": "1500 Capital Cir SE  Tallahassee, FL 32301",
    "location": "Wakulla"
  },
  {
    "name": "Men's Wearhouse",
    "description": "Men's Clothing",
    "phone": "(850) 878-0026",
    "address": "1594 Governors Square Blvd  Tallahassee, FL 32301",
    "location": "Wakulla"
  },
  {
    "name": "Simply 10",
    "description": "Women's Clothing Wholesalers & Manufacturers",
    "phone": "(850) 999-1809",
    "address": "3030 S Monroe St  Tallahassee, FL 32301",
    "location": "Wakulla"
  },
  {
    "name": "Foot Locker",
    "description": "Shoe Stores",
    "phone": "(850) 574-3008",
    "address": "800 Ocala Rd Ste 350  Tallahassee, FL 32304",
    "location": "Wakulla"
  },
  {
    "name": "All Day Long Custom Apparel",
    "description": "Men's Clothing",
    "phone": "(850) 597-9720",
    "address": "1525 Jackson Bluff Rd  Tallahassee, FL 32304",
    "location": "Wakulla"
  },
  {
    "name": "Dillard's",
    "description": "Department Stores",
    "phone": "(850) 671-2000",
    "address": "1500 Apalachee Pkwy  Tallahassee, FL 32301",
    "location": "Wakulla"
  },
  {
    "name": "Rack Room Shoes",
    "description": "Shoe Stores",
    "phone": "(850) 402-9324",
    "address": "2110 Apalachee Pkwy  Tallahassee, FL 32301",
    "location": "Wakulla"
  },
  {
    "name": "Dick's Sporting Goods",
    "description": "Exercise & Fitness Equipment",
    "phone": "(850) 309-0490",
    "address": "1729 Apalachee Pkwy  Tallahassee, FL 32301",
    "location": "Wakulla"
  },
  {
    "name": "Motherhood Maternity",
    "description": "Maternity Clothes",
    "phone": "(850) 656-7885",
    "address": "1500 Apalachee Pkwy  Tallahassee, FL 32301",
    "location": "Wakulla"
  },
  {
    "name": "DTLR",
    "description": "Shoe Stores",
    "phone": "(850) 309-0024",
    "address": "1500 Apalachee Pkwy Ste 1380  Tallahassee, FL 32301",
    "location": "Wakulla"
  },
  {
    "name": "Very Berry Lingerie",
    "description": "Men's Clothing",
    "phone": "(813) 702-3779",
    "address": "3535 Roberts Ave Lot 1  Tallahassee, FL 32310",
    "location": "Wakulla"
  },
  {
    "name": "Vans",
    "description": "Shoe Stores",
    "phone": "(850) 309-0163",
    "address": "1500 Apalachee Pkwy Ste 1415  Tallahassee, FL 32301",
    "location": "Wakulla"
  },
  {
    "name": "Target",
    "description": "General Merchandise",
    "phone": "(850) 671-2041",
    "address": "2120 Apalachee Pkwy  Tallahassee, FL 32301",
    "location": "Wakulla"
  },
  {
    "name": "West Marine",
    "description": "Boat Equipment & Supplies",
    "phone": "(850) 402-9636",
    "address": "2110 Apalachee Pkwy  Tallahassee, FL 32301",
    "location": "Wakulla"
  },
  {
    "name": "Champs Sports",
    "description": "Sportswear",
    "phone": "(850) 878-2727",
    "address": "1500 Apalachee Pkwy  Tallahassee, FL 32301",
    "location": "Wakulla"
  },
  {
    "name": "Footaction USA",
    "description": "Shoe Stores",
    "phone": "(850) 576-6400",
    "address": "1500 Apalachee Pkwy  Tallahassee, FL 32301",
    "location": "Wakulla"
  },
  {
    "name": "Finish Line",
    "description": "Shoe Stores",
    "phone": "(850) 656-9601",
    "address": "1500 Apalachee Pkwy  Tallahassee, FL 32301",
    "location": "Wakulla"
  },
  {
    "name": "Victoria's Secret",
    "description": "Lingerie",
    "phone": "(850) 878-8542",
    "address": "1500 Apalachee Pkwy  Tallahassee, FL 32301",
    "location": "Wakulla"
  },
  {
    "name": "Designers Closet",
    "description": "Men's Clothing",
    "phone": "(850) 402-9920",
    "address": "1500 Apalachee Pkwy  Tallahassee, FL 32301",
    "location": "Wakulla"
  },
  {
    "name": "Lane Bryant Outlet",
    "description": "Shoe Stores",
    "phone": "(850) 309-0280",
    "address": "1500 Apalachee Pkwy  Tallahassee, FL 32301",
    "location": "Wakulla"
  },
  {
    "name": "Henri Girl",
    "description": "Boutique Items",
    "phone": "(850) 575-0952",
    "address": "2020 W Pensacola St  Tallahassee, FL 32304",
    "location": "Wakulla"
  },
  {
    "name": "Talbots",
    "description": "Women's Clothing",
    "phone": "(850) 219-1799",
    "address": "1500 Apalachee Pkwy  Tallahassee, FL 32301",
    "location": "Wakulla"
  },
  {
    "name": "Sandal Beat",
    "description": "Shoe Stores",
    "phone": "(850) 576-3338",
    "address": "415 All Saints St  Tallahassee, FL 32301",
    "location": "Wakulla"
  },
  {
    "name": "MADE Hats",
    "description": "Men's Clothing",
    "phone": "(504) 535-1040",
    "address": "1001 Ocala Rd  Tallahassee, FL 32304",
    "location": "Wakulla"
  },
  {
    "name": "Backkwoodd Co",
    "description": "General Merchandise",
    "phone": "(850) 402-1332",
    "address": "1226 Coleman St  Tallahassee, FL 32310",
    "location": "Wakulla"
  },
  {
    "name": "Edwin Watts Golf",
    "description": "Golf Equipment & Supplies",
    "phone": "(850) 383-6935",
    "address": "2423 Capital Cir SE  Tallahassee, FL 32311",
    "location": "Wakulla"
  },
  {
    "name": "Good Looks",
    "description": "General Merchandise",
    "phone": "(850) 402-9212",
    "address": "2962 Apalachee Pkwy  Tallahassee, FL 32301",
    "location": "Wakulla"
  },
  {
    "name": "NC Bargain Store",
    "description": "Variety Stores",
    "phone": "(850) 999-2942",
    "address": "1014 S Magnolia Dr  Tallahassee, FL 32301",
    "location": "Wakulla"
  },
  {
    "name": "Carpe' International",
    "description": "Department Stores",
    "phone": "(850) 575-8812",
    "address": "1880 Belle Vue Way  Tallahassee, FL 32304",
    "location": "Wakulla"
  },
  {
    "name": "Florida Dollar Corner",
    "description": "General Merchandise",
    "phone": "(850) 727-7059",
    "address": "1500 Apalachee Pkwy Ste 1340  Tallahassee, FL 32301",
    "location": "Wakulla"
  },
  {
    "name": "Lids",
    "description": "Hat Shops",
    "phone": "(850) 671-4333",
    "address": "1500 Apalachee Pkwy  Tallahassee, FL 32301",
    "location": "Wakulla"
  },
  {
    "name": "Famous Footwear",
    "description": "Shoe Stores",
    "phone": "(850) 877-7770",
    "address": "1544 Governors Square Blvd  Tallahassee, FL 32301",
    "location": "Wakulla"
  },
  {
    "name": "TJX Companies, Inc",
    "description": "Department Stores",
    "phone": "(850) 877-1951",
    "address": "1514 Governors Square Blvd  Tallahassee, FL 32301",
    "location": "Wakulla"
  },
  {
    "name": "Ten Below",
    "description": "Women's Clothing",
    "phone": "(850) 999-1809",
    "address": "3030 S Monroe St Ste 4A  Tallahassee, FL 32301",
    "location": "Wakulla"
  },
  {
    "name": "Simply Fashion",
    "description": "Women's Clothing",
    "phone": "(850) 656-7602",
    "address": "2525 S Monroe St  Tallahassee, FL 32301",
    "location": "Wakulla"
  },
  {
    "name": "Patricia's",
    "description": "Women's Clothing",
    "phone": "(850) 513-0908",
    "address": "1936 S Monroe St  Tallahassee, FL 32301",
    "location": "Wakulla"
  },
  {
    "name": "Diamond Stitchery & Promotions",
    "description": "Women's Clothing",
    "phone": "(850) 391-4913",
    "address": "2731 S Blair Stone Rd Apt 174  Tallahassee, FL 32301",
    "location": "Wakulla"
  },
  {
    "name": "JW Online Store",
    "description": "Women's Clothing",
    "phone": "(877) 792-0729",
    "address": "3424 Old Saint Augustine Rd 10 Lot  Tallahassee, FL 32311",
    "location": "Wakulla"
  },
  {
    "name": "Wonsaponatime Vintage",
    "description": "Women's Clothing",
    "phone": "(850) 778-2188",
    "address": "616 Railroad Sq  Tallahassee, FL 32310",
    "location": "Wakulla"
  },
  {
    "name": "Generations Dress to Impress",
    "description": "Women's Clothing",
    "phone": "(850) 942-7727",
    "address": "2312 Apalachee Pkwy Ste 6  Tallahassee, FL 32301",
    "location": "Wakulla"
  },
  {
    "name": "Tira's Boutique",
    "description": "Boutique Items",
    "phone": "(850) 309-0871",
    "address": "1500 Capital Cir SE Ste 1  Tallahassee, FL 32301",
    "location": "Wakulla"
  },
  {
    "name": "Henri Girl Boutique",
    "description": "Women's Clothing",
    "phone": "(850) 575-0952",
    "address": "742 W. Madison ST, #107  Tallahassee, FL 32304",
    "location": "Wakulla"
  },
  {
    "name": "Decibel",
    "description": "Men's Clothing",
    "phone": "(850) 325-6560",
    "address": "1500 Apalachee Pkwy  Tallahassee, FL 32301",
    "location": "Wakulla"
  },
  {
    "name": "Payless ShoeSource",
    "description": "Men's Clothing",
    "phone": "(850) 877-5103",
    "address": "1500 Apalachee Pkwy Ste 1009  Tallahassee, FL 32301",
    "location": "Wakulla"
  },
  {
    "name": "Ashley Stewart",
    "description": "Women's Clothing",
    "phone": "(850) 219-6356",
    "address": "1500 Apalachee Pkwy Ste 1485  Tallahassee, FL 32301",
    "location": "Wakulla"
  },
  {
    "name": "Body Central",
    "description": "Women's Clothing",
    "phone": "(850) 877-3668",
    "address": "1500 Apalachee Pkwy  Tallahassee, FL 32301",
    "location": "Wakulla"
  },
  {
    "name": "Francesca's",
    "description": "Women's Clothing",
    "phone": "(850) 210-1265",
    "address": "1500 Apalachee Pkwy Ste 2060  Tallahassee, FL 32301",
    "location": "Wakulla"
  },
  {
    "name": "The Bling Boutique",
    "description": "Women's Clothing",
    "phone": "(850) 938-4770",
    "address": "1500 Apalachee Parkway Suite 2330  Tallahassee, FL 32301",
    "location": "Wakulla"
  },
  {
    "name": "Diane K",
    "description": "Women's Clothing",
    "phone": "(850) 222-5959",
    "address": "212 S Monroe St  Tallahassee, FL 32301",
    "location": "Wakulla"
  },
  {
    "name": "Gilding the Lily",
    "description": "Women's Fashion Accessories",
    "phone": "(850) 222-4980",
    "address": "1000 Thomasville Rd  Tallahassee, FL 32303",
    "location": "Wakulla"
  },
  {
    "name": "Body Shop",
    "description": "Women's Clothing",
    "phone": "(850) 877-3668",
    "address": "1500 Apalachee Pkwy Ste 2225  Tallahassee, FL 32301",
    "location": "Wakulla"
  },
  {
    "name": "The Limited",
    "description": "Women's Clothing",
    "phone": "(850) 210-1298",
    "address": "1500 Apalachee Pkwy  Tallahassee, FL 32301",
    "location": "Wakulla"
  },
  {
    "name": "Ann Taylor",
    "description": "Women's Clothing",
    "phone": "(850) 219-0400",
    "address": "1500 Apalachee Pkwy  Tallahassee, FL 32301",
    "location": "Wakulla"
  },
  {
    "name": "Garnet & Gold Office & Warehouse",
    "description": "Sportswear",
    "phone": "(850) 878-5623",
    "address": "2818 Industrial Plaza Dr  Tallahassee, FL 32301",
    "location": "Wakulla"
  }
]