[
  {
    "name": "T.J.Maxx",
    "description": "Clothing Stores",
    "phone": "(850) 476-0333",
    "address": "6625 W Highway 98  Pensacola, FL 32506",
    "location": "Washington"
  },
  {
    "name": "Nearly Dead Threads",
    "description": "Clothing Stores",
    "phone": "(850) 748-5400",
    "address": "3731 A West Navy Blvd  Pensacola, FL 32507",
    "location": "Washington"
  },
  {
    "name": "Tots Teens and In Betweens",
    "description": "Clothing Stores",
    "phone": "(850) 516-3781",
    "address": "1020 N New Warrington Rd  Pensacola, FL 32506",
    "location": "Washington"
  },
  {
    "name": "ML Fashion Inc",
    "description": "Clothing Stores",
    "phone": "(850) 285-0617",
    "address": "4205 Lillian Hwy  Pensacola, FL 32506",
    "location": "Washington"
  },
  {
    "name": "Don Alans Mens Clothing",
    "description": "Clothing Stores",
    "phone": "(850) 439-1762",
    "address": "401 S Palafox St  Pensacola, FL 32502",
    "location": "Washington"
  },
  {
    "name": "Angela's All That and More",
    "description": "Clothing Stores",
    "phone": "(850) 586-8813",
    "address": "1607 Gary Ave  Pensacola, FL 32505",
    "location": "Washington"
  },
  {
    "name": "Goddessglitz",
    "description": "Clothing Stores",
    "phone": "(850) 610-3053",
    "address": "8 Wisconsin Dr  Pensacola, FL 32505",
    "location": "Washington"
  },
  {
    "name": "CiCi Fashionista Closet",
    "description": "Clothing Stores",
    "phone": "(866) 727-9323",
    "address": "1820 N W St  Pensacola, FL 32505",
    "location": "Washington"
  },
  {
    "name": "Oxford House Waltham",
    "description": "Clothing Stores",
    "phone": "(850) 857-8196",
    "address": "2111 Waltham St  Pensacola, FL 32505",
    "location": "Washington"
  },
  {
    "name": "Vince.",
    "description": "Clothing Stores",
    "phone": "(850) 607-7105",
    "address": "403 S Palafox St  Pensacola, FL 32502",
    "location": "Washington"
  },
  {
    "name": "I Have Skills Inc",
    "description": "Clothing Stores",
    "phone": "(850) 791-6567",
    "address": "2704 W Avery St  Pensacola, FL 32505",
    "location": "Washington"
  },
  {
    "name": "Jacqueline Britts Apparels",
    "description": "Clothing Stores",
    "phone": "(850) 456-3388",
    "address": "1102 Webster Dr  Pensacola, FL 32505",
    "location": "Washington"
  },
  {
    "name": "DD's Discounts",
    "description": "Clothing Stores",
    "phone": "(850) 438-2668",
    "address": "3300 N Pace Blvd  Pensacola, FL 32505",
    "location": "Washington"
  },
  {
    "name": "Rainbow Shops",
    "description": "Clothing Stores",
    "phone": "(850) 439-0124",
    "address": "1821 W Fairfield Dr  Pensacola, FL 32501",
    "location": "Washington"
  },
  {
    "name": "Melobay",
    "description": "Clothing Stores",
    "phone": "(850) 542-0010",
    "address": "34 N Palafox St  Pensacola, FL 32502",
    "location": "Washington"
  },
  {
    "name": "Rockalillies",
    "description": "Clothing Stores",
    "phone": "(850) 454-7248",
    "address": "10085 N Loop Rd Lot 11  Pensacola, FL 32507",
    "location": "Washington"
  },
  {
    "name": "Citi Trends",
    "description": "Clothing Stores",
    "phone": "(850) 332-4011",
    "address": "3300 N Pace Blvd Ste 245  Pensacola, FL 32505",
    "location": "Washington"
  },
  {
    "name": "Toad Hall Antiques & Gifts",
    "description": "Clothing Stores",
    "phone": "(850) 542-7548",
    "address": "824 E Belmont St  Pensacola, FL 32501",
    "location": "Washington"
  },
  {
    "name": "Dope Shopping Made Easy",
    "description": "Clothing Stores",
    "phone": "(877) 336-0121",
    "address": "2355 W. Michigan Ave Ste 2355  Pensacola, FL 32526",
    "location": "Washington"
  },
  {
    "name": "Sanders",
    "description": "Clothing Stores",
    "phone": "(850) 434-1616",
    "address": "4504 E Montclair Rd  Pensacola, FL 32505",
    "location": "Washington"
  },
  {
    "name": "Game Ready Clothing",
    "description": "Clothing Stores",
    "phone": "(850) 332-5309",
    "address": "934 Lucerne Ave  Pensacola, FL 32505",
    "location": "Washington"
  },
  {
    "name": "Intracoastal Outfitters",
    "description": "Clothing Stores",
    "phone": "(850) 432-8638",
    "address": "701 E Gregory St  Pensacola, FL 32502",
    "location": "Washington"
  },
  {
    "name": "Ole Time Leather",
    "description": "Clothing Stores",
    "phone": "(850) 438-7133",
    "address": "115 Beverly Pkwy  Pensacola, FL 32505",
    "location": "Washington"
  },
  {
    "name": "Old Navy",
    "description": "Clothing Stores",
    "phone": "(850) 475-1302",
    "address": "5100 N 9th Ave Ste C315A  Pensacola, FL 32504",
    "location": "Washington"
  },
  {
    "name": "Burlington Coat Factory",
    "description": "Clothing Stores",
    "phone": "(850) 475-0528",
    "address": "7171 N Davis Hwy Ste 8400  Pensacola, FL 32504",
    "location": "Washington"
  },
  {
    "name": "Cotton On",
    "description": "Clothing Stores",
    "phone": "(850) 475-4145",
    "address": "5100 N 9th Ave  Pensacola, FL 32504",
    "location": "Washington"
  },
  {
    "name": "Undergound by Journeys",
    "description": "Clothing Stores",
    "phone": "(850) 474-1918",
    "address": "5100 N 9th Ave  Pensacola, FL 32504",
    "location": "Washington"
  },
  {
    "name": "Charlotte Tilbury",
    "description": "Clothing Stores",
    "phone": "(850) 473-0083",
    "address": "5100 N 9th Ave  Pensacola, FL 32504",
    "location": "Washington"
  },
  {
    "name": "H&M",
    "description": "Clothing Stores",
    "phone": "(855) 466-7467",
    "address": "5100 N 9th Ave  Pensacola, FL 32504",
    "location": "Washington"
  },
  {
    "name": "Guess",
    "description": "Clothing Stores",
    "phone": "(850) 786-1252",
    "address": "5100 N 9th Ave Ste C337A  Pensacola, FL 32504",
    "location": "Washington"
  },
  {
    "name": "Bealls Department Store",
    "description": "Clothing Stores",
    "phone": "(850) 479-3313",
    "address": "6241 N Davis Hwy  Pensacola, FL 32504",
    "location": "Washington"
  },
  {
    "name": "Stein Mart",
    "description": "Clothing Stores",
    "phone": "(850) 484-2607",
    "address": "1660 Airport Blvd  Pensacola, FL 32504",
    "location": "Washington"
  },
  {
    "name": "Tillys",
    "description": "Clothing Stores",
    "phone": "(850) 477-4754",
    "address": "5100 N 9th Ave  Pensacola, FL 32504",
    "location": "Washington"
  },
  {
    "name": "The Vintage Frock",
    "description": "Clothing Stores",
    "phone": "(850) 450-9045",
    "address": "PO Box 1234  Gulf Breeze, FL 32562",
    "location": "Washington"
  },
  {
    "name": "Jimmy Jazz",
    "description": "Clothing Stores",
    "phone": "(850) 969-0422",
    "address": "5100 N 9th Ave  Pensacola, FL 32504",
    "location": "Washington"
  },
  {
    "name": "American Eagle",
    "description": "Clothing Stores",
    "phone": "(850) 857-6621",
    "address": "5100 N 9th Ave  Pensacola, FL 32504",
    "location": "Washington"
  },
  {
    "name": "Man Alive",
    "description": "Clothing Stores",
    "phone": "(850) 969-0422",
    "address": "5100 N 9th Ave  Pensacola, FL 32504",
    "location": "Washington"
  },
  {
    "name": "Hollister",
    "description": "Clothing Stores",
    "phone": "(850) 471-9108",
    "address": "5100 N 9th Ave Ste F627  Pensacola, FL 32504",
    "location": "Washington"
  },
  {
    "name": "Rue21",
    "description": "Clothing Stores",
    "phone": "(850) 476-2562",
    "address": "5100 N 9th Ave Spc D404  Pensacola, FL 32504",
    "location": "Washington"
  },
  {
    "name": "You Got Personal",
    "description": "Clothing Stores",
    "phone": "(850) 449-5562",
    "address": "PO Box 652  Gulf Breeze, FL 32562",
    "location": "Washington"
  },
  {
    "name": "Hot Topic",
    "description": "Clothing Stores",
    "phone": "(850) 471-2344",
    "address": "5100 N 9th Ave  Pensacola, FL 32504",
    "location": "Washington"
  },
  {
    "name": "PacSun",
    "description": "Clothing Stores",
    "phone": "(850) 476-8550",
    "address": "5100 N 9th Ave  Pensacola, FL 32504",
    "location": "Washington"
  },
  {
    "name": "Underground Station",
    "description": "Clothing Stores",
    "phone": "(850) 474-1918",
    "address": "5100 N 9th Ave  Pensacola, FL 32504",
    "location": "Washington"
  },
  {
    "name": "Express",
    "description": "Clothing Stores",
    "phone": "(850) 475-5946",
    "address": "5100 N 9th Ave  Pensacola, FL 32504",
    "location": "Washington"
  },
  {
    "name": "Buckle",
    "description": "Clothing Stores",
    "phone": "(850) 473-1007",
    "address": "5100 N 9th Ave  Pensacola, FL 32504",
    "location": "Washington"
  },
  {
    "name": "Go Fish Clothing & Jewelry Company",
    "description": "Clothing Stores",
    "phone": "(850) 479-7498",
    "address": "2172 W Nine Mile Rd Ste 342  Pensacola, FL 32534",
    "location": "Washington"
  },
  {
    "name": "D & J's Favorite Things",
    "description": "Clothing Stores",
    "phone": "(850) 312-9516",
    "address": "8917 N Davis Hwy  Pensacola, FL 32514",
    "location": "Washington"
  },
  {
    "name": "Splash Resort Wear",
    "description": "Clothing Stores",
    "phone": "(850) 760-2030",
    "address": "14254 Perdido Key Dr  Pensacola, FL 32507",
    "location": "Washington"
  },
  {
    "name": "Ron Jon Surf Shop",
    "description": "Clothing Stores",
    "phone": "(850) 203-6555",
    "address": "400 Quietwater Beach Rd  Pensacola Beach, FL 32561",
    "location": "Washington"
  },
  {
    "name": "Envie",
    "description": "Clothing Stores",
    "phone": "(850) 934-7050",
    "address": "400 Quietwater Beach Rd  Gulf Breeze, FL 32561",
    "location": "Washington"
  },
  {
    "name": "Bealls",
    "description": "Clothing Stores",
    "phone": "(850) 455-4694",
    "address": "400 N Navy Blvd  Pensacola, FL 32507",
    "location": "Washington"
  },
  {
    "name": "Bealls Outlet Stores",
    "description": "Clothing Stores",
    "phone": "(850) 455-4694",
    "address": "400 N Navy Blvd  Pensacola, FL 32507",
    "location": "Washington"
  },
  {
    "name": "Dangerous Toys",
    "description": "Clothing Stores",
    "phone": "(850) 417-7951",
    "address": "910 Winton Ave  Pensacola, FL 32507",
    "location": "Washington"
  },
  {
    "name": "Shoe Show",
    "description": "Clothing Stores",
    "phone": "(850) 432-0325",
    "address": "3300 N Pace Blvd Suite 31 Town & Country Plaza  Pensacola, FL 32505",
    "location": "Washington"
  },
  {
    "name": "Its Personal by Sheila",
    "description": "Clothing Stores",
    "phone": "(850) 607-2520",
    "address": "2610 W Cervantes St  Pensacola, FL 32505",
    "location": "Washington"
  },
  {
    "name": "Viola's Mens Apparel",
    "description": "Clothing Stores",
    "phone": "(850) 429-7146",
    "address": "2727 W Cervantes St  Pensacola, FL 32505",
    "location": "Washington"
  },
  {
    "name": "Ross Dress for Less",
    "description": "Clothing Stores",
    "phone": "(850) 456-0150",
    "address": "4345 W Fairfield Dr  Pensacola, FL 32505",
    "location": "Washington"
  },
  {
    "name": "Kay Fashion",
    "description": "Clothing Stores",
    "phone": "(850) 332-5913",
    "address": "2520 W Cervantes St  Pensacola, FL 32505",
    "location": "Washington"
  },
  {
    "name": "City Gear",
    "description": "Clothing Stores",
    "phone": "(850) 378-7055",
    "address": "4600 Mobile Hwy  Pensacola, FL 32506",
    "location": "Washington"
  },
  {
    "name": "Bosso's Uniform Company",
    "description": "Clothing Stores",
    "phone": "(850) 438-7608",
    "address": "1120 W Government St  Pensacola, FL 32502",
    "location": "Washington"
  },
  {
    "name": "Running Wild",
    "description": "Clothing Stores",
    "phone": "(850) 435-9222",
    "address": "3012 E Cervantes St  Pensacola, FL 32503",
    "location": "Washington"
  },
  {
    "name": "Innerlight Inc",
    "description": "Clothing Stores",
    "phone": "(850) 495-3507",
    "address": "114 N Palafox St  Pensacola, FL 32502",
    "location": "Washington"
  },
  {
    "name": "Image Menswear",
    "description": "Clothing Stores",
    "phone": "(850) 433-4896",
    "address": "3300 N Pace Blvd  Pensacola, FL 32505",
    "location": "Washington"
  },
  {
    "name": "Ordon's Inc",
    "description": "Clothing Stores",
    "phone": "(850) 438-4931",
    "address": "907 N 12th Ave  Pensacola, FL 32501",
    "location": "Washington"
  },
  {
    "name": "GARAGE",
    "description": "Clothing Stores",
    "phone": "(850) 285-0481",
    "address": "5406 Sun Valley Dr  Pensacola, FL 32505",
    "location": "Washington"
  },
  {
    "name": "Lori's Sewing Shop",
    "description": "Clothing Stores",
    "phone": "(850) 944-3065",
    "address": "6335 Mobile Hwy  Pensacola, FL 32526",
    "location": "Washington"
  },
  {
    "name": "David Bowen Sporting Goods",
    "description": "Clothing Stores",
    "phone": "(850) 494-2244",
    "address": "5800 N W St Ste 1  Pensacola, FL 32505",
    "location": "Washington"
  },
  {
    "name": "Big Rhino Screen Printing",
    "description": "Clothing Stores",
    "phone": "(850) 469-9028",
    "address": "2709 N Pace Blvd  Pensacola, FL 32505",
    "location": "Washington"
  },
  {
    "name": "Uniformly Yours",
    "description": "Clothing Stores",
    "phone": "(850) 432-6533",
    "address": "103 Beverly Pkwy  Pensacola, FL 32505",
    "location": "Washington"
  },
  {
    "name": "Maurices - Closed",
    "description": "Clothing Stores",
    "phone": "(850) 479-3500",
    "address": "5100 N 9th Ave Ste A109  Pensacola, FL 32504",
    "location": "Washington"
  },
  {
    "name": "Marshalls",
    "description": "Clothing Stores",
    "phone": "(850) 478-7407",
    "address": "1650 Airport Blvd  Pensacola, FL 32504",
    "location": "Washington"
  },
  {
    "name": "Justice",
    "description": "Clothing Stores",
    "phone": "(850) 479-7378",
    "address": "5100 N 9th Ave Ste F609  Pensacola, FL 32504",
    "location": "Washington"
  },
  {
    "name": "Shoe Station",
    "description": "Clothing Stores",
    "phone": "(850) 474-9311",
    "address": "6601 N Davis Hwy  Pensacola, FL 32504",
    "location": "Washington"
  },
  {
    "name": "JCPenney",
    "description": "Clothing Stores",
    "phone": "(850) 478-4500",
    "address": "7171 N Davis Hwy  Pensacola, FL 32504",
    "location": "Washington"
  },
  {
    "name": "Torrid",
    "description": "Clothing Stores",
    "phone": "(850) 477-8419",
    "address": "5100 N 9th Ave  Pensacola, FL 32504",
    "location": "Washington"
  },
  {
    "name": "Oshkosh B'Gosh",
    "description": "Clothing Stores",
    "phone": "(850) 474-6956",
    "address": "5100 N 9th Ave  Pensacola, FL 32504",
    "location": "Washington"
  },
  {
    "name": "Diva's",
    "description": "Clothing Stores",
    "phone": "(850) 474-1600",
    "address": "5100 N 9th Ave  Pensacola, FL 32504",
    "location": "Washington"
  },
  {
    "name": "The Children's Place",
    "description": "Clothing Stores",
    "phone": "(850) 473-9394",
    "address": "5100 N 9th Ave  Pensacola, FL 32504",
    "location": "Washington"
  },
  {
    "name": "Flight Deck",
    "description": "Clothing Stores",
    "phone": "(850) 497-6528",
    "address": "5100 N 9th Ave  Pensacola, FL 32504",
    "location": "Washington"
  },
  {
    "name": "Windsor",
    "description": "Clothing Stores",
    "phone": "(888) 495-4957",
    "address": "5100 N 9th Ave Spc F60  Pensacola, FL 32504",
    "location": "Washington"
  },
  {
    "name": "Journeys",
    "description": "Clothing Stores",
    "phone": "(850) 857-0780",
    "address": "5100 N 9th Ave  Pensacola, FL 32504",
    "location": "Washington"
  },
  {
    "name": "Contempo Casuals",
    "description": "Clothing Stores",
    "phone": "(850) 478-0609",
    "address": "5100 N 9th Ave  Pensacola, FL 32504",
    "location": "Washington"
  },
  {
    "name": "Snipes",
    "description": "Clothing Stores",
    "phone": "(850) 969-0422",
    "address": "5100 N 9th Ave Ste A105A  Pensacola, FL 32504",
    "location": "Washington"
  },
  {
    "name": "Spencers",
    "description": "Clothing Stores",
    "phone": "(833) 543-0751",
    "address": "5100 Cordova Mall Unit 5100  Pensacola, FL 32504",
    "location": "Washington"
  },
  {
    "name": "Five Below",
    "description": "Clothing Stores",
    "phone": "(850) 299-9459",
    "address": "1654 Airport Blvd Unit 140  Pensacola, FL 32504",
    "location": "Washington"
  },
  {
    "name": "T.J. Maxx & HomeGoods",
    "description": "Clothing Stores",
    "phone": "(850) 476-0333",
    "address": "6625 N Davis Hwy  Pensacola, FL 32504",
    "location": "Washington"
  },
  {
    "name": "Sears",
    "description": "Clothing Stores",
    "phone": "(847) 286-6213",
    "address": "7801 Sears Blvd  Pensacola, FL 32514",
    "location": "Washington"
  },
  {
    "name": "Chico's",
    "description": "Clothing Stores",
    "phone": "(850) 473-6804",
    "address": "5100 N 9th Ave  Pensacola, FL 32504",
    "location": "Washington"
  },
  {
    "name": "Cache",
    "description": "Clothing Stores",
    "phone": "(850) 857-1023",
    "address": "5100 N 9th Ave Ste C337  Pensacola, FL 32504",
    "location": "Washington"
  },
  {
    "name": "Loft",
    "description": "Clothing Stores",
    "phone": "(850) 477-1992",
    "address": "5100 N 9th Ave  Pensacola, FL 32504",
    "location": "Washington"
  },
  {
    "name": "Catherines Plus Sizes",
    "description": "Clothing Stores",
    "phone": "(850) 483-8082",
    "address": "5010 Bayou Blvd Ste 3  Pensacola, FL 32503",
    "location": "Washington"
  },
  {
    "name": "Wet Seal",
    "description": "Clothing Stores",
    "phone": "(850) 478-0011",
    "address": "5100 N 9th Ave Ste B217  Pensacola, FL 32504",
    "location": "Washington"
  },
  {
    "name": "Gibson Girl Clothing",
    "description": "Clothing Stores",
    "phone": "(850) 932-2647",
    "address": "816 Gulf Breeze Pkwy  Gulf Breeze, FL 32561",
    "location": "Washington"
  },
  {
    "name": "Zumiez",
    "description": "Clothing Stores",
    "phone": "(850) 478-6104",
    "address": "5100 N 9th Ave Ste E517  Pensacola, FL 32504",
    "location": "Washington"
  },
  {
    "name": "Two Times A Lady",
    "description": "Clothing Stores",
    "phone": "(850) 474-3778",
    "address": "2755 E Olive Rd  Pensacola, FL 32514",
    "location": "Washington"
  },
  {
    "name": "SEPHORA at Kohl's",
    "description": "Clothing Stores",
    "phone": "(850) 478-3250",
    "address": "9300 Baldridge Dr  Pensacola, FL 32514",
    "location": "Washington"
  },
  {
    "name": "Dirt Cheap",
    "description": "Clothing Stores",
    "phone": "(850) 477-4543",
    "address": "8102 N Davis Hwy  Pensacola, FL 32514",
    "location": "Washington"
  },
  {
    "name": "La Di Da Boutique Inc",
    "description": "Clothing Stores",
    "phone": "(850) 525-3261",
    "address": "875 E Nine Mile Rd, Suite 13  Pensacola, FL 32514",
    "location": "Washington"
  },
  {
    "name": "Gent's Formal Wear",
    "description": "Clothing Stores",
    "phone": "(850) 969-0397",
    "address": "1340 E Nine Mile Rd  Pensacola, FL 32514",
    "location": "Washington"
  },
  {
    "name": "Tropical Waves",
    "description": "Clothing Stores",
    "phone": "(850) 932-4155",
    "address": "3 Via De Luna Dr  Gulf Breeze, FL 32561",
    "location": "Washington"
  },
  {
    "name": "Islanders Surf & Sport",
    "description": "Clothing Stores",
    "phone": "(850) 916-0454",
    "address": "400 Quietwater Beach Rd Ste 6A  Gulf Breeze, FL 32561",
    "location": "Washington"
  },
  {
    "name": "Hiram's Tailor",
    "description": "Clothing Stores",
    "phone": "(850) 450-8813",
    "address": "2939 Coral Strip Pkwy  Gulf Breeze, FL 32563",
    "location": "Washington"
  },
  {
    "name": "Currin Graphics",
    "description": "Clothing Stores",
    "phone": "(850) 505-0955",
    "address": "2814 Copter Rd  Pensacola, FL 32514",
    "location": "Washington"
  },
  {
    "name": "Logo Masters International Inc",
    "description": "Clothing Stores",
    "phone": "(850) 937-6770",
    "address": "3018 Stefani Road, Bldg. 2  Cantonment, FL 32533",
    "location": "Washington"
  },
  {
    "name": "Walmart Supercenter",
    "description": "General Merchandise",
    "phone": "(850) 453-6311",
    "address": "501 N Navy Blvd  Pensacola, FL 32507",
    "location": "Washington"
  },
  {
    "name": "Cato Fashions",
    "description": "Women's Clothing",
    "phone": "(850) 455-4615",
    "address": "400 N Navy Blvd  Pensacola, FL 32507",
    "location": "Washington"
  },
  {
    "name": "Hibbett Sports",
    "description": "Sporting Goods",
    "phone": "(850) 455-4822",
    "address": "400 N Navy Blvd Ste 6B  Pensacola, FL 32507",
    "location": "Washington"
  },
  {
    "name": "pOpshelf",
    "description": "Variety Stores",
    "phone": "(850) 361-2299",
    "address": "400 N Navy Blvd  Pensacola, FL 32507",
    "location": "Washington"
  },
  {
    "name": "West Marine",
    "description": "Boat Equipment & Supplies",
    "phone": "(850) 453-8447",
    "address": "3500 Barrancas Ave  Pensacola, FL 32507",
    "location": "Washington"
  },
  {
    "name": "Good Times Stop",
    "description": "Department Stores",
    "phone": "(850) 791-6775",
    "address": "3319 Mobile Hwy  Pensacola, FL 32505",
    "location": "Washington"
  },
  {
    "name": "Kay Fashions",
    "description": "Women's Clothing",
    "phone": "(850) 433-1444",
    "address": "2601 W Cervantes St  Pensacola, FL 32505",
    "location": "Washington"
  },
  {
    "name": "Wal-Mart SuperCenter",
    "description": "General Merchandise",
    "phone": "(850) 455-9852",
    "address": "4600 Mobile Hwy  Pensacola, FL 32506",
    "location": "Washington"
  },
  {
    "name": "Renee's Bridal & Special Occasions",
    "description": "Women's Clothing",
    "phone": "(850) 494-7924",
    "address": "811 W Garden St  Pensacola, FL 32502",
    "location": "Washington"
  },
  {
    "name": "Downtown Motorsports",
    "description": "Sportswear",
    "phone": "(850) 637-3867",
    "address": "1299 N W St  Pensacola, FL 32505",
    "location": "Washington"
  },
  {
    "name": "First National Bank",
    "description": "Discount Stores",
    "phone": "(850) 455-1817",
    "address": "4600 Mobile Hwy  Pensacola, FL 32506",
    "location": "Washington"
  },
  {
    "name": "Simply Fashion",
    "description": "Women's Clothing",
    "phone": "(850) 457-4084",
    "address": "4600 Mobile Hwy  Pensacola, FL 32506",
    "location": "Washington"
  },
  {
    "name": "The Market",
    "description": "Women's Clothing",
    "phone": "(850) 434-3012",
    "address": "248 W Garden St  Pensacola, FL 32502",
    "location": "Washington"
  },
  {
    "name": "Lovin Mood Lingerie",
    "description": "Sporting Goods",
    "phone": "(850) 462-5548",
    "address": "5104 N W St  Pensacola, FL 32505",
    "location": "Washington"
  },
  {
    "name": "Weatherford's Outback",
    "description": "Sportswear",
    "phone": "(850) 469-9922",
    "address": "3009 E Cervantes St  Pensacola, FL 32503",
    "location": "Washington"
  },
  {
    "name": "Target",
    "description": "General Merchandise",
    "phone": "(850) 454-3000",
    "address": "2950 S Blue Angel Pkwy  Pensacola, FL 32506",
    "location": "Washington"
  },
  {
    "name": "Simply 6",
    "description": "Women's Fashion Accessories",
    "phone": "(850) 432-5711",
    "address": "3300 N Pace Blvd  Pensacola, FL 32505",
    "location": "Washington"
  },
  {
    "name": "Indigeaux Denim Bar & Boutique",
    "description": "Boutique Items",
    "phone": "(850) 607-2255",
    "address": "116 Palafox Pl  Pensacola, FL 32502",
    "location": "Washington"
  },
  {
    "name": "Pink",
    "description": "Women's Clothing",
    "phone": "(850) 439-1191",
    "address": "101 E Government St  Pensacola, FL 32502",
    "location": "Washington"
  },
  {
    "name": "La Bona International Boutique",
    "description": "Women's Clothing",
    "phone": "(850) 857-1211",
    "address": "507 S Adams St  Pensacola, FL 32502",
    "location": "Washington"
  },
  {
    "name": "Simply 10",
    "description": "Women's Clothing",
    "phone": "(850) 444-8410",
    "address": "3300 N Pace Blvd Town & Country  Pensacola, FL 32505",
    "location": "Washington"
  },
  {
    "name": "Bluetique",
    "description": "Women's Clothing",
    "phone": "(850) 432-1264",
    "address": "212 S Alcaniz St  Pensacola, FL 32502",
    "location": "Washington"
  },
  {
    "name": "Accessories Plus",
    "description": "Women's Clothing",
    "phone": "(850) 457-1111",
    "address": "643 Cedar Bluff Dr  Pensacola, FL 32506",
    "location": "Washington"
  },
  {
    "name": "Sam's Dollar Store",
    "description": "Variety Stores",
    "phone": "(850) 453-2679",
    "address": "10447 Sorrento Rd  Pensacola, FL 32507",
    "location": "Washington"
  },
  {
    "name": "Scout",
    "description": "Women's Clothing",
    "phone": "(850) 607-7105",
    "address": "404 E Wright St  Pensacola, FL 32501",
    "location": "Washington"
  },
  {
    "name": "Beauty Town",
    "description": "Barbers Equipment & Supplies",
    "phone": "(850) 434-5633",
    "address": "3300 N Pace Blvd Ste 20  Pensacola, FL 32505",
    "location": "Washington"
  },
  {
    "name": "Bodied By Chazz",
    "description": "Women's Clothing",
    "phone": "(850) 741-2615",
    "address": "3300 N Pace Blvd  Pensacola, FL 32505",
    "location": "Washington"
  },
  {
    "name": "Michele's Ladies Apparel",
    "description": "Women's Clothing",
    "phone": "(850) 435-2862",
    "address": "2013 N Palafox St  Pensacola, FL 32501",
    "location": "Washington"
  },
  {
    "name": "Sobo Boutique",
    "description": "Women's Clothing",
    "phone": "(850) 434-0258",
    "address": "518 N 9th Ave  Pensacola, FL 32501",
    "location": "Washington"
  },
  {
    "name": "Levels",
    "description": "Women's Clothing",
    "phone": "(850) 332-5514",
    "address": "2829 W Michigan Ave #a  Pensacola, FL 32526",
    "location": "Washington"
  },
  {
    "name": "Aqua Decor & Design",
    "description": "Interior Designers & Decorators",
    "phone": "(850) 912-4744",
    "address": "1320 N 9th Ave  Pensacola, FL 32503",
    "location": "Washington"
  },
  {
    "name": "Lee Tracy",
    "description": "Women's Clothing",
    "phone": "(850) 912-8639",
    "address": "701 E Gregory St  Pensacola, FL 32502",
    "location": "Washington"
  },
  {
    "name": "Latinos & Parties",
    "description": "General Merchandise",
    "phone": "(850) 637-1075",
    "address": "5222 N W St  Pensacola, FL 32505",
    "location": "Washington"
  },
  {
    "name": "Eileen Fisher",
    "description": "Women's Clothing",
    "phone": "(850) 434-3012",
    "address": "28 W Garden St  Pensacola, FL 32502",
    "location": "Washington"
  },
  {
    "name": "Dt Fashion",
    "description": "Women's Clothing",
    "phone": "(850) 435-9804",
    "address": "1119 N 8th Ave  Pensacola, FL 32503",
    "location": "Washington"
  },
  {
    "name": "Lids",
    "description": "Hat Shops",
    "phone": "(850) 476-6553",
    "address": "5100 N 9th Ave  Pensacola, FL 32504",
    "location": "Washington"
  },
  {
    "name": "American Freight - Appliance, Furniture, Mattress",
    "description": "Discount Stores",
    "phone": "(850) 474-0948",
    "address": "6235 N Davis Hwy Ste 101  Pensacola, FL 32504",
    "location": "Washington"
  },
  {
    "name": "Talbots",
    "description": "Women's Clothing",
    "phone": "(850) 494-2667",
    "address": "4411 Bayou Blvd  Pensacola, FL 32503",
    "location": "Washington"
  },
  {
    "name": "Lil Johns Big and Tall Mens Fashion and Alteration Shop",
    "description": "Men's Clothing",
    "phone": "(850) 484-0904",
    "address": "5700 N Davis Hwy  Pensacola, FL 32503",
    "location": "Washington"
  },
  {
    "name": "Edwin Watts Golf",
    "description": "Golf Equipment & Supplies",
    "phone": "(850) 477-0519",
    "address": "5711 N Davis Hwy  Pensacola, FL 32503",
    "location": "Washington"
  },
  {
    "name": "Rococo",
    "description": "Candles",
    "phone": "(850) 607-6073",
    "address": "4970 Bayou Blvd  Pensacola, FL 32503",
    "location": "Washington"
  },
  {
    "name": "Soma Intimates",
    "description": "Lingerie",
    "phone": "(850) 479-4855",
    "address": "5100 N 9th Ave  Pensacola, FL 32504",
    "location": "Washington"
  },
  {
    "name": "Lady Foot Locker",
    "description": "Shoe Stores",
    "phone": "(850) 478-4855",
    "address": "5100 N 9th Ave  Pensacola, FL 32504",
    "location": "Washington"
  },
  {
    "name": "Foot Locker",
    "description": "Shoe Stores",
    "phone": "(850) 478-1693",
    "address": "5100 N 9th Ave  Pensacola, FL 32504",
    "location": "Washington"
  },
  {
    "name": "Victoria's Secret",
    "description": "Lingerie",
    "phone": "(850) 479-8655",
    "address": "5100 N 9th Ave  Pensacola, FL 32504",
    "location": "Washington"
  },
  {
    "name": "Finish Line",
    "description": "Shoe Stores",
    "phone": "(850) 969-0478",
    "address": "5100 N 9th Ave Ste E515  Pensacola, FL 32504",
    "location": "Washington"
  },
  {
    "name": "Christopher & Banks",
    "description": "Women's Clothing",
    "phone": "(850) 477-9903",
    "address": "5100 N 9th Ave  Pensacola, FL 32504",
    "location": "Washington"
  },
  {
    "name": "Frederick's of Hollywood",
    "description": "Lingerie",
    "phone": "(850) 476-3490",
    "address": "5100 N 9th Ave Ste H805  Pensacola, FL 32504",
    "location": "Washington"
  },
  {
    "name": "Body Central",
    "description": "Women's Clothing",
    "phone": "(850) 478-4772",
    "address": "5100 N 9th Ave  Pensacola, FL 32504",
    "location": "Washington"
  },
  {
    "name": "Dan & Joyce Trading Inc",
    "description": "Women's Clothing",
    "phone": "(850) 476-7477",
    "address": "5100 N 9th Ave  Pensacola, FL 32504",
    "location": "Washington"
  },
  {
    "name": "BCBGMAXAZRIA",
    "description": "Women's Clothing",
    "phone": "(850) 474-1278",
    "address": "5100 N 9th Ave  Pensacola, FL 32504",
    "location": "Washington"
  },
  {
    "name": "DressBarn",
    "description": "Women's Clothing",
    "phone": "(850) 494-2024",
    "address": "5100 N 9th Ave  Pensacola, FL 32504",
    "location": "Washington"
  },
  {
    "name": "Footaction USA",
    "description": "Shoe Stores",
    "phone": "(850) 478-0872",
    "address": "5100 N 9th Ave  Pensacola, FL 32504",
    "location": "Washington"
  },
  {
    "name": "Belk",
    "description": "Department Stores",
    "phone": "(850) 484-3300",
    "address": "5100 N 9th Ave  Pensacola, FL 32504",
    "location": "Washington"
  },
  {
    "name": "Aerie",
    "description": "Women's Clothing",
    "phone": "(850) 483-6048",
    "address": "5100 N 9th Ave Ste D421A  Pensacola, FL 32504",
    "location": "Washington"
  },
  {
    "name": "Lane Bryant - Closed",
    "description": "Women's Clothing",
    "phone": "(850) 466-4994",
    "address": "5100 N 9th Ave  Pensacola, FL 32504",
    "location": "Washington"
  },
  {
    "name": "Motherhood Maternity",
    "description": "Maternity Clothes",
    "phone": "(850) 494-0277",
    "address": "5100 N 9th Ave Ste A121  Pensacola, FL 32504",
    "location": "Washington"
  },
  {
    "name": "Men's Wearhouse",
    "description": "Men's Clothing",
    "phone": "(850) 475-5891",
    "address": "5100 N 9th Ave  Pensacola, FL 32504",
    "location": "Washington"
  },
  {
    "name": "Dick's Sporting Goods",
    "description": "Sporting Goods",
    "phone": "(850) 478-9605",
    "address": "5100 N 9th Ave  Pensacola, FL 32504",
    "location": "Washington"
  },
  {
    "name": "Vans",
    "description": "Shoe Stores",
    "phone": "(850) 477-4900",
    "address": "5100 N 9th Ave Ste A122  Pensacola, FL 32504",
    "location": "Washington"
  },
  {
    "name": "Versona",
    "description": "Women's Clothing",
    "phone": "(850) 474-9966",
    "address": "5100 N 9th Ave  Pensacola, FL 32504",
    "location": "Washington"
  },
  {
    "name": "Champs Sports",
    "description": "Sportswear",
    "phone": "(850) 474-8886",
    "address": "5100 N 9th Ave  Pensacola, FL 32504",
    "location": "Washington"
  },
  {
    "name": "JoS. A. Bank",
    "description": "Men's Clothing",
    "phone": "(850) 475-2664",
    "address": "5100 N 9th Ave  Pensacola, FL 32504",
    "location": "Washington"
  },
  {
    "name": "Francesca's",
    "description": "Women's Clothing",
    "phone": "(850) 262-8829",
    "address": "5100 N 9th Ave  Pensacola, FL 32504",
    "location": "Washington"
  },
  {
    "name": "Ann Taylor",
    "description": "Women's Clothing",
    "phone": "(850) 477-1992",
    "address": "5100 N 9th Ave Ste E3  Pensacola, FL 32504",
    "location": "Washington"
  },
  {
    "name": "Go Fish Clothing & Jewelry Co",
    "description": "Women's Clothing",
    "phone": "(850) 934-5251",
    "address": "6993 Forshalee St  Pensacola, FL 32503",
    "location": "Washington"
  },
  {
    "name": "Sears Outlet",
    "description": "Discount Stores",
    "phone": "(850) 474-0949",
    "address": "6235 N Davis Hwy Ste 101  Pensacola, FL 32504",
    "location": "Washington"
  },
  {
    "name": "Bealls Florida",
    "description": "Home Furnishings",
    "phone": "(850) 479-3313",
    "address": "6241 N Davis Hwy  Pensacola, FL 32504",
    "location": "Washington"
  },
  {
    "name": "Rack Room Shoes",
    "description": "Shoe Stores",
    "phone": "(850) 477-1022",
    "address": "7171 N Davis Hwy  Pensacola, FL 32504",
    "location": "Washington"
  },
  {
    "name": "Famous Footwear",
    "description": "Shoe Stores",
    "phone": "(850) 476-2946",
    "address": "7171 N Davis Hwy  Pensacola, FL 32504",
    "location": "Washington"
  },
  {
    "name": "Academy Sports + Outdoors",
    "description": "Sporting Goods",
    "phone": "(850) 473-3800",
    "address": "7171 N Davis Hwy  Pensacola, FL 32504",
    "location": "Washington"
  },
  {
    "name": "McRae's Department Store",
    "description": "Department Stores",
    "phone": "(850) 494-6221",
    "address": "7171 N Davis Hwy  Pensacola, FL 32504",
    "location": "Washington"
  },
  {
    "name": "Bridal Suite",
    "description": "Women's Clothing",
    "phone": "(850) 494-9989",
    "address": "2401 Langley Ave  Pensacola, FL 32504",
    "location": "Washington"
  },
  {
    "name": "Jen's Designer Deals",
    "description": "Women's Clothing",
    "phone": "(850) 384-5368",
    "address": "360 Gulf Breeze Pkwy  Gulf Breeze, FL 32561",
    "location": "Washington"
  },
  {
    "name": "Tennis Girl",
    "description": "Tennis Equipment & Supplies",
    "phone": "(850) 932-2554",
    "address": "504 Plantation Hill Rd  Gulf Breeze, FL 32561",
    "location": "Washington"
  },
  {
    "name": "The Bridal Suite",
    "description": "Bridal Shops",
    "phone": "(850) 494-9989",
    "address": "1340 E Nine Mile Rd  Pensacola, FL 32514",
    "location": "Washington"
  },
  {
    "name": "Runway Chic",
    "description": "Women's Clothing",
    "phone": "(850) 332-7200",
    "address": "8084 N Davis Hwy  Pensacola, FL 32514",
    "location": "Washington"
  },
  {
    "name": "Channel Control Merchants",
    "description": "Discount Stores",
    "phone": "(850) 477-4543",
    "address": "8102 N Davis Hwy  Pensacola, FL 32514",
    "location": "Washington"
  },
  {
    "name": "AVON",
    "description": "Gift Baskets",
    "phone": "(850) 696-9030",
    "address": "8311 Beal St  Pensacola, FL 32514",
    "location": "Washington"
  },
  {
    "name": "Blues Conspiracy",
    "description": "Shirts-Custom Made",
    "phone": "(850) 492-7512",
    "address": "13900 Canal Dr  Pensacola, FL 32507",
    "location": "Washington"
  },
  {
    "name": "Cato",
    "description": "Women's Clothing",
    "phone": "(850) 479-9735",
    "address": "8970 Pensacola Blvd  Pensacola, FL 32534",
    "location": "Washington"
  },
  {
    "name": "Ministry Village Bargain Center",
    "description": "Department Stores",
    "phone": "(850) 912-8222",
    "address": "92 E Nine Mile Rd  Pensacola, FL 32534",
    "location": "Washington"
  },
  {
    "name": "Yeagle & Patterson-Reece",
    "description": "Women's Clothing",
    "phone": "(850) 497-6090",
    "address": "8800 University Pkwy  Pensacola, FL 32514",
    "location": "Washington"
  },
  {
    "name": "Barefoot Gypsy Boutique",
    "description": "Resale Shops",
    "phone": "(850) 281-7060",
    "address": "13700 Perdido Key Dr Unit 121  Pensacola, FL 32507",
    "location": "Washington"
  },
  {
    "name": "Drift Boutique",
    "description": "Boutique Items",
    "phone": "(850) 332-5126",
    "address": "955 E Nine Mile Rd Ste 105  Pensacola, FL 32514",
    "location": "Washington"
  },
  {
    "name": "Gypsi Southern",
    "description": "Women's Clothing",
    "phone": "(850) 332-7042",
    "address": "2600 W Nine Mile Rd  Pensacola, FL 32534",
    "location": "Washington"
  },
  {
    "name": "Walmart Grocery Pickup",
    "description": "Department Stores",
    "phone": "(850) 208-2103",
    "address": "1525 E Nine Mile Rd  Pensacola, FL 32514",
    "location": "Washington"
  },
  {
    "name": "Sears Hometown Stores",
    "description": "Department Stores",
    "phone": "(850) 857-5150",
    "address": "8792 Ely St  Pensacola, FL 32514",
    "location": "Washington"
  },
  {
    "name": "Live Oak Trading",
    "description": "General Merchandise",
    "phone": "(850) 203-1999",
    "address": "4222 Gulf Breeze Pkwy  Gulf Breeze, FL 32563",
    "location": "Washington"
  },
  {
    "name": "Caseys Discount Guns",
    "description": "Department Stores",
    "phone": "(251) 961-7664",
    "address": "9980 Soldier Creek Rd  Lillian, AL 36549",
    "location": "Washington"
  }
]