[
  {
    "name": "H & H Media Group",
    "description": "Marketing Programs & Services",
    "phone": "(352) 559-5599",
    "address": "13432 NW 135th Dr  Alachua, FL 32615",
    "location": "Alachua"
  },
  {
    "name": "Jeremy Lee Designs, LLC",
    "description": "Graphic Designers",
    "phone": "(352) 256-0797",
    "address": "4823 NW 79th Rd  Gainesville, FL 32653",
    "location": "Alachua"
  },
  {
    "name": "CJW Global Solutions",
    "description": "Business Coaches & Consultants",
    "phone": "(518) 618-2107",
    "address": "8135 NW 54th St  Gainesville, FL 32653",
    "location": "Alachua"
  },
  {
    "name": "High Impact Media Solutions",
    "description": "Marketing Consultants",
    "phone": "(386) 205-9612",
    "address": "15202 NW 147th Dr Ste 1200-168  Alachua, FL 32615",
    "location": "Alachua"
  },
  {
    "name": "Chameleon Marketing Group",
    "description": "Marketing Consultants",
    "phone": "(386) 518-5310",
    "address": "6201 NW 123rd Pl  Gainesville, FL 32653",
    "location": "Alachua"
  },
  {
    "name": "Restaurant Results Partners",
    "description": "Marketing Programs & Services",
    "phone": "(352) 320-4934",
    "address": "5127 NW 39th Ave  Gainesville, FL 32606",
    "location": "Alachua"
  },
  {
    "name": "Adsam Marketing",
    "description": "Marketing Programs & Services",
    "phone": "(352) 371-3737",
    "address": "5206 NW 50th Ln  Gainesville, FL 32653",
    "location": "Alachua"
  },
  {
    "name": "Retyp LLC",
    "description": "Marketing Programs & Services",
    "phone": "(561) 247-5395",
    "address": "5127 NW 24th Dr  Gainesville, FL 32605",
    "location": "Alachua"
  },
  {
    "name": "Premier Marketing Experts LLC",
    "description": "Internet Marketing & Advertising",
    "phone": "(352) 356-8711",
    "address": "9200 NW 39th Ave Ste 130-40  Gainesville, FL 32606",
    "location": "Alachua"
  },
  {
    "name": "Gator Town Daily Deals",
    "description": "Internet Marketing & Advertising",
    "phone": "(352) 264-0068",
    "address": "5200 NW 43rd St Ste 102-182  Gainesville, FL 32606",
    "location": "Alachua"
  },
  {
    "name": "Chef S McPherson Consulting Inc",
    "description": "Marketing Consultants",
    "phone": "(866) 784-9225",
    "address": "3723 NW 62nd Pl  Gainesville, FL 32653",
    "location": "Alachua"
  },
  {
    "name": "Online Potential Inc",
    "description": "Internet Marketing & Advertising",
    "phone": "(352) 234-4372",
    "address": "5126 NW 59th Ln  Gainesville, FL 32653",
    "location": "Alachua"
  },
  {
    "name": "American Directions Group",
    "description": "Market Research & Analysis",
    "phone": "(352) 727-7667",
    "address": "4703 NW 53rd Ave Ste A4  Gainesville, FL 32653",
    "location": "Alachua"
  },
  {
    "name": "Data Targeting Inc",
    "description": "Market Research & Analysis",
    "phone": "(352) 332-2115",
    "address": "3515 NW 98th St  Gainesville, FL 32606",
    "location": "Alachua"
  },
  {
    "name": "Blu Dove Designs",
    "description": "Web Site Design & Services",
    "phone": "(800) 875-0380",
    "address": "4635 NW 53rd Ave Suite 205-e  Gainesville, FL 32653",
    "location": "Alachua"
  },
  {
    "name": "Spotlight Website Design",
    "description": "Internet Marketing & Advertising",
    "phone": "(352) 359-7827",
    "address": "5200 NW 43rd St Ste 102-213  Gainesville, FL 32606",
    "location": "Alachua"
  },
  {
    "name": "Skullasticaffairs.com",
    "description": "Internet Marketing & Advertising",
    "phone": "(716) 866-7672",
    "address": "Nw 86th Blvd  Gainesville, FL 32653",
    "location": "Alachua"
  },
  {
    "name": "Catheryn Johnson Corp",
    "description": "Marketing Consultants",
    "phone": "(352) 327-9049",
    "address": "4703 NW 53rd Ave  Gainesville, FL 32653",
    "location": "Alachua"
  },
  {
    "name": "Get Leads Group",
    "description": "Marketing Consultants",
    "phone": "(352) 642-0470",
    "address": "5127 NW 39th Ave  Gainesville, FL 32606",
    "location": "Alachua"
  },
  {
    "name": "Essex Street Consulting LLC",
    "description": "Consultants Referral Service",
    "phone": "(352) 256-0831",
    "address": "4111 nw 43rd st  Gainesville, FL 32606",
    "location": "Alachua"
  },
  {
    "name": "Bee Persuasive",
    "description": "Advertising-Broadcast & Film",
    "phone": "(352) 246-3969",
    "address": "3534 NW 40th Ter  Gainesville, FL 32606",
    "location": "Alachua"
  },
  {
    "name": "The Underdog",
    "description": "Marketing Programs & Services",
    "phone": "(305) 496-6677",
    "address": "4203 NW 15th Pl  Gainesville, FL 32605",
    "location": "Alachua"
  },
  {
    "name": "Ocala Star Banner",
    "description": "Marketing Programs & Services",
    "phone": "(352) 867-4010",
    "address": "2700 SW 13th St  Gainesville, FL 32608",
    "location": "Alachua"
  },
  {
    "name": "MGS Marketing Data",
    "description": "Marketing Programs & Services",
    "phone": "(951) 824-8839",
    "address": "3315 NW 11th st  gainesville, FL 32609",
    "location": "Alachua"
  },
  {
    "name": "B R Marketing",
    "description": "Marketing Programs & Services",
    "phone": "(352) 376-8368",
    "address": "3961 SW 6th Pl  Gainesville, FL 32607",
    "location": "Alachua"
  },
  {
    "name": "SharpSpring",
    "description": "Marketing Programs & Services",
    "phone": "(352) 835-0549",
    "address": "304 W University Ave  Gainesville, FL 32601",
    "location": "Alachua"
  },
  {
    "name": "Digital Brands Inc",
    "description": "Marketing Programs & Services",
    "phone": "(888) 217-5962",
    "address": "15 SE 1st Ave, 2nd Floor  Gainesville, FL 32601",
    "location": "Alachua"
  },
  {
    "name": "Marketing Mud",
    "description": "Marketing Programs & Services",
    "phone": "(352) 281-8156",
    "address": "1314 S Main St  Gainesville, FL 32601",
    "location": "Alachua"
  },
  {
    "name": "Allegra",
    "description": "Marketing Programs & Services",
    "phone": "(352) 373-7547",
    "address": "327 NW 23rd Ave  Gainesville, FL 32609",
    "location": "Alachua"
  },
  {
    "name": "SharpSpring, Inc",
    "description": "Marketing Programs & Services",
    "phone": "(352) 433-4232",
    "address": "5001 Celebration Pointe Ave Ste 410  Gainesville, FL 32608",
    "location": "Alachua"
  },
  {
    "name": "Modernized Mobile",
    "description": "Marketing Programs & Services",
    "phone": "(352) 221-9531",
    "address": "747 SW 2nd Ave  Gainesville, FL 32601",
    "location": "Alachua"
  },
  {
    "name": "Houchens Consulting Inc",
    "description": "Marketing Programs & Services",
    "phone": "(352) 562-0310",
    "address": "6265 SW 50th St  Gainesville, FL 32608",
    "location": "Alachua"
  },
  {
    "name": "Elite Computing Concepts",
    "description": "Internet Marketing & Advertising",
    "phone": "(352) 575-0618",
    "address": "5100 SW 91st Ter  Gainesville, FL 32608",
    "location": "Alachua"
  },
  {
    "name": "PHOS Creative",
    "description": "Internet Marketing & Advertising",
    "phone": "(352) 505-3626",
    "address": "2131 NW 40th Ter Ste B  Gainesville, FL 32605",
    "location": "Alachua"
  },
  {
    "name": "BestMarketingConsultant.com",
    "description": "Marketing Consultants",
    "phone": "(229) 938-4041",
    "address": "1112 SE 7th Ave  Gainesville, FL 32601",
    "location": "Alachua"
  },
  {
    "name": "Ball Copywriting Services",
    "description": "Marketing Consultants",
    "phone": "(630) 272-8141",
    "address": "2801 NW 23rd Blvd Apt P-102  Gainesville, FL 32605",
    "location": "Alachua"
  },
  {
    "name": "Ibiza Branding",
    "description": "Marketing Consultants",
    "phone": "(352) 213-5906",
    "address": "235 S Main St. Suite 206  Gainesville, FL 32601",
    "location": "Alachua"
  },
  {
    "name": "Liquid Creative - Marketing Agency (Gainesville)",
    "description": "Marketing Consultants",
    "phone": "(352) 600-5050",
    "address": "602 S Main St Ste 1202  Gainesville, FL 32601",
    "location": "Alachua"
  },
  {
    "name": "Perceptive Market Research Inc",
    "description": "Market Research & Analysis",
    "phone": "(352) 336-6760",
    "address": "3615 SW 13th St  Gainesville, FL 32608",
    "location": "Alachua"
  },
  {
    "name": "The Versatile Group of Hollywood, Inc,.",
    "description": "Internet Marketing & Advertising",
    "phone": "(954) 274-7538",
    "address": "7070 SW 24th Ave  Gainesville, FL 32607",
    "location": "Alachua"
  },
  {
    "name": "Azurea Inc",
    "description": "Market Research & Analysis",
    "phone": "(352) 378-0555",
    "address": "6342 NW 18th Dr  Gainesville, FL 32653",
    "location": "Alachua"
  },
  {
    "name": "Florida Research Institute",
    "description": "Market Research & Analysis",
    "phone": "(352) 375-3982",
    "address": "3615 SW 13th St Ste 5  Gainesville, FL 32608",
    "location": "Alachua"
  },
  {
    "name": "Pdhlibrary.com",
    "description": "Internet Marketing & Advertising",
    "phone": "(352) 367-2526",
    "address": "4566 NW 5th Blvd  Gainesville, FL 32609",
    "location": "Alachua"
  },
  {
    "name": "Shitcha SEO Gainesville",
    "description": "Internet Marketing & Advertising",
    "phone": "(386) 315-1353",
    "address": "2103 SW 75th Ter  gainesville, FL 32607",
    "location": "Alachua"
  },
  {
    "name": "Amber Innana-Plug In Profit",
    "description": "Internet Marketing & Advertising",
    "phone": "(352) 328-0929",
    "address": "1120 NW  Gainesville, FL 32609",
    "location": "Alachua"
  },
  {
    "name": "Gainesville Local SEO And Web Designs",
    "description": "Internet Marketing & Advertising",
    "phone": "(352) 325-1786",
    "address": "32 E University Ave  Gainesville, FL 32601",
    "location": "Alachua"
  },
  {
    "name": "RedZero Web Design",
    "description": "Internet Marketing & Advertising",
    "phone": "(352) 339-2906",
    "address": "5110 SW 91st Dr Suite B  Gainesville, FL 32608",
    "location": "Alachua"
  },
  {
    "name": "Gatorshout",
    "description": "Marketing Consultants",
    "phone": "(352) 358-1190",
    "address": "4300 NW 23rd Ave  Gainesville, FL 32606",
    "location": "Alachua"
  },
  {
    "name": "Allied Marketing Insurance",
    "description": "Insurance",
    "phone": "(352) 554-5425",
    "address": "2233 NW 41st St  Gainesville, FL 32606",
    "location": "Alachua"
  },
  {
    "name": "SD Marketing One",
    "description": "Marketing Consultants",
    "phone": "(352) 240-6299",
    "address": "6419 W Newberry Rd  Gainesville, FL 32605",
    "location": "Alachua"
  },
  {
    "name": "Corporate Marketing Solutions",
    "description": "Marketing Consultants",
    "phone": "(352) 371-6444",
    "address": "5200 Newberry Rd  Gainesville, FL 32607",
    "location": "Alachua"
  },
  {
    "name": "Rgi Medical",
    "description": "Marketing Consultants",
    "phone": "(352) 378-3633",
    "address": "4637 NW 6th St Ste A  Gainesville, FL 32609",
    "location": "Alachua"
  },
  {
    "name": "IMG College Gator Sports Marketing",
    "description": "Marketing Consultants",
    "phone": "(352) 505-5229",
    "address": "3909 Newberry Rd  Gainesville, FL 32607",
    "location": "Alachua"
  },
  {
    "name": "Wj Marketing Concepts",
    "description": "Marketing Consultants",
    "phone": "(352) 260-0404",
    "address": "3324 W University Ave  Gainesville, FL 32607",
    "location": "Alachua"
  },
  {
    "name": "My Time Apps",
    "description": "Marketing Consultants",
    "phone": "(352) 872-5997",
    "address": "1212 NW 12th Ave  Gainesville, FL 32601",
    "location": "Alachua"
  },
  {
    "name": "Vector Marketing",
    "description": "Marketing Consultants",
    "phone": "(352) 508-1348",
    "address": "502 NW 16th Ave  Gainesville, FL 32601",
    "location": "Alachua"
  },
  {
    "name": "My Time Apps Inc",
    "description": "Marketing Consultants",
    "phone": "(352) 872-5997",
    "address": "204 W University Ave  Gainesville, FL 32601",
    "location": "Alachua"
  },
  {
    "name": "Liquid Creative - Marketing Agency Gainesville",
    "description": "Marketing Consultants",
    "phone": "(352) 600-5050",
    "address": "309 NE 1st St  Gainesville, FL 32601",
    "location": "Alachua"
  },
  {
    "name": "Kar Media",
    "description": "Marketing Consultants",
    "phone": "(352) 505-5587",
    "address": "20 W University Ave Ste 301  Gainesville, FL 32601",
    "location": "Alachua"
  },
  {
    "name": "Bulter Enterprise",
    "description": "Marketing Consultants",
    "phone": "(352) 373-0095",
    "address": "3524 SW Archer Rd  Gainesville, FL 32608",
    "location": "Alachua"
  },
  {
    "name": "KPL & Associates, LLC",
    "description": "Insurance",
    "phone": "(352) 217-6744",
    "address": "7950 SW 47th ct  Gainesville, FL 32608",
    "location": "Alachua"
  },
  {
    "name": "JBH & Associates",
    "description": "Business Coaches & Consultants",
    "phone": "(352) 335-9559",
    "address": "701 SW 23rd Pl  Gainesville, FL 32601",
    "location": "Alachua"
  },
  {
    "name": "Ubizmedia Digital Marketing",
    "description": "Marketing Consultants",
    "phone": "(352) 614-8303",
    "address": "1510 SW Old Lake City Ter  High Springs, FL 32643",
    "location": "Alachua"
  },
  {
    "name": "The Forrester Group, Inc",
    "description": "Internet Marketing & Advertising",
    "phone": "(727) 439-8337",
    "address": "156 NE 46th Ter  Gainesville, FL 32641",
    "location": "Alachua"
  },
  {
    "name": "Divegear.com",
    "description": "Internet Marketing & Advertising",
    "phone": "(386) 454-8158",
    "address": "18481 High Springs Main St  High Springs, FL 32643",
    "location": "Alachua"
  },
  {
    "name": "Gino's-Gelato.com",
    "description": "Internet Marketing & Advertising",
    "phone": "(352) 275-4051",
    "address": "20604 NW 250th St  High Springs, FL 32643",
    "location": "Alachua"
  },
  {
    "name": "CDV 505, Inc",
    "description": "Marketing Consultants",
    "phone": "(352) 294-7634",
    "address": "6120 SW 37th Way  Gainesville, FL 32608",
    "location": "Alachua"
  }
]