[
  {
    "name": "Maxzim Marketing Incorporated",
    "description": "Marketing Programs & Services",
    "phone": "(850) 865-9145",
    "address": "2224 S Fairview St  Fort Walton Beach, FL 32548",
    "location": "Baker"
  },
  {
    "name": "G T Marketing of Florida",
    "description": "Marketing Programs & Services",
    "phone": "(850) 682-2166",
    "address": "705 Ashley Dr  Crestview, FL 32536",
    "location": "Baker"
  },
  {
    "name": "total life changes",
    "description": "Marketing Programs & Services",
    "phone": "(850) 225-6278",
    "address": "118 Laurel Oak Ter  Crestview, FL 32536",
    "location": "Baker"
  },
  {
    "name": "Work at Home Jobs and Opportunities",
    "description": "Internet Marketing & Advertising",
    "phone": "(850) 225-6278",
    "address": "118 Laurel Oak Ter  Crestview, FL 32536",
    "location": "Baker"
  },
  {
    "name": "Smart Innovations",
    "description": "Internet Marketing & Advertising",
    "phone": "(334) 730-3389",
    "address": "4830 Young Rd  Crestview, FL 32539",
    "location": "Baker"
  },
  {
    "name": "Independent Scentsy Consultant Jolene Patterson",
    "description": "Candles-Wholesale & Manufacturers",
    "phone": "(850) 603-4806",
    "address": "425 N Hathaway St  Crestview, FL 32539",
    "location": "Baker"
  },
  {
    "name": "Jo's Marykay",
    "description": "Sales Promotion Service",
    "phone": "(850) 826-8830",
    "address": "5565 pine lake dr  Crestview, FL 32539",
    "location": "Baker"
  },
  {
    "name": "Ecomasterboards.com",
    "description": "Internet Marketing & Advertising",
    "phone": "(813) 777-6661",
    "address": "5715 Highway 85 N  Crestview, FL 32536",
    "location": "Baker"
  },
  {
    "name": "Irving Gil Designs",
    "description": "Web Site Design & Services",
    "phone": "(210) 204-8883",
    "address": "315 Hudson Dr  Crestview, FL 32539",
    "location": "Baker"
  },
  {
    "name": "Millennium Marketing",
    "description": "Marketing Consultants",
    "phone": "(850) 682-7626",
    "address": "303 E 1st Ave  Crestview, FL 32536",
    "location": "Baker"
  },
  {
    "name": "Trophy Center Inc",
    "description": "Awards",
    "phone": "(850) 862-8413",
    "address": "529 Eglin Pkwy NE  Fort Walton Beach, FL 32547",
    "location": "Baker"
  },
  {
    "name": "Copy Systems Business Center",
    "description": "Commercial Artists",
    "phone": "(850) 279-9100",
    "address": "4821 Us Hwy 98 W  Santa Rosa Beach, FL 32459",
    "location": "Baker"
  }
]