[
  {
    "name": "Smith Consulting & Design, LLC",
    "description": "Marketing Programs & Services",
    "phone": "(813) 733-1582",
    "address": "11928 Sunbuerst Marble Rd  Riverview, FL 33579",
    "location": "Bay"
  },
  {
    "name": "Fullest Extent Media",
    "description": "Marketing Programs & Services",
    "phone": "(813) 658-8234",
    "address": "13194 Us Highway 301 S Ste 143  Riverview, FL 33578",
    "location": "Bay"
  },
  {
    "name": "Webtec Marketing",
    "description": "Marketing Programs & Services",
    "phone": "(828) 380-3854",
    "address": "11823 Twilight Darner Pl  Riverview, FL 33569",
    "location": "Bay"
  },
  {
    "name": "CMK Web Solutions",
    "description": "Internet Marketing & Advertising",
    "phone": "(302) 217-9633",
    "address": "13420 Beechberry Dr  Riverview, FL 33579",
    "location": "Bay"
  },
  {
    "name": "Wolf Bot Ai",
    "description": "Internet Marketing & Advertising",
    "phone": "(855) 965-3268",
    "address": "4846 Sun City Center Blvd  Sun City Center, FL 33573",
    "location": "Bay"
  },
  {
    "name": "Mywidgyhub",
    "description": "Advertising Agencies",
    "phone": "(813) 682-9464",
    "address": "10927 Keys Gate Dr  Riverview, FL 33579",
    "location": "Bay"
  },
  {
    "name": "Travel Blog Success LLC",
    "description": "Internet Marketing & Advertising",
    "phone": "(813) 419-6005",
    "address": "16263 Diamond Bay Dr  Wimauma, FL 33598",
    "location": "Bay"
  },
  {
    "name": "Only195.com",
    "description": "Internet Marketing & Advertising",
    "phone": "(813) 421-0698",
    "address": "13194 Us Highway 301 S  Riverview, FL 33578",
    "location": "Bay"
  },
  {
    "name": "Global Marketing Machine",
    "description": "Internet Marketing & Advertising",
    "phone": "(813) 419-7544",
    "address": "12929 Brookcrest Pl  Riverview, FL 33578",
    "location": "Bay"
  },
  {
    "name": "YBW Marketing Intl Group",
    "description": "Marketing Consultants",
    "phone": "(813) 468-3000",
    "address": "11755 Brenford Crest Dr  Riverview, FL 33579",
    "location": "Bay"
  },
  {
    "name": "Master Marketing Firm",
    "description": "Marketing Programs & Services",
    "phone": "(813) 493-8000",
    "address": "122 Star Shell Dr  Apollo Beach, FL 33572",
    "location": "Bay"
  },
  {
    "name": "Bright Edge Marketing",
    "description": "Marketing Programs & Services",
    "phone": "(608) 931-3160",
    "address": "1032 Royal Empress Dr  Ruskin, FL 33570",
    "location": "Bay"
  },
  {
    "name": "Image Suite PR/Marketing/Media",
    "description": "Marketing Programs & Services",
    "phone": "(813) 419-2494",
    "address": "Po Box 5572  Sun City Center, FL 33571",
    "location": "Bay"
  },
  {
    "name": "KSB Sales & Marketing Agency",
    "description": "Marketing Programs & Services",
    "phone": "(239) 826-7991",
    "address": "6610 Parkshore Drive  Apollo Beach, FL 33572",
    "location": "Bay"
  },
  {
    "name": "Dezerv",
    "description": "Marketing Programs & Services",
    "phone": "(628) 333-9378",
    "address": "805 E Bloomingdale Ave # 685  Brandon, FL 33511",
    "location": "Bay"
  },
  {
    "name": "Marketing Inc Breakthrough Direct",
    "description": "Marketing Programs & Services",
    "phone": "(813) 662-0205",
    "address": "3202 Bloomingdale Ave  Valrico, FL 33596",
    "location": "Bay"
  },
  {
    "name": "Distinctive Impressions Advertising & Promotions",
    "description": "Marketing Programs & Services",
    "phone": "(813) 672-2573",
    "address": "11705 Boyette Rd # 414  Riverview, FL 33569",
    "location": "Bay"
  },
  {
    "name": "Fit Rite Systems",
    "description": "Marketing Programs & Services",
    "phone": "(813) 810-6266",
    "address": "405 Forest Breeze Ave  Brandon, FL 33511",
    "location": "Bay"
  },
  {
    "name": "Total Marketing Concepts",
    "description": "Marketing Programs & Services",
    "phone": "(813) 641-8601",
    "address": "100 Frandorson Cir  Apollo Beach, FL 33572",
    "location": "Bay"
  },
  {
    "name": "Loewenberg Inc",
    "description": "Marketing Programs & Services",
    "phone": "(855) 623-7326",
    "address": "6411 Marbella Blvd  Apollo Beach, FL 33572",
    "location": "Bay"
  },
  {
    "name": "First Rank Marketing",
    "description": "Marketing Programs & Services",
    "phone": "(607) 624-1994",
    "address": "1121 English Bluffs Ct  Brandon, FL 33511",
    "location": "Bay"
  },
  {
    "name": "Eighty-One Eighty Marketing Solutions",
    "description": "Marketing Programs & Services",
    "phone": "(813) 654-6400",
    "address": "753 W Lumsden Rd  Brandon, FL 33511",
    "location": "Bay"
  },
  {
    "name": "NorthStar Financial Consulting",
    "description": "Marketing Programs & Services",
    "phone": "(813) 438-2824",
    "address": "1971 W Lumsden Rd # 180  Brandon, FL 33511",
    "location": "Bay"
  },
  {
    "name": "Extremedia Group Inc",
    "description": "Marketing Programs & Services",
    "phone": "(321) 704-4647",
    "address": "1210 Millennium Pkwy  Brandon, FL 33511",
    "location": "Bay"
  },
  {
    "name": "OptiPro SEO",
    "description": "Marketing Programs & Services",
    "phone": "(813) 317-6521",
    "address": "7307 Guilford Pine Ln  Apollo Beach, FL 33572",
    "location": "Bay"
  },
  {
    "name": "ID Marketing & Events",
    "description": "Marketing Programs & Services",
    "phone": "(813) 419-2526",
    "address": "703 Holly Ter  Brandon, FL 33511",
    "location": "Bay"
  },
  {
    "name": "Superbolt Studios",
    "description": "Marketing Programs & Services",
    "phone": "(813) 203-4624",
    "address": "9648 US Hwy 301 S. #217  Riverview, FL 33569",
    "location": "Bay"
  },
  {
    "name": "Mace Multimedia",
    "description": "Marketing Programs & Services",
    "phone": "(813) 704-0460",
    "address": "10312 Bloomingdale Ave Ste 108-380  Riverview, FL 33578",
    "location": "Bay"
  },
  {
    "name": "Impact Media Creations",
    "description": "Marketing Programs & Services",
    "phone": "(813) 655-0639",
    "address": "848 Burlwood St  Brandon, FL 33511",
    "location": "Bay"
  },
  {
    "name": "Indivo",
    "description": "Marketing Programs & Services",
    "phone": "(877) 446-3486",
    "address": "235 Apollo Beach Blvd Ste 256  Apollo Beach, FL 33572",
    "location": "Bay"
  },
  {
    "name": "ManageMyRep.com",
    "description": "Marketing Programs & Services",
    "phone": "(813) 347-9108",
    "address": "11705 Boyette Rd Suite 201  Riverview, FL 33569",
    "location": "Bay"
  },
  {
    "name": "LadyT's MyCash Circle",
    "description": "Marketing Programs & Services",
    "phone": "(813) 426-4507",
    "address": "4220 Balington Dr  Valrico, FL 33596",
    "location": "Bay"
  },
  {
    "name": "Tesla Designs",
    "description": "Marketing Programs & Services",
    "phone": "(760) 994-3050",
    "address": "15010 Heronglen Dr  Lithia, FL 33547",
    "location": "Bay"
  },
  {
    "name": "Breakthrough Direct Marketing, Inc",
    "description": "Marketing Programs & Services",
    "phone": "(813) 662-0205",
    "address": "11705 Boyette Rd Ste 417  Riverview, FL 33569",
    "location": "Bay"
  },
  {
    "name": "Lawnline Marketing",
    "description": "Internet Marketing & Advertising",
    "phone": "(813) 944-3400",
    "address": "235 Apollo Beach Blvd # 128  Apollo Beach, FL 33572",
    "location": "Bay"
  },
  {
    "name": "Graphesis Marketing & Design",
    "description": "Internet Marketing & Advertising",
    "phone": "(813) 468-4607",
    "address": "2717 Briarpatch Dr  Valrico, FL 33596",
    "location": "Bay"
  },
  {
    "name": "Mackey Productions, LLC",
    "description": "Internet Marketing & Advertising",
    "phone": "(813) 699-0843",
    "address": "5409 Lindburg St  Riverview, FL 33578",
    "location": "Bay"
  },
  {
    "name": "321 Solutions",
    "description": "Interactive Media",
    "phone": "(813) 421-3541",
    "address": "914 Delaney Cir  Brandon, FL 33511",
    "location": "Bay"
  },
  {
    "name": "Apotheca",
    "description": "Internet Marketing & Advertising",
    "phone": "(440) 701-6665",
    "address": "16440 Bridgewalk Dr  Lithia, FL 33547",
    "location": "Bay"
  },
  {
    "name": "Tampa Bay Interactive",
    "description": "Internet Marketing & Advertising",
    "phone": "(813) 451-3681",
    "address": "Po Box 121  Lithia, FL 33547",
    "location": "Bay"
  },
  {
    "name": "Creative Web Actions",
    "description": "Web Site Design & Services",
    "phone": "(813) 856-3312",
    "address": "PO Box 746  Valrico, FL 33595",
    "location": "Bay"
  },
  {
    "name": "Scan Corp",
    "description": "Internet Marketing & Advertising",
    "phone": "(813) 653-2877",
    "address": "910 Lithia Pinecrest Rd  Brandon, FL 33511",
    "location": "Bay"
  },
  {
    "name": "Joda Digital Marketing & Pub",
    "description": "Advertising Agencies",
    "phone": "(855) 522-5632",
    "address": "2733 Brookville Dr  Valrico, FL 33596",
    "location": "Bay"
  },
  {
    "name": "Group50 Consulting",
    "description": "Business Coaches & Consultants",
    "phone": "(909) 949-9083",
    "address": "411 Islebay Dr  Apollo Beach, FL 33572",
    "location": "Bay"
  },
  {
    "name": "The Jameson Interests",
    "description": "Marketing Consultants",
    "phone": "(813) 634-7775",
    "address": "PO Box 1273  Ruskin, FL 33575",
    "location": "Bay"
  },
  {
    "name": "Distinguished, LLC",
    "description": "Internet Consultants",
    "phone": "(800) 969-5677",
    "address": "2707 Centerview Pl  Brandon, FL 33511",
    "location": "Bay"
  },
  {
    "name": "Merchantside",
    "description": "Internet Marketing & Advertising",
    "phone": "(813) 602-1308",
    "address": "650 E Bloomingdale Ave  Brandon, FL 33511",
    "location": "Bay"
  },
  {
    "name": "Exclaimit! Inc",
    "description": "Internet Service Providers (ISP)",
    "phone": "(813) 731-8718",
    "address": "3825 Misty Landing Dr  Valrico, FL 33594",
    "location": "Bay"
  },
  {
    "name": "Greater Connections, LLC",
    "description": "Internet Marketing & Advertising",
    "phone": "(727) 336-5339",
    "address": "208 Oak Field Dr Unit 220  Brandon, FL 33511",
    "location": "Bay"
  },
  {
    "name": "Oakdale Media",
    "description": "Market Research & Analysis",
    "phone": "(813) 684-4005",
    "address": "1452 Bloomingdale Ave  Valrico, FL 33596",
    "location": "Bay"
  },
  {
    "name": "Focus World International Inc",
    "description": "Market Research & Analysis",
    "phone": "(732) 946-0100",
    "address": "1449 Jumana Loop  Apollo Beach, FL 33572",
    "location": "Bay"
  },
  {
    "name": "Trasorras Intelligence Group, Inc.",
    "description": "Market Research & Analysis",
    "phone": "(813) 654-2173",
    "address": "631 W Lumsden Rd  Brandon, FL 33511",
    "location": "Bay"
  },
  {
    "name": "Eclipse SEO",
    "description": "Internet Marketing & Advertising",
    "phone": "(813) 359-9064",
    "address": "10523 Tucker Jones Rd Suite 4  Riverview, FL 33578",
    "location": "Bay"
  },
  {
    "name": "Donnaspromoscom",
    "description": "Internet Marketing & Advertising",
    "phone": "(205) 980-6400",
    "address": "9616 Birnamwood St  Riverview, FL 33569",
    "location": "Bay"
  },
  {
    "name": "Epicwheelrentalsllc .com",
    "description": "Internet Marketing & Advertising",
    "phone": "(941) 408-5699",
    "address": "9648 Us Highway 301 S  Riverview, FL 33578",
    "location": "Bay"
  },
  {
    "name": "Rtae.net",
    "description": "Internet Marketing & Advertising",
    "phone": "(813) 672-3333",
    "address": "7407 Us Highway 301 S  Riverview, FL 33578",
    "location": "Bay"
  },
  {
    "name": "FF Web Solutions",
    "description": "Internet Consultants",
    "phone": "(941) 462-4881",
    "address": "1506 Redmond Brook Ln  Ruskin, FL 33570",
    "location": "Bay"
  },
  {
    "name": "Wizard Web Marketing",
    "description": "Internet Marketing & Advertising",
    "phone": "(813) 344-5570",
    "address": "538 Rapid Falls Dr  Brandon, FL 33511",
    "location": "Bay"
  },
  {
    "name": "100 Cash Daily",
    "description": "Internet Marketing & Advertising",
    "phone": "(814) 853-6659",
    "address": "1809 Princeton Lakes Dr #406  Brandon, FL 33511",
    "location": "Bay"
  },
  {
    "name": "Lionheart.net",
    "description": "Web Site Hosting",
    "phone": "(813) 571-3919",
    "address": "731 Grand Canyon Dr  Valrico, FL 33594",
    "location": "Bay"
  },
  {
    "name": "LocalConnect Pros",
    "description": "Marketing Consultants",
    "phone": "(813) 938-3318",
    "address": "17341 White Mangrove Dr  Wimauma, FL 33598",
    "location": "Bay"
  },
  {
    "name": "The Montembeault Group",
    "description": "Marketing Consultants",
    "phone": "(317) 514-9495",
    "address": "6409 Blue Sail Ln  Apollo Beach, FL 33572",
    "location": "Bay"
  },
  {
    "name": "Johnson David & Louise",
    "description": "Marketing Consultants",
    "phone": "(813) 689-2800",
    "address": "16913 Falconridge Rd  Lithia, FL 33547",
    "location": "Bay"
  },
  {
    "name": "Pure Design Studio",
    "description": "Marketing Consultants",
    "phone": "(813) 270-3406",
    "address": "200 Frandorson Cir Ste 102  Apollo Beach, FL 33572",
    "location": "Bay"
  },
  {
    "name": "Max Marketing",
    "description": "Direct Mail Advertising",
    "phone": "(813) 685-1155",
    "address": "61 Camelot Ridge Dr  Brandon, FL 33511",
    "location": "Bay"
  },
  {
    "name": "Sunshine Marketing Opportunities",
    "description": "Marketing Consultants",
    "phone": "(813) 741-9727",
    "address": "11425 Rustic Pine Ct  Riverview, FL 33569",
    "location": "Bay"
  },
  {
    "name": "Apollo Digital Marketing",
    "description": "Advertising Agencies",
    "phone": "(813) 540-2447",
    "address": "6560 Simone Shores Cir  Apollo Beach, FL 33572",
    "location": "Bay"
  },
  {
    "name": "Global 2U Now Marketing, Inc",
    "description": "Marketing Consultants",
    "phone": "(813) 315-3995",
    "address": "4514 Hamlin Way  Wimauma, FL 33598",
    "location": "Bay"
  },
  {
    "name": "Nowgen Marketing",
    "description": "Marketing Consultants",
    "phone": "(813) 377-3207",
    "address": "2402 Bloomingdale Ave  Valrico, FL 33596",
    "location": "Bay"
  },
  {
    "name": "Automotive Subprime Consultants",
    "description": "Marketing Consultants",
    "phone": "(855) 564-0111",
    "address": "3413 Gray Whetstone St  Brandon, FL 33511",
    "location": "Bay"
  },
  {
    "name": "Graphics Edge LLC",
    "description": "Product Design, Development & Marketing",
    "phone": "(813) 493-8000",
    "address": "804 Golf Island Dr  Apollo Beach, FL 33572",
    "location": "Bay"
  },
  {
    "name": "MelaProsper",
    "description": "Day Spas",
    "phone": "(813) 210-0558",
    "address": "1312 Sugar Maple Ln  Brandon, FL 33511",
    "location": "Bay"
  },
  {
    "name": "Southern Buckeye Marketing Inc",
    "description": "Marketing Consultants",
    "phone": "(813) 685-3649",
    "address": "913 S Parsons Ave  Brandon, FL 33511",
    "location": "Bay"
  },
  {
    "name": "Third Rock Marketing",
    "description": "Marketing Consultants",
    "phone": "(813) 689-6800",
    "address": "755 W Lumsden Rd  Brandon, FL 33511",
    "location": "Bay"
  },
  {
    "name": "ML Web Design, Inc.",
    "description": "Web Site Hosting",
    "phone": "(813) 445-3870",
    "address": "1971 W Lumsden Rd # 220  Brandon, FL 33511",
    "location": "Bay"
  },
  {
    "name": "Adaptco Marketi Ng",
    "description": "Marketing Consultants",
    "phone": "(813) 409-2317",
    "address": "330 Pauls Dr  Brandon, FL 33511",
    "location": "Bay"
  },
  {
    "name": "Star Performance Marketing",
    "description": "Marketing Programs & Services",
    "phone": "(800) 641-1777",
    "address": "3226 Parkside Center Cir  Tampa, FL 33619",
    "location": "Bay"
  },
  {
    "name": "Marketing.com",
    "description": "Marketing Programs & Services",
    "phone": "(813) 576-2098",
    "address": "5210 S Lois Ave  Tampa, FL 33611",
    "location": "Bay"
  },
  {
    "name": "Talk Fusion",
    "description": "Marketing Programs & Services",
    "phone": "(813) 651-4030",
    "address": "1319 Kingsway Rd  Brandon, FL 33510",
    "location": "Bay"
  },
  {
    "name": "Splash Cellular LLC",
    "description": "Marketing Programs & Services",
    "phone": "(888) 576-2861",
    "address": "PO Box 813  Brandon, FL 33509",
    "location": "Bay"
  },
  {
    "name": "Vast Local",
    "description": "Marketing Programs & Services",
    "phone": "(813) 955-7782",
    "address": "1503 S Us Highway 301 # 83B  Tampa, FL 33619",
    "location": "Bay"
  },
  {
    "name": "Jai SLOWED DOWN: Need Your Song SLOWED DOWN & promoted?",
    "description": "Marketing Programs & Services",
    "phone": "(813) 300-4486",
    "address": "2444 Hermosa Dr  Tampa, FL 33619",
    "location": "Bay"
  },
  {
    "name": "Expanets",
    "description": "Marketing Programs & Services",
    "phone": "(813) 655-9803",
    "address": "524 Grand Regency Blvd  Brandon, FL 33510",
    "location": "Bay"
  },
  {
    "name": "Strictly Results Marketing Group",
    "description": "Marketing Programs & Services",
    "phone": "(813) 295-2577",
    "address": "410 S Ware Blvd  Tampa, FL 33619",
    "location": "Bay"
  },
  {
    "name": "6th FSS",
    "description": "Marketing Programs & Services",
    "phone": "(813) 828-3055",
    "address": "8801 Tampa Point Blvd  Tampa, FL 33621",
    "location": "Bay"
  },
  {
    "name": "Real Property Marketing Inc",
    "description": "Marketing Programs & Services",
    "phone": "(813) 402-0787",
    "address": "1802 Dana Ct  Brandon, FL 33510",
    "location": "Bay"
  },
  {
    "name": "One Touch Direct",
    "description": "Marketing Programs & Services",
    "phone": "(813) 384-2080",
    "address": "9314 E Broadway Ave  Tampa, FL 33619",
    "location": "Bay"
  },
  {
    "name": "Imperial Press Direct",
    "description": "Marketing Programs & Services",
    "phone": "(813) 628-8683",
    "address": "3104 Cherry Palm Dr Ste 220  Tampa, FL 33619",
    "location": "Bay"
  },
  {
    "name": "Base 26",
    "description": "Marketing Programs & Services",
    "phone": "(813) 426-3600",
    "address": "5315 Bayshore Blvd  Tampa, FL 33611",
    "location": "Bay"
  },
  {
    "name": "Minuteman Press",
    "description": "Marketing Programs & Services",
    "phone": "(813) 655-1888",
    "address": "115 N Kings Ave  Brandon, FL 33510",
    "location": "Bay"
  },
  {
    "name": "Architech Software & Web Solutions Inc",
    "description": "Marketing Programs & Services",
    "phone": "(813) 413-7065",
    "address": "108 W Windhorst Rd  Brandon, FL 33510",
    "location": "Bay"
  },
  {
    "name": "Allegra Marketing | Print | Mail",
    "description": "Marketing Programs & Services",
    "phone": "(813) 664-1129",
    "address": "2705 N Falkenburg Rd  Tampa, FL 33619",
    "location": "Bay"
  },
  {
    "name": "Quad/Graphics Inc",
    "description": "Marketing Programs & Services",
    "phone": "(813) 837-3436",
    "address": "4646 S Grady Ave  Tampa, FL 33611",
    "location": "Bay"
  },
  {
    "name": "SwaggerSpot Advertising",
    "description": "Marketing Programs & Services",
    "phone": "(813) 531-5583",
    "address": "Po Box 1763  Brandon, FL 33509",
    "location": "Bay"
  },
  {
    "name": "Brandon Area Families Magazine",
    "description": "Marketing Programs & Services",
    "phone": "(813) 362-2634",
    "address": "PO Box 3711  Brandon, FL 33509",
    "location": "Bay"
  },
  {
    "name": "AMWAY GLOBAL",
    "description": "Direct Marketing Services",
    "phone": "(813) 990-7427",
    "address": "3606 W Oklahoma Ave  Tampa, FL 33611",
    "location": "Bay"
  },
  {
    "name": "Paseo Consulting",
    "description": "Internet Marketing & Advertising",
    "phone": "(813) 279-5434",
    "address": "10150 Highland Manor Dr Ste 200  Tampa, FL 33610",
    "location": "Bay"
  },
  {
    "name": "Sign8 SEO",
    "description": "Internet Marketing & Advertising",
    "phone": "(813) 419-7635",
    "address": "4809 S Mound Ave Apt 102  Tampa, FL 33611",
    "location": "Bay"
  },
  {
    "name": "Michelle On Point SEO & Website Design",
    "description": "Web Site Design & Services",
    "phone": "(813) 686-6546",
    "address": "1049 E Brandon Blvd  Brandon, FL 33511",
    "location": "Bay"
  },
  {
    "name": "Superweb Creative Solutions",
    "description": "Internet Marketing & Advertising",
    "phone": "(813) 579-7145",
    "address": "1948 Samantha Ln  Valrico, FL 33594",
    "location": "Bay"
  },
  {
    "name": "Steadfast Executive Solutions",
    "description": "Internet Products & Services",
    "phone": "(727) 768-5519",
    "address": "3113 W Paul Ave  Tampa, FL 33611",
    "location": "Bay"
  },
  {
    "name": "Marketing With SEO",
    "description": "Marketing Consultants",
    "phone": "(941) 896-1797",
    "address": "9420 Windermere Lake Dr Suite 102  Riverview, FL 33578",
    "location": "Bay"
  },
  {
    "name": "Rank Blade",
    "description": "Marketing Consultants",
    "phone": "(800) 825-9480",
    "address": "3050 Pointeview Dr  Tampa, FL 33611",
    "location": "Bay"
  },
  {
    "name": "Illuminate Local",
    "description": "Internet Marketing & Advertising",
    "phone": "(813) 400-1378",
    "address": "3223 W Victoria Ave  Tampa, FL 33611",
    "location": "Bay"
  },
  {
    "name": "Grow SEO",
    "description": "Internet Consultants",
    "phone": "(855) 447-6973",
    "address": "3120 W Fielder St  Tampa, FL 33611",
    "location": "Bay"
  },
  {
    "name": "PAB Clinical Reseach",
    "description": "Market Research & Analysis",
    "phone": "(813) 661-5164",
    "address": "910 Oakfield Dr  Brandon, FL 33511",
    "location": "Bay"
  },
  {
    "name": "Budnick Converting Inc",
    "description": "Market Research & Analysis",
    "phone": "(813) 248-6097",
    "address": "5102 Causeway Blvd  Tampa, FL 33619",
    "location": "Bay"
  },
  {
    "name": "Home Improvement Research Institute",
    "description": "Home Improvements",
    "phone": "(813) 627-6750",
    "address": "3922 Coconut Palm Dr  Tampa, FL 33619",
    "location": "Bay"
  },
  {
    "name": "Axiom13",
    "description": "Interactive Media",
    "phone": "(813) 384-7646",
    "address": "235 W Brandon Blvd Suite 601  Brandon, FL 33511",
    "location": "Bay"
  },
  {
    "name": "Midea Mini Split",
    "description": "Internet Marketing & Advertising",
    "phone": "(877) 770-3548",
    "address": "8263 Causeway Blvd  Tampa, FL 33619",
    "location": "Bay"
  },
  {
    "name": "D Tech Clinic",
    "description": "Computer Service & Repair-Business",
    "phone": "(813) 445-5585",
    "address": "6201 Causeway Blvd STE B  Tampa, FL 33619",
    "location": "Bay"
  },
  {
    "name": "Search Impulse",
    "description": "Internet Marketing & Advertising",
    "phone": "(813) 279-5434",
    "address": "410 S Ware Blvd Ste 800-76  Tampa, FL 33619",
    "location": "Bay"
  },
  {
    "name": "Webelect.net",
    "description": "Internet Marketing & Advertising",
    "phone": "(888) 987-6558",
    "address": "1256 Vinetree Dr  Brandon, FL 33510",
    "location": "Bay"
  },
  {
    "name": "Hotelmode.com",
    "description": "Internet Marketing & Advertising",
    "phone": "(813) 964-7005",
    "address": "6410 S Macdill Ave  Tampa, FL 33611",
    "location": "Bay"
  },
  {
    "name": "DH Digital Marketing Group",
    "description": "Internet Marketing & Advertising",
    "phone": "(813) 502-0564",
    "address": "Po Box 6613  Tampa, FL 33608",
    "location": "Bay"
  },
  {
    "name": "SEO Advantage, Inc.",
    "description": "Internet Marketing & Advertising",
    "phone": "(877) 516-6272",
    "address": "3690 W Gandy Blvd Ste 444  Tampa, FL 33611",
    "location": "Bay"
  },
  {
    "name": "Tampa Bay SEO Pro",
    "description": "Internet Products & Services",
    "phone": "(888) 947-5027",
    "address": "931 Oakfield Dr  Brandon, FL 33511",
    "location": "Bay"
  },
  {
    "name": "Think Big Enterprises",
    "description": "Marketing Consultants",
    "phone": "(813) 468-9888",
    "address": "235 W Brandon Blvd # 241  Brandon, FL 33511",
    "location": "Bay"
  },
  {
    "name": "Mailworks Marketing",
    "description": "Marketing Consultants",
    "phone": "(813) 643-4200",
    "address": "108 N Pinewood Ave  Brandon, FL 33510",
    "location": "Bay"
  },
  {
    "name": "Floral Marketing International",
    "description": "Marketing Consultants",
    "phone": "(813) 643-2000",
    "address": "401 W Brandon Blvd  Brandon, FL 33511",
    "location": "Bay"
  },
  {
    "name": "Firefly Communications Group",
    "description": "Communications Services",
    "phone": "(630) 843-2062",
    "address": "10328 Palermo Cir Apt 204  Tampa, FL 33619",
    "location": "Bay"
  },
  {
    "name": "Postcard Services",
    "description": "Direct Mail Advertising",
    "phone": "(866) 571-3111",
    "address": "9216 Palm River Rd Ste 202  Tampa, FL 33619",
    "location": "Bay"
  },
  {
    "name": "Acosta",
    "description": "Marketing Consultants",
    "phone": "(813) 740-0640",
    "address": "921 S Us Highway 301  Tampa, FL 33619",
    "location": "Bay"
  },
  {
    "name": "Telemarketing Specialists",
    "description": "Telemarketing Services",
    "phone": "(813) 626-1953",
    "address": "9225 Bay Plaza Blvd  Tampa, FL 33619",
    "location": "Bay"
  },
  {
    "name": "Affinity Marketing",
    "description": "Marketing Consultants",
    "phone": "(813) 319-8474",
    "address": "9225 Bay Plaza Blvd Ste 401  Tampa, FL 33619",
    "location": "Bay"
  },
  {
    "name": "Promotions & Company",
    "description": "Advertising-Promotional Products",
    "phone": "(813) 685-2999",
    "address": "1523 Hobbs St  Tampa, FL 33619",
    "location": "Bay"
  },
  {
    "name": "Full Stack Marketing Consultants",
    "description": "Marketing Consultants",
    "phone": "(813) 773-7030",
    "address": "PO Box 7827  Sun City, FL 33586",
    "location": "Bay"
  },
  {
    "name": "Integra Marketing Group",
    "description": "Marketing Consultants",
    "phone": "(813) 865-0400",
    "address": "3110 Cherry Palm Dr Ste 370  Tampa, FL 33619",
    "location": "Bay"
  },
  {
    "name": "Crop Production Services",
    "description": "Marketing Consultants",
    "phone": "(813) 630-1471",
    "address": "10150 Highland Manor Dr Ste 130  Tampa, FL 33610",
    "location": "Bay"
  },
  {
    "name": "Tampa Consulting Group",
    "description": "Marketing Consultants",
    "phone": "(813) 833-3423",
    "address": "10150 Highland Manor Dr Ste 200  Tampa, FL 33610",
    "location": "Bay"
  },
  {
    "name": "Advantage Sales",
    "description": "Marketing Consultants",
    "phone": "(813) 621-7451",
    "address": "3922 Coconut Palm Dr  Tampa, FL 33619",
    "location": "Bay"
  },
  {
    "name": "Maverick Marketing Group",
    "description": "Marketing Consultants",
    "phone": "(813) 963-0430",
    "address": "5307 N Falkenburg Rd  Tampa, FL 33610",
    "location": "Bay"
  },
  {
    "name": "Cre 8 Group Inc",
    "description": "Marketing Consultants",
    "phone": "(813) 649-8504",
    "address": "3107 W Ballast Point Blvd  Tampa, FL 33611",
    "location": "Bay"
  },
  {
    "name": "Mosiac Marketing on the Bay",
    "description": "Marketing Consultants",
    "phone": "(813) 250-0278",
    "address": "4207 S Dale Mabry Hwy  Tampa, FL 33611",
    "location": "Bay"
  },
  {
    "name": "Parrish Marketing and Design",
    "description": "Graphic Designers",
    "phone": "(941) 504-5518",
    "address": "17619 Howling Wolf Run  Parrish, FL 34219",
    "location": "Bay"
  },
  {
    "name": "AlphaGraphics Tampa 671",
    "description": "Marketing Programs & Services",
    "phone": "(844) 647-0607",
    "address": "4209 W Kennedy Blvd  Tampa, FL 33609",
    "location": "Bay"
  },
  {
    "name": "899WebDesign.com",
    "description": "Marketing Programs & Services",
    "phone": "(800) 859-6588",
    "address": "4644 W Gandy Blvd Ste 4112  Tampa, FL 33611",
    "location": "Bay"
  },
  {
    "name": "Barracuda Marketing",
    "description": "Marketing Programs & Services",
    "phone": "(813) 486-4810",
    "address": "4525 S Renellie Dr  Tampa, FL 33611",
    "location": "Bay"
  },
  {
    "name": "Marketing With Mel",
    "description": "Marketing Programs & Services",
    "phone": "(813) 835-0597",
    "address": "4933 S West Shore Blvd  Tampa, FL 33611",
    "location": "Bay"
  },
  {
    "name": "CRE8 Group",
    "description": "Marketing Programs & Services",
    "phone": "(813) 649-8504",
    "address": "4708 W Knights Ave  Tampa, FL 33611",
    "location": "Bay"
  },
  {
    "name": "Virtual Mobile",
    "description": "Marketing Programs & Services",
    "phone": "(610) 513-2933",
    "address": "6401 S West Shore Blvd  Tampa, FL 33616",
    "location": "Bay"
  },
  {
    "name": "VideoViralViews.com",
    "description": "Advertising Agencies",
    "phone": "(813) 413-5209",
    "address": "4817 S West Shore Blvd  Tampa, FL 33611",
    "location": "Bay"
  },
  {
    "name": "South Costa LLC",
    "description": "Internet Marketing & Advertising",
    "phone": "(305) 204-3131",
    "address": "4520 W Oakellar Ave unit 130031  Tampa, FL 33611",
    "location": "Bay"
  },
  {
    "name": "ROI Amplified",
    "description": "Internet Marketing & Advertising",
    "phone": "(813) 805-1616",
    "address": "4905 S West Shore Blvd  Tampa, FL 33611",
    "location": "Bay"
  },
  {
    "name": "Exact Marketing",
    "description": "Marketing Consultants",
    "phone": "(813) 943-6053",
    "address": "4842 W Gandy Blvd  Tampa, FL 33611",
    "location": "Bay"
  },
  {
    "name": "ADM2 Exhibits & Displays",
    "description": "Directory & Guide Advertising",
    "phone": "(844) 283-8582",
    "address": "5690 W Crenshaw St  Tampa, FL 33634",
    "location": "Bay"
  }
]