[
  {
    "name": "Jeg Global Solutions",
    "description": "Marketing Programs & Services",
    "phone": "(386) 259-4671",
    "address": "2495 E Tipton Dr  Deltona, FL 32738",
    "location": "Calhoun"
  },
  {
    "name": "Your Image Marketing",
    "description": "Marketing Programs & Services",
    "phone": "(386) 742-0424",
    "address": "2773 Thornberry Ct  Deltona, FL 32738",
    "location": "Calhoun"
  },
  {
    "name": "Direct Market C Oncepts",
    "description": "Marketing Programs & Services",
    "phone": "(386) 259-4793",
    "address": "667 Deltona Blvd Ste 100  Deltona, FL 32725",
    "location": "Calhoun"
  },
  {
    "name": "Mastermind Web Video Marketing",
    "description": "Marketing Programs & Services",
    "phone": "(386) 747-2161",
    "address": "944 Regatta Bay Dr  Orange City, FL 32763",
    "location": "Calhoun"
  },
  {
    "name": "985 West Volusia",
    "description": "Marketing Programs & Services",
    "phone": "(386) 774-1879",
    "address": "985 Harley Strickland Blvd  Orange City, FL 32763",
    "location": "Calhoun"
  },
  {
    "name": "Artisan Internet Marketing",
    "description": "Marketing Programs & Services",
    "phone": "(352) 729-1042",
    "address": "110 W 1st St  Sanford, FL 32771",
    "location": "Calhoun"
  },
  {
    "name": "L A Marketing Co",
    "description": "Marketing Programs & Services",
    "phone": "(321) 363-4043",
    "address": "203 E 3rd St  Sanford, FL 32771",
    "location": "Calhoun"
  },
  {
    "name": "Innovative Apps",
    "description": "Marketing Programs & Services",
    "phone": "(407) 942-3246",
    "address": "305 E 4th St unit 101  Sanford, FL 32771",
    "location": "Calhoun"
  },
  {
    "name": "Johnson Marketing",
    "description": "Marketing Programs & Services",
    "phone": "(386) 320-0672",
    "address": "301 N Pine Meadow Dr  Debary, FL 32713",
    "location": "Calhoun"
  },
  {
    "name": "Product Review Labs",
    "description": "Marketing Programs & Services",
    "phone": "(352) 559-0001",
    "address": "2578 Enterprise Rd # 104  Orange City, FL 32763",
    "location": "Calhoun"
  },
  {
    "name": "Nationwide Marketing",
    "description": "Marketing Programs & Services",
    "phone": "(800) 783-5615",
    "address": "52 Spring Vista Dr  Debary, FL 32713",
    "location": "Calhoun"
  },
  {
    "name": "Legacy Marketing Group",
    "description": "Marketing Programs & Services",
    "phone": "(386) 668-9613",
    "address": "269 Palmetto Springs St  Debary, FL 32713",
    "location": "Calhoun"
  },
  {
    "name": "Best Direct Marketing Group",
    "description": "Marketing Programs & Services",
    "phone": "(386) 775-1307",
    "address": "1750 S Volusia Ave Ste 2  Orange City, FL 32763",
    "location": "Calhoun"
  },
  {
    "name": "Outsource Initiatives",
    "description": "Marketing Programs & Services",
    "phone": "(407) 279-7373",
    "address": "522 W Fern Dr  Orange City, FL 32763",
    "location": "Calhoun"
  },
  {
    "name": "Creative Printing & Publishing",
    "description": "Marketing Programs & Services",
    "phone": "(407) 302-9147",
    "address": "2300 Old Lake Mary Rd  Sanford, FL 32771",
    "location": "Calhoun"
  },
  {
    "name": "Chingding",
    "description": "Marketing Programs & Services",
    "phone": "(407) 592-9356",
    "address": "414 Editha Cir  Sanford, FL 32771",
    "location": "Calhoun"
  },
  {
    "name": "Progressive Marketing Service",
    "description": "Marketing Programs & Services",
    "phone": "(407) 291-9749",
    "address": "1470 Kastner Pl Ste 100  Sanford, FL 32771",
    "location": "Calhoun"
  },
  {
    "name": "Artndisplays",
    "description": "Marketing Programs & Services",
    "phone": "(407) 732-4893",
    "address": "2451 Old Lake Mary Rd  Sanford, FL 32771",
    "location": "Calhoun"
  },
  {
    "name": "Sealane Marketing",
    "description": "Marketing Programs & Services",
    "phone": "(407) 831-4003",
    "address": "130 Maritime Dr  Sanford, FL 32771",
    "location": "Calhoun"
  },
  {
    "name": "Ring Marketing Group Inc",
    "description": "Marketing Programs & Services",
    "phone": "(888) 435-3199",
    "address": "1642 W Airport Blvd  Sanford, FL 32773",
    "location": "Calhoun"
  },
  {
    "name": "Susan Rades Marketing",
    "description": "Marketing Programs & Services",
    "phone": "(407) 579-4393",
    "address": "1150 Woodchuck Ct  Orange City, FL 32763",
    "location": "Calhoun"
  },
  {
    "name": "Carma Green Marketing",
    "description": "Marketing Programs & Services",
    "phone": "(407) 732-4194",
    "address": "2913 S Orlando Dr  Sanford, FL 32773",
    "location": "Calhoun"
  },
  {
    "name": "Quantum Solutions Inc",
    "description": "Marketing Programs & Services",
    "phone": "(407) 323-7533",
    "address": "1101 Cornwall Rd  Sanford, FL 32773",
    "location": "Calhoun"
  },
  {
    "name": "Montalvo Marketing",
    "description": "Marketing Programs & Services",
    "phone": "(407) 838-3030",
    "address": "1406 Ashdown Ct  Sanford, FL 32771",
    "location": "Calhoun"
  },
  {
    "name": "Pro Elite Marketing & Sales",
    "description": "Marketing Programs & Services",
    "phone": "(407) 324-0675",
    "address": "5341 Fawn Woods Ct  Sanford, FL 32771",
    "location": "Calhoun"
  },
  {
    "name": "Palm Coast Technologies, LLC",
    "description": "Marketing Programs & Services",
    "phone": "(407) 674-2686",
    "address": "5224 W State Road 46 Ste 230  Sanford, FL 32771",
    "location": "Calhoun"
  },
  {
    "name": "Turner Marketing",
    "description": "Marketing Programs & Services",
    "phone": "(407) 708-1060",
    "address": "522 W Lake Mary Blvd  Sanford, FL 32773",
    "location": "Calhoun"
  },
  {
    "name": "XCel Media Group",
    "description": "Marketing Programs & Services",
    "phone": "(866) 712-5990",
    "address": "5739 Byron Anthony Pl  Sanford, FL 32771",
    "location": "Calhoun"
  },
  {
    "name": "Showap Media",
    "description": "Marketing Programs & Services",
    "phone": "(407) 416-0784",
    "address": "6202 Wyndham Crest Blvd  Sanford, FL 32773",
    "location": "Calhoun"
  },
  {
    "name": "LMS Internet Corporation",
    "description": "Marketing Programs & Services",
    "phone": "(386) 490-4025",
    "address": "1609 S State Road 15a Ste 6  Deland, FL 32720",
    "location": "Calhoun"
  },
  {
    "name": "Tinker Graphics & Marketing",
    "description": "Marketing Programs & Services",
    "phone": "(386) 734-3475",
    "address": "112 W New York Ave  Deland, FL 32720",
    "location": "Calhoun"
  },
  {
    "name": "A&G Marketing Group by Proforma",
    "description": "Marketing Programs & Services",
    "phone": "(888) 391-5449",
    "address": "142 W Lakeview Ave Ste 1030  Lake Mary, FL 32746",
    "location": "Calhoun"
  },
  {
    "name": "Crank Communications",
    "description": "Marketing Programs & Services",
    "phone": "(407) 830-7312",
    "address": "1135 Townpark Ave Ste 2125  Lake Mary, FL 32746",
    "location": "Calhoun"
  },
  {
    "name": "Meridian Marketing Group",
    "description": "Marketing Programs & Services",
    "phone": "(407) 444-0320",
    "address": "600 Rinehart Rd  Lake Mary, FL 32746",
    "location": "Calhoun"
  },
  {
    "name": "Relationship Marketing Group",
    "description": "Marketing Programs & Services",
    "phone": "(407) 324-9113",
    "address": "575 Lake Bingham Rd  Lake Mary, FL 32746",
    "location": "Calhoun"
  },
  {
    "name": "AddSolutions",
    "description": "Marketing Programs & Services",
    "phone": "(407) 562-1705",
    "address": "801 International Pkwy Ste 500  Lake Mary, FL 32746",
    "location": "Calhoun"
  },
  {
    "name": "Health Edeals",
    "description": "Marketing Programs & Services",
    "phone": "(407) 499-4069",
    "address": "1000 Primera Blvd  Lake Mary, FL 32746",
    "location": "Calhoun"
  },
  {
    "name": "I & J Auto Market Inc",
    "description": "Marketing Programs & Services",
    "phone": "(407) 302-3316",
    "address": "4044 W Lake Mary Blvd  Lake Mary, FL 32746",
    "location": "Calhoun"
  },
  {
    "name": "Maria F Sapkovski Marketing",
    "description": "Marketing Programs & Services",
    "phone": "(917) 733-0387",
    "address": "1125 Pointe Cv  Lake Mary, FL 32746",
    "location": "Calhoun"
  },
  {
    "name": "Spirit Marketing Corp",
    "description": "Marketing Programs & Services",
    "phone": "(407) 257-5650",
    "address": "1531 Tallapoosa Dr  Geneva, FL 32732",
    "location": "Calhoun"
  },
  {
    "name": "Esp Associates",
    "description": "Marketing Programs & Services",
    "phone": "(407) 796-5013",
    "address": "711 Seneca Meadows Rd  Winter Springs, FL 32708",
    "location": "Calhoun"
  },
  {
    "name": "Magennis Marketing",
    "description": "Marketing Programs & Services",
    "phone": "(407) 302-2068",
    "address": "470 Whittingham Pl  Lake Mary, FL 32746",
    "location": "Calhoun"
  },
  {
    "name": "JJC Marketing Solutions",
    "description": "Marketing Programs & Services",
    "phone": "(321) 765-7710",
    "address": "639 Marni Dr  Winter Springs, FL 32708",
    "location": "Calhoun"
  },
  {
    "name": "Maverick Marketing & Pr",
    "description": "Marketing Programs & Services",
    "phone": "(407) 324-8689",
    "address": "725 Silverwood Dr  Lake Mary, FL 32746",
    "location": "Calhoun"
  },
  {
    "name": "H & R Unlimited, Inc.",
    "description": "Marketing Programs & Services",
    "phone": "(386) 279-0123",
    "address": "713 W New York Ave  Deland, FL 32720",
    "location": "Calhoun"
  },
  {
    "name": "Ebony Phillips Marketing",
    "description": "Marketing Programs & Services",
    "phone": "(386) 748-5410",
    "address": "1303 Talton Ave  Deland, FL 32720",
    "location": "Calhoun"
  },
  {
    "name": "Linda Glover & Associates",
    "description": "Marketing Programs & Services",
    "phone": "(386) 738-4938",
    "address": "631 N Arlington Ave  Deland, FL 32724",
    "location": "Calhoun"
  },
  {
    "name": "Brand Marketing & Promotions",
    "description": "Marketing Programs & Services",
    "phone": "(386) 626-2256",
    "address": "416 N Orange Ave  Deland, FL 32720",
    "location": "Calhoun"
  },
  {
    "name": "Ascendia Digital Marketing Design",
    "description": "Marketing Programs & Services",
    "phone": "(203) 731-9024",
    "address": "2034 5th Ave  Deland, FL 32724",
    "location": "Calhoun"
  },
  {
    "name": "Made to Order Marketing",
    "description": "Marketing Programs & Services",
    "phone": "(386) 717-1433",
    "address": "1884 Talmadge St  Deland, FL 32724",
    "location": "Calhoun"
  },
  {
    "name": "Gravis Marketing, Inc.",
    "description": "Marketing Programs & Services",
    "phone": "(407) 454-8600",
    "address": "910 Belle Ave Ste 1042  winter springs, FL 32708",
    "location": "Calhoun"
  },
  {
    "name": "Yorkshore Sales and Marketing",
    "description": "Marketing Programs & Services",
    "phone": "(321) 207-0157",
    "address": "777 Bennett Dr  Longwood, FL 32750",
    "location": "Calhoun"
  },
  {
    "name": "OMG | Options Marketing Group, LLC",
    "description": "Marketing Programs & Services",
    "phone": "(321) 251-1920",
    "address": "489 State Road 436 Ste 117  Casselberry, FL 32707",
    "location": "Calhoun"
  },
  {
    "name": "Dme Studios",
    "description": "Marketing Programs & Services",
    "phone": "(407) 271-3218",
    "address": "1091 Greenwood Blvd  Lake Mary, FL 32746",
    "location": "Calhoun"
  },
  {
    "name": "MoneyMagnetEvite",
    "description": "Marketing Programs & Services",
    "phone": "(407) 421-0701",
    "address": "404 Timberglen Ct  Winter Springs, FL 32708",
    "location": "Calhoun"
  },
  {
    "name": "imediaReachÂ®",
    "description": "Marketing Programs & Services",
    "phone": "(855) 825-4114",
    "address": "1511 E State Road 434 Ste 2001  Winter Springs, FL 32708",
    "location": "Calhoun"
  },
  {
    "name": "Direct Marketing Resources",
    "description": "Marketing Programs & Services",
    "phone": "(407) 804-2700",
    "address": "550 Technology Park  Lake Mary, FL 32746",
    "location": "Calhoun"
  },
  {
    "name": "Distrx Inc",
    "description": "Marketing Programs & Services",
    "phone": "(407) 618-1223",
    "address": "2463 River Tree Cir  Sanford, FL 32771",
    "location": "Calhoun"
  },
  {
    "name": "Big Shark Marketing",
    "description": "Marketing Programs & Services",
    "phone": "(407) 613-2254",
    "address": "729 Sailfish Rd  Winter Springs, FL 32708",
    "location": "Calhoun"
  },
  {
    "name": "Washeen SEO",
    "description": "Marketing Programs & Services",
    "phone": "(407) 446-2602",
    "address": "2441 Casselberry Fl - 32707  Casselberry, FL 32707",
    "location": "Calhoun"
  },
  {
    "name": "Source 1 Specialty Services",
    "description": "Marketing Programs & Services",
    "phone": "(407) 331-0606",
    "address": "920 Belle Ave Ste 1320  Winter Springs, FL 32708",
    "location": "Calhoun"
  },
  {
    "name": "Arcane Marketing",
    "description": "Marketing Programs & Services",
    "phone": "(208) 938-5988",
    "address": "240 E Palmetto Ave Ste 100  Longwood, FL 32750",
    "location": "Calhoun"
  },
  {
    "name": "Trusun Media Inc",
    "description": "Marketing Programs & Services",
    "phone": "(407) 388-1001",
    "address": "240 E Palmetto Ave Ste 100  Longwood, FL 32750",
    "location": "Calhoun"
  },
  {
    "name": "Total Marketing Solutions",
    "description": "Marketing Programs & Services",
    "phone": "(407) 331-2892",
    "address": "692 S Us Highway 17 92  Longwood, FL 32750",
    "location": "Calhoun"
  },
  {
    "name": "Branding by Jo",
    "description": "Marketing Programs & Services",
    "phone": "(321) 348-7082",
    "address": "83 Geneva Dr Unit 620805  Oviedo, FL 32762",
    "location": "Calhoun"
  },
  {
    "name": "B2B Dollars",
    "description": "Marketing Programs & Services",
    "phone": "(407) 986-8222",
    "address": "300 N Ronald Reagan Blvd #100  Longwood, FL 32750",
    "location": "Calhoun"
  },
  {
    "name": "Imediareach",
    "description": "Marketing Programs & Services",
    "phone": "(855) 825-4114",
    "address": "2200 Winter Springs Blvd  Oviedo, FL 32765",
    "location": "Calhoun"
  },
  {
    "name": "My Oviedo Marketing",
    "description": "Marketing Programs & Services",
    "phone": "(407) 402-1662",
    "address": "50 Smith St  Oviedo, FL 32765",
    "location": "Calhoun"
  },
  {
    "name": "Meridian Marketing Group Inc",
    "description": "Marketing Programs & Services",
    "phone": "(407) 831-7996",
    "address": "250 S Ronald Reagan Blvd  Longwood, FL 32750",
    "location": "Calhoun"
  },
  {
    "name": "Hung Up Media, Inc.",
    "description": "Marketing Programs & Services",
    "phone": "(407) 984-5633",
    "address": "709 Windwillow Cir  Winter Springs, FL 32708",
    "location": "Calhoun"
  },
  {
    "name": "Hunter Tammy",
    "description": "Marketing Programs & Services",
    "phone": "(407) 331-2815",
    "address": "525 S Ronald Reagan Blvd  Longwood, FL 32750",
    "location": "Calhoun"
  },
  {
    "name": "Now Marketing Group Inc",
    "description": "Marketing Programs & Services",
    "phone": "(321) 972-8045",
    "address": "1060 W State Road 434  Longwood, FL 32750",
    "location": "Calhoun"
  },
  {
    "name": "Sharks Success Marketing Enterprise",
    "description": "Marketing Programs & Services",
    "phone": "(407) 260-9535",
    "address": "1355 Bennett Dr  Longwood, FL 32750",
    "location": "Calhoun"
  },
  {
    "name": "C3 Research",
    "description": "Marketing Programs & Services",
    "phone": "(407) 542-7751",
    "address": "7560 Red Bug Lake Rd  Oviedo, FL 32765",
    "location": "Calhoun"
  },
  {
    "name": "Skyblue Solutions",
    "description": "Marketing Programs & Services",
    "phone": "(407) 628-9221",
    "address": "927 Fern St  Altamonte Springs, FL 32701",
    "location": "Calhoun"
  },
  {
    "name": "Unitel Marketin G",
    "description": "Marketing Programs & Services",
    "phone": "(321) 422-0772",
    "address": "927 Fern St  Altamonte Springs, FL 32701",
    "location": "Calhoun"
  },
  {
    "name": "Sunshine Reservations Inc",
    "description": "Marketing Programs & Services",
    "phone": "(407) 831-2084",
    "address": "271 Live Oaks Blvd  Casselberry, FL 32707",
    "location": "Calhoun"
  },
  {
    "name": "Orangesquare",
    "description": "Marketing Programs & Services",
    "phone": "(407) 494-4022",
    "address": "815 Orienta Ave  Altamonte Springs, FL 32701",
    "location": "Calhoun"
  },
  {
    "name": "K2J Digital Marketing",
    "description": "Marketing Programs & Services",
    "phone": "(407) 494-1791",
    "address": "478 E Altamonte Dr  Altamonte Springs, FL 32701",
    "location": "Calhoun"
  },
  {
    "name": "Cruises-N-More",
    "description": "Marketing Programs & Services",
    "phone": "(407) 771-4454",
    "address": "370 Centerpointe Cir  Altamonte Springs, FL 32701",
    "location": "Calhoun"
  },
  {
    "name": "Resource Marketing Solutions",
    "description": "Marketing Programs & Services",
    "phone": "(407) 734-7624",
    "address": "283 Cranes Roost Blvd  Altamonte Springs, FL 32701",
    "location": "Calhoun"
  },
  {
    "name": "TrueBlue Designs",
    "description": "Marketing Programs & Services",
    "phone": "(407) 326-6800",
    "address": "Fox Valley Dr  Longwood, FL 32779",
    "location": "Calhoun"
  },
  {
    "name": "Step 2 Vance Marketing Service",
    "description": "Marketing Programs & Services",
    "phone": "(407) 521-7970",
    "address": "155 Cranes Roost Blvd  Altamonte Springs, FL 32701",
    "location": "Calhoun"
  },
  {
    "name": "Cruz.MCA",
    "description": "Marketing Programs & Services",
    "phone": "(386) 232-0158",
    "address": "2781 Lafoy ct  Deltona, FL 32738",
    "location": "Calhoun"
  },
  {
    "name": "Nationwide Small Business Resources",
    "description": "Marketing Programs & Services",
    "phone": "(386) 516-3550",
    "address": "2048 Howland Blvd  Deltona, FL 32738",
    "location": "Calhoun"
  },
  {
    "name": "Volusia Contractor Directory",
    "description": "Marketing Programs & Services",
    "phone": "(386) 753-4647",
    "address": "2825 Derby Dr  Deltona, FL 32738",
    "location": "Calhoun"
  },
  {
    "name": "Direct Sales Marketing of Florida, Inc.",
    "description": "Marketing Programs & Services",
    "phone": "(386) 228-0458",
    "address": "1477 S Leavitt Ave  Orange City, FL 32763",
    "location": "Calhoun"
  },
  {
    "name": "International Telemarketing",
    "description": "Marketing Programs & Services",
    "phone": "(386) 218-6930",
    "address": "243 W Graves Ave  Orange City, FL 32763",
    "location": "Calhoun"
  },
  {
    "name": "Get Found By Design",
    "description": "Marketing Programs & Services",
    "phone": "(407) 494-4823",
    "address": "815 S French Ave  Sanford, FL 32771",
    "location": "Calhoun"
  },
  {
    "name": "Adams Marketing Group",
    "description": "Marketing Programs & Services",
    "phone": "(407) 320-0987",
    "address": "3842 Caboose Pl  Sanford, FL 32771",
    "location": "Calhoun"
  },
  {
    "name": "Relentless Media",
    "description": "Marketing Programs & Services",
    "phone": "(407) 252-3980",
    "address": "1429 Dolgner Pl  Sanford, FL 32771",
    "location": "Calhoun"
  },
  {
    "name": "Maus Media Group",
    "description": "Marketing Programs & Services",
    "phone": "(407) 302-5880",
    "address": "1160 Rinehart Rd  Sanford, FL 32771",
    "location": "Calhoun"
  },
  {
    "name": "Online Tactix, LLC",
    "description": "Marketing Programs & Services",
    "phone": "(888) 541-4447",
    "address": "5224 W State Road 46 # 131  Sanford, FL 32771",
    "location": "Calhoun"
  },
  {
    "name": "Dealer Funnel",
    "description": "Marketing Programs & Services",
    "phone": "(800) 675-4522",
    "address": "5739 Byron Anthony Pl  Sanford, FL 32771",
    "location": "Calhoun"
  },
  {
    "name": "One Source Branding & Media",
    "description": "Marketing Programs & Services",
    "phone": "(321) 441-3160",
    "address": "187 E Crystal Lake Ave Unit 1005  Lake Mary, FL 32746",
    "location": "Calhoun"
  },
  {
    "name": "MBI Direct Mail, Inc.",
    "description": "Marketing Programs & Services",
    "phone": "(800) 359-4780",
    "address": "710 W New Hampshire Ave  Deland, FL 32720",
    "location": "Calhoun"
  },
  {
    "name": "Minuteman Press Longwood | Orlando Printing, Design, Mailing, & Signs",
    "description": "Marketing Programs & Services",
    "phone": "(407) 260-0116",
    "address": "800 Waterway Pl  Longwood, FL 32750",
    "location": "Calhoun"
  },
  {
    "name": "Evok Advertising",
    "description": "Marketing Programs & Services",
    "phone": "(407) 302-4416",
    "address": "152 N 4th St  Lake Mary, FL 32746",
    "location": "Calhoun"
  },
  {
    "name": "Levitation Studio Inc.",
    "description": "Marketing Programs & Services",
    "phone": "(888) 514-8814",
    "address": "1540 International Pkwy  Lake Mary, FL 32746",
    "location": "Calhoun"
  },
  {
    "name": "Pyramid Life Insurance Co",
    "description": "Marketing Programs & Services",
    "phone": "(407) 628-1776",
    "address": "1001 Heathrow Park Ln  Lake Mary, FL 32746",
    "location": "Calhoun"
  },
  {
    "name": "American Made Digital, LLC",
    "description": "Marketing Programs & Services",
    "phone": "(407) 717-6025",
    "address": "PO Box 950843  Lake Mary, FL 32795",
    "location": "Calhoun"
  },
  {
    "name": "Multi Marketing Research Co",
    "description": "Marketing Programs & Services",
    "phone": "(321) 275-0370",
    "address": "125 Middle St  Lake Mary, FL 32746",
    "location": "Calhoun"
  },
  {
    "name": "Axel & Associates",
    "description": "Marketing Programs & Services",
    "phone": "(866) 328-4329",
    "address": "175 Middle St Unit 1201  Lake Mary, FL 32746",
    "location": "Calhoun"
  },
  {
    "name": "Finastra",
    "description": "Marketing Programs & Services",
    "phone": "(407) 333-0209",
    "address": "744 Primera Blvd  Lake Mary, FL 32746",
    "location": "Calhoun"
  },
  {
    "name": "Pentagon Consulting Associates Inc",
    "description": "Marketing Programs & Services",
    "phone": "(407) 417-5060",
    "address": "1512 Cherry Ridge Dr  Lake Mary, FL 32746",
    "location": "Calhoun"
  },
  {
    "name": "Marchand & Company - Marketing Media",
    "description": "Marketing Programs & Services",
    "phone": "(407) 444-2090",
    "address": "4300 W Lake Mary Blvd  Lake Mary, FL 32746",
    "location": "Calhoun"
  },
  {
    "name": "Here To Help Marketing",
    "description": "Marketing Programs & Services",
    "phone": "(407) 391-5422",
    "address": "255 Primera Blvd Suite 160  Lake Mary, FL 32746",
    "location": "Calhoun"
  },
  {
    "name": "Intersect Media Solutions",
    "description": "Marketing Programs & Services",
    "phone": "(321) 283-5255",
    "address": "610 Crescent Executive Ct Ste 112  Lake Mary, FL 32746",
    "location": "Calhoun"
  },
  {
    "name": "Invent Help",
    "description": "Marketing Programs & Services",
    "phone": "(407) 942-1393",
    "address": "160 International Pkwy Ste 276  Heathrow, FL 32746",
    "location": "Calhoun"
  },
  {
    "name": "Precisionplay Media",
    "description": "Marketing Programs & Services",
    "phone": "(407) 805-8800",
    "address": "160 International Pkwy  Lake Mary, FL 32746",
    "location": "Calhoun"
  },
  {
    "name": "Aerographics",
    "description": "Marketing Programs & Services",
    "phone": "(386) 736-9779",
    "address": "1725 Lexington Ave  Deland, FL 32724",
    "location": "Calhoun"
  },
  {
    "name": "78 Madison",
    "description": "Marketing Programs & Services",
    "phone": "(407) 788-7070",
    "address": "1401 Town Plaza Ct  Winter Springs, FL 32708",
    "location": "Calhoun"
  },
  {
    "name": "Tru-Sun Media",
    "description": "Marketing Programs & Services",
    "phone": "(407) 388-1001",
    "address": "1255 Belle Ave  Winter Springs, FL 32708",
    "location": "Calhoun"
  },
  {
    "name": "Fast Lane Promotions",
    "description": "Marketing Programs & Services",
    "phone": "(407) 328-7653",
    "address": "1828 Bridgewater Dr  Lake Mary, FL 32746",
    "location": "Calhoun"
  },
  {
    "name": "Carina Marketing",
    "description": "Marketing Programs & Services",
    "phone": "(407) 474-2571",
    "address": "1985 Saffron Ct  Oviedo, FL 32765",
    "location": "Calhoun"
  },
  {
    "name": "BCV Deals",
    "description": "Marketing Programs & Services",
    "phone": "(407) 571-2980",
    "address": "260 Maitland Ave  Altamonte Springs, FL 32701",
    "location": "Calhoun"
  },
  {
    "name": "Roar! Internet Marketing",
    "description": "Marketing Programs & Services",
    "phone": "(407) 786-7330",
    "address": "307 Cranes Roost Blvd Ste 2020  Altamonte Springs, FL 32701",
    "location": "Calhoun"
  },
  {
    "name": "Medtech Momentum",
    "description": "Marketing Programs & Services",
    "phone": "(407) 960-2994",
    "address": "377 Maitland Ave  Altamonte Springs, FL 32701",
    "location": "Calhoun"
  },
  {
    "name": "Full Run",
    "description": "Marketing Programs & Services",
    "phone": "(386) 290-8087",
    "address": "6544 Shahab Ln  Port Orange, FL 32128",
    "location": "Calhoun"
  },
  {
    "name": "Empower Network",
    "description": "Internet Marketing & Advertising",
    "phone": "(407) 620-5585",
    "address": "Po Box 390874  Deltona, FL 32739",
    "location": "Calhoun"
  },
  {
    "name": "Wide Fusion",
    "description": "Internet Marketing & Advertising",
    "phone": "(386) 259-9645",
    "address": "1200 Deltona Blvd  Deltona, FL 32725",
    "location": "Calhoun"
  },
  {
    "name": "Dream Network Academy",
    "description": "Direct Marketing Services",
    "phone": "(386) 473-6623",
    "address": "2569 Delbarton Ave  Deltona, FL 32725",
    "location": "Calhoun"
  },
  {
    "name": "Dare to Dream A Gain",
    "description": "Marketing Consultants",
    "phone": "(407) 878-7669",
    "address": "209 San Carlos Ave  Sanford, FL 32771",
    "location": "Calhoun"
  },
  {
    "name": "Dealzkingzdepot.com",
    "description": "Internet Marketing & Advertising",
    "phone": "(386) 244-9500",
    "address": "401 E 1st St  Sanford, FL 32771",
    "location": "Calhoun"
  },
  {
    "name": "L A Marketing Company",
    "description": "Marketing Consultants",
    "phone": "(407) 732-4704",
    "address": "114 W 1st St  Sanford, FL 32771",
    "location": "Calhoun"
  },
  {
    "name": "Sanitizersubscription.com",
    "description": "Internet Marketing & Advertising",
    "phone": "(407) 943-4909",
    "address": "201 N Maple Ave  Sanford, FL 32771",
    "location": "Calhoun"
  },
  {
    "name": "Nostressbuyersforyourhouse.com",
    "description": "Internet Marketing & Advertising",
    "phone": "(386) 855-8740",
    "address": "3150 Tiburon Ln  Deltona, FL 32738",
    "location": "Calhoun"
  },
  {
    "name": "R.T.P Marketing - Rock The Pavement Marketing",
    "description": "Internet Marketing & Advertising",
    "phone": "(386) 400-3986",
    "address": "3072 Courtland Blvd  Deltona, FL 32738",
    "location": "Calhoun"
  },
  {
    "name": "Amp",
    "description": "Business Coaches & Consultants",
    "phone": "(386) 320-0416",
    "address": "87 S Charles Richard Beall Blvd  Debary, FL 32713",
    "location": "Calhoun"
  },
  {
    "name": "Alps Did IT",
    "description": "Marketing Consultants",
    "phone": "(386) 301-0157",
    "address": "741 Saxon Blvd  Orange City, FL 32763",
    "location": "Calhoun"
  },
  {
    "name": "Cma",
    "description": "Marketing Consultants",
    "phone": "(386) 668-4616",
    "address": "80 Spring Vista Dr Ste 100  Debary, FL 32713",
    "location": "Calhoun"
  },
  {
    "name": "Simplicity Solutions Group",
    "description": "Computer Software Publishers & Developers",
    "phone": "(407) 801-7100",
    "address": "2435 S Volusia Ave Ste D1  Orange City, FL 32763",
    "location": "Calhoun"
  },
  {
    "name": "Air Power Marketing Inc",
    "description": "Marketing Consultants",
    "phone": "(386) 775-3130",
    "address": "1477 S Leavitt Ave  Orange City, FL 32763",
    "location": "Calhoun"
  },
  {
    "name": "Computers for Marketing Corp",
    "description": "Market Research & Analysis",
    "phone": "(386) 774-1191",
    "address": "485 Quail Hill Dr  Debary, FL 32713",
    "location": "Calhoun"
  },
  {
    "name": "AFES, LLC",
    "description": "Business Plans Development",
    "phone": "(407) 347-4669",
    "address": "123 N Industrial Dr Ste D  Orange City, FL 32763",
    "location": "Calhoun"
  },
  {
    "name": "Bravo Select Marketing",
    "description": "Marketing Consultants",
    "phone": "(407) 674-5597",
    "address": "5535 Canteen Ct  Oviedo, FL 32765",
    "location": "Calhoun"
  },
  {
    "name": "JKR Advertising & Marketings",
    "description": "Advertising Agencies",
    "phone": "(321) 397-0777",
    "address": "195 Wekiva Springs Rd  Longwood, FL 32779",
    "location": "Calhoun"
  },
  {
    "name": "Amp Marketing Partners",
    "description": "Management Training",
    "phone": "(407) 401-9661",
    "address": "407 Wekiva Springs Rd  Longwood, FL 32779",
    "location": "Calhoun"
  },
  {
    "name": "JAF Marketing",
    "description": "Marketing Programs & Services",
    "phone": "(407) 774-5555",
    "address": "2460 W State Road 434  Longwood, FL 32779",
    "location": "Calhoun"
  },
  {
    "name": "Adsrate Marketing Services",
    "description": "Internet Marketing & Advertising",
    "phone": "(407) 960-5953",
    "address": "1070 Montgomery Rd #2021  Altamonte Springs, FL 32714",
    "location": "Calhoun"
  },
  {
    "name": "Media Marketing",
    "description": "Marketing Consultants",
    "phone": "(407) 831-7602",
    "address": "200 Maitland Ave  Altamonte Springs, FL 32701",
    "location": "Calhoun"
  },
  {
    "name": "LWG Social Media Marketing",
    "description": "Marketing Consultants",
    "phone": "(321) 972-3932",
    "address": "658 Douglas Ave  Altamonte Springs, FL 32714",
    "location": "Calhoun"
  },
  {
    "name": "Jade Marketing Inc",
    "description": "Marketing Consultants",
    "phone": "(407) 682-6900",
    "address": "223 Altamonte Commerce Blvd Ste 1310  Altamonte Springs, FL 32714",
    "location": "Calhoun"
  },
  {
    "name": "Marketing Configurations",
    "description": "Marketing Consultants",
    "phone": "(407) 788-7538",
    "address": "640 Douglas Ave  Altamonte Springs, FL 32714",
    "location": "Calhoun"
  },
  {
    "name": "Genius Advertising & Marketing",
    "description": "Advertising Agencies",
    "phone": "(407) 682-3037",
    "address": "864 Little Bend Rd  Altamonte Springs, FL 32714",
    "location": "Calhoun"
  },
  {
    "name": "E the Center of Marketing",
    "description": "Marketing Consultants",
    "phone": "(407) 768-3999",
    "address": "285 W Central Pkwy Ste 1732  Altamonte Springs, FL 32714",
    "location": "Calhoun"
  },
  {
    "name": "Digital Marketing",
    "description": "Computer Software Publishers & Developers",
    "phone": "(407) 478-3221",
    "address": "1909 Hibiscus Ln  Maitland, FL 32751",
    "location": "Calhoun"
  },
  {
    "name": "Zebra Marketing",
    "description": "Marketing Consultants",
    "phone": "(407) 786-5652",
    "address": "445 Douglas Ave Ste 200519  Altamonte Springs, FL 32714",
    "location": "Calhoun"
  },
  {
    "name": "Marketing on Time",
    "description": "Computer Network Design & Systems",
    "phone": "(407) 977-9264",
    "address": "707 Bamboo Palm Way  Oviedo, FL 32765",
    "location": "Calhoun"
  },
  {
    "name": "Intrepid Marketing Concepts",
    "description": "Cellular Telephone Equipment & Supplies",
    "phone": "(407) 678-6940",
    "address": "1241 State Road 436  Casselberry, FL 32707",
    "location": "Calhoun"
  },
  {
    "name": "anna marketing",
    "description": "Marble-Natural",
    "phone": "(407) 960-1392",
    "address": "5627 Elmhurst Cir  Oviedo, FL 32765",
    "location": "Calhoun"
  },
  {
    "name": "Parallel Marketing Service",
    "description": "Advertising Agencies",
    "phone": "(407) 517-4835",
    "address": "2670 Creekview Cir  Oviedo, FL 32765",
    "location": "Calhoun"
  },
  {
    "name": "Gill Marketing Co",
    "description": "Partitions",
    "phone": "(602) 943-7700",
    "address": "2514 Chippewa Trl  Maitland, FL 32751",
    "location": "Calhoun"
  },
  {
    "name": "No Limit Marketing and Advertising",
    "description": "Internet Marketing & Advertising",
    "phone": "(321) 400-6116",
    "address": "2789 Wrights Rd Ste 1009  Oviedo, FL 32765",
    "location": "Calhoun"
  },
  {
    "name": "Bennett & Co Marketing",
    "description": "Public Relations Counselors",
    "phone": "(407) 478-4040",
    "address": "230 N Westmonte Dr  Altamonte Springs, FL 32714",
    "location": "Calhoun"
  },
  {
    "name": "American Marketing Development",
    "description": "Marketing Consultants",
    "phone": "(407) 998-5350",
    "address": "150 N Westmonte Dr  Altamonte Springs, FL 32714",
    "location": "Calhoun"
  },
  {
    "name": "Carpe Diem Sales & Marketing Inc",
    "description": "General Merchandise",
    "phone": "(407) 682-1400",
    "address": "101 Wymore Rd  Altamonte Springs, FL 32714",
    "location": "Calhoun"
  },
  {
    "name": "Gulf Atlantic Marketing Group",
    "description": "Management Consultants",
    "phone": "(407) 359-0525",
    "address": "1530 Carillon Park Dr  Oviedo, FL 32765",
    "location": "Calhoun"
  },
  {
    "name": "King Direct Marketing Inc",
    "description": "Marketing Consultants",
    "phone": "(386) 788-8925",
    "address": "1916 Bay Lake Way  Port Orange, FL 32128",
    "location": "Calhoun"
  },
  {
    "name": "Research Marketing",
    "description": "Marketing Consultants",
    "phone": "(321) 397-2310",
    "address": "1954 Howell Branch Rd  Winter Park, FL 32792",
    "location": "Calhoun"
  },
  {
    "name": "Lieben Marketing Service Inc",
    "description": "Insurance",
    "phone": "(407) 629-4108",
    "address": "1741 Choctaw Trl  Maitland, FL 32751",
    "location": "Calhoun"
  },
  {
    "name": "Lnb Marketing",
    "description": "Marketing Consultants",
    "phone": "(321) 397-9049",
    "address": "1900 Howell Branch Rd  Winter Park, FL 32792",
    "location": "Calhoun"
  },
  {
    "name": "Kitching Internet Management Solutions",
    "description": "Internet Marketing & Advertising",
    "phone": "(386) 562-6009",
    "address": "906 E Church St  Deland, FL 32724",
    "location": "Calhoun"
  },
  {
    "name": "Signal Media",
    "description": "Internet Marketing & Advertising",
    "phone": "(407) 476-9358",
    "address": "117 W. Howry Avenue, Ste 2  DeLand, FL 32720",
    "location": "Calhoun"
  },
  {
    "name": "Snapt Inc",
    "description": "Internet Marketing & Advertising",
    "phone": "(386) 873-0173",
    "address": "101 N Woodland Blvd Ste 500  Deland, FL 32720",
    "location": "Calhoun"
  },
  {
    "name": "Corner Office Enterprises",
    "description": "Business Coaches & Consultants",
    "phone": "(386) 898-2015",
    "address": "101 N Woodland Blvd Ste A305  Deland, FL 32720",
    "location": "Calhoun"
  },
  {
    "name": "New York Ave",
    "description": "Internet Marketing & Advertising",
    "phone": "(386) 490-8900",
    "address": "112 W Indiana Ave Ste 206  Deland, FL 32720",
    "location": "Calhoun"
  },
  {
    "name": "Moog Marketing",
    "description": "Marketing Consultants",
    "phone": "(407) 324-3313",
    "address": "1515 Saddle Run Dr  Osteen, FL 32764",
    "location": "Calhoun"
  },
  {
    "name": "Ithrive Development",
    "description": "Marketing Consultants",
    "phone": "(407) 257-1717",
    "address": "600 Rinehart Rd  Lake Mary, FL 32746",
    "location": "Calhoun"
  },
  {
    "name": "DME Digital",
    "description": "Marketing Consultants",
    "phone": "(407) 406-4741",
    "address": "600 Rinehart Rd  Lake Mary, FL 32746",
    "location": "Calhoun"
  },
  {
    "name": "Tonic Enterprises",
    "description": "Web Site Design & Services",
    "phone": "(407) 917-7211",
    "address": "1540 International Pkwy Ste 2000  Lake Mary, FL 32746",
    "location": "Calhoun"
  },
  {
    "name": "Checkout Locals",
    "description": "Advertising Agencies",
    "phone": "(407) 777-4506",
    "address": "1540 International Pkwy Suite 2000  Lake Mary, FL 32746",
    "location": "Calhoun"
  },
  {
    "name": "Tws Marketing Group Inc",
    "description": "Marketing Consultants",
    "phone": "(407) 333-1023",
    "address": "801 International Pkwy  Lake Mary, FL 32746",
    "location": "Calhoun"
  },
  {
    "name": "JLS Automotive Marketing Inc.",
    "description": "Internet Marketing & Advertising",
    "phone": "(321) 363-0624",
    "address": "799 Sherbourne Cir  Lake Mary, FL 32746",
    "location": "Calhoun"
  },
  {
    "name": "Collect-Us.com",
    "description": "Internet Marketing & Advertising",
    "phone": "(407) 328-7669",
    "address": "559 S Country Club Rd  Lake Mary, FL 32746",
    "location": "Calhoun"
  },
  {
    "name": "Marketing LP",
    "description": "Marketing Consultants",
    "phone": "(407) 878-3158",
    "address": "287 Bald Eagle Run  Lake Mary, FL 32746",
    "location": "Calhoun"
  },
  {
    "name": "Proforma A&G Marketing Group",
    "description": "Advertising Agencies",
    "phone": "(386) 626-9200",
    "address": "255 Primera Blvd Ste 160  Lake Mary, FL 32746",
    "location": "Calhoun"
  },
  {
    "name": "Certnutri.com",
    "description": "Internet Marketing & Advertising",
    "phone": "(407) 781-8069",
    "address": "255 Primera Blvd  Lake Mary, FL 32746",
    "location": "Calhoun"
  },
  {
    "name": "Stephenson & Associates",
    "description": "Internet Marketing & Advertising",
    "phone": "(407) 833-3728",
    "address": "255 Primera Blvd Ste 160  Lake Mary, FL 32746",
    "location": "Calhoun"
  },
  {
    "name": "Corporate World Consultants",
    "description": "Marketing Consultants",
    "phone": "(407) 585-2060",
    "address": "605 Crescent Executive Ct  Lake Mary, FL 32746",
    "location": "Calhoun"
  },
  {
    "name": "Design Studio Vega",
    "description": "Internet Marketing & Advertising",
    "phone": "(321) 578-9277",
    "address": "1275 Glencrest Dr  Lake MAry, FL 32746",
    "location": "Calhoun"
  },
  {
    "name": "Voipterminator Incorporated",
    "description": "Marketing Consultants",
    "phone": "(321) 363-3087",
    "address": "250 International Pkwy  Lake Mary, FL 32746",
    "location": "Calhoun"
  },
  {
    "name": "Food and Beverage Ingredients Inc",
    "description": "Marketing Consultants",
    "phone": "(407) 829-7375",
    "address": "187 Promenade Cir  Lake Mary, FL 32746",
    "location": "Calhoun"
  },
  {
    "name": "Imagination Marketing Solitions Inc",
    "description": "Marketing Consultants",
    "phone": "(407) 260-5700",
    "address": "1973 Longwood Lake Mary Rd  Longwood, FL 32750",
    "location": "Calhoun"
  },
  {
    "name": "Emulous Media Inc",
    "description": "Marketing Consultants",
    "phone": "(689) 255-6327",
    "address": "1325 S International Pkwy Ste 2221  Lake Mary, FL 32746",
    "location": "Calhoun"
  },
  {
    "name": "Shoppers' Critique International",
    "description": "Market Research & Analysis",
    "phone": "(407) 834-3337",
    "address": "1969 Corporate Sq  Longwood, FL 32750",
    "location": "Calhoun"
  },
  {
    "name": "Total Convenience Marketing",
    "description": "Food Products-Wholesale",
    "phone": "(407) 260-6727",
    "address": "1987 Corporate Sq  Longwood, FL 32750",
    "location": "Calhoun"
  },
  {
    "name": "Alliance Sales & Marketing",
    "description": "Marketing Consultants",
    "phone": "(321) 257-0470",
    "address": "1064 Greenwood Blvd Ste 112  Lake Mary, FL 32746",
    "location": "Calhoun"
  },
  {
    "name": "SEO Marketing Engine",
    "description": "Internet Marketing & Advertising",
    "phone": "(321) 282-2306",
    "address": "2290 N Ronald Reagan Blvd Ste 120  Longwood, FL 32750",
    "location": "Calhoun"
  },
  {
    "name": "J Squared Marketing Inc",
    "description": "Marketing Consultants",
    "phone": "(407) 339-0715",
    "address": "2280 N Ronald Reagan Blvd  Longwood, FL 32750",
    "location": "Calhoun"
  },
  {
    "name": "Berg Solutions",
    "description": "Marketing Consultants",
    "phone": "(407) 671-8633",
    "address": "688 Fortrose Dr  Winter Springs, FL 32708",
    "location": "Calhoun"
  },
  {
    "name": "Mr. Checkout Distributors",
    "description": "Product Design, Development & Marketing",
    "phone": "(407) 603-6557",
    "address": "381 S Central Ave  Oviedo, FL 32765",
    "location": "Calhoun"
  },
  {
    "name": "EoVov LLC",
    "description": "Marketing Consultants",
    "phone": "(386) 232-8681",
    "address": "1502 Red Plum Hollow  DeLand, FL 32720",
    "location": "Calhoun"
  },
  {
    "name": "Hill & Hollis Enterprises",
    "description": "Marketing Consultants",
    "phone": "(386) 279-0123",
    "address": "713 W New York Ave  Deland, FL 32720",
    "location": "Calhoun"
  },
  {
    "name": "Say IT Big Orlando",
    "description": "Marketing Consultants",
    "phone": "(786) 383-8649",
    "address": "913 Marlboro Dr  Deland, FL 32724",
    "location": "Calhoun"
  },
  {
    "name": "A7 Multimedia",
    "description": "Web Site Hosting",
    "phone": "(386) 453-1464",
    "address": "603 Elkhorn Fern Ln  DeLand, FL 32720",
    "location": "Calhoun"
  },
  {
    "name": "Pretty Awesome Web Design",
    "description": "Web Site Hosting",
    "phone": "(407) 587-0025",
    "address": "123 N Boulevard Ct  Deland, FL 32720",
    "location": "Calhoun"
  },
  {
    "name": "Midland Florida Clinical Research Center",
    "description": "Market Research & Analysis",
    "phone": "(386) 279-6181",
    "address": "665 Peachwood Dr  Deland, FL 32720",
    "location": "Calhoun"
  },
  {
    "name": "StartYourBrandNow.com",
    "description": "Internet Marketing & Advertising",
    "phone": "(386) 222-6484",
    "address": "1702 N Woodland Blvd  Deland, FL 32724",
    "location": "Calhoun"
  },
  {
    "name": "Cemco Marketing",
    "description": "Marketing Consultants",
    "phone": "(386) 740-2440",
    "address": "2943 Paolini Dr  Deland, FL 32720",
    "location": "Calhoun"
  },
  {
    "name": "Virtual Stacks Systems",
    "description": "Web Site Design & Services",
    "phone": "(407) 544-3201",
    "address": "650 Technology Park  Lake Mary, FL 32746",
    "location": "Calhoun"
  },
  {
    "name": "AGIL Enterprises",
    "description": "Internet Marketing & Advertising",
    "phone": "(407) 233-5083",
    "address": "745 W State Road 434  Longwood, FL 32750",
    "location": "Calhoun"
  },
  {
    "name": "Marketing General",
    "description": "Marketing Consultants",
    "phone": "(407) 804-2705",
    "address": "1001 Sand Pond Rd  Lake Mary, FL 32746",
    "location": "Calhoun"
  },
  {
    "name": "We Print Everything",
    "description": "Advertising-Promotional Products",
    "phone": "(407) 339-3410",
    "address": "2100 N Ronald Reagan Blvd  Longwood, FL 32750",
    "location": "Calhoun"
  },
  {
    "name": "Bbjcloud.com",
    "description": "Internet Marketing & Advertising",
    "phone": "(407) 574-6986",
    "address": "111 Commerce St  Lake Mary, FL 32746",
    "location": "Calhoun"
  },
  {
    "name": "Mainstreet Marketing",
    "description": "Marketing Consultants",
    "phone": "(407) 790-4973",
    "address": "1687 Timocuan Way  Longwood, FL 32750",
    "location": "Calhoun"
  },
  {
    "name": "Ameritek Medical Solutions Inc",
    "description": "Marketing Consultants",
    "phone": "(407) 285-9564",
    "address": "30 Skyline Dr  Lake Mary, FL 32746",
    "location": "Calhoun"
  },
  {
    "name": "Ezyield.Com Inc",
    "description": "Internet Marketing & Advertising",
    "phone": "(407) 629-0900",
    "address": "209 N Moss Rd  Winter Springs, FL 32708",
    "location": "Calhoun"
  },
  {
    "name": "Hit Or Click Marketing",
    "description": "Internet Marketing & Advertising",
    "phone": "(407) 326-8188",
    "address": "3190 Howard Ave  Oviedo, FL 32765",
    "location": "Calhoun"
  },
  {
    "name": "Southern Marketing Associates",
    "description": "Marketing Consultants",
    "phone": "(407) 542-0763",
    "address": "151 E State Road 434  Winter Springs, FL 32708",
    "location": "Calhoun"
  },
  {
    "name": "Internet Marketing Directory",
    "description": "Marketing Consultants",
    "phone": "(407) 330-0443",
    "address": "643 Fox Hunt Cir  Longwood, FL 32750",
    "location": "Calhoun"
  },
  {
    "name": "Clarity Creative Group",
    "description": "Web Site Design & Services",
    "phone": "(407) 233-4464",
    "address": "925 W State Road 434 Ste 102  Winter Springs, FL 32708",
    "location": "Calhoun"
  },
  {
    "name": "The Modern Feminine",
    "description": "Marketing Consultants",
    "phone": "(407) 934-0517",
    "address": "5840 Red Bug Lake Rd 1611  Winter Springs, FL 32708",
    "location": "Calhoun"
  },
  {
    "name": "Internet Performance Group",
    "description": "Internet Marketing & Advertising",
    "phone": "(877) 474-9997",
    "address": "107 14th Ave  Longwood, FL 32750",
    "location": "Calhoun"
  },
  {
    "name": "Gilbert Manjura Marketing and Advertising",
    "description": "Advertising Agencies",
    "phone": "(407) 261-5739",
    "address": "346 Freeman St  Longwood, FL 32750",
    "location": "Calhoun"
  },
  {
    "name": "Peeeple",
    "description": "Marketing Consultants",
    "phone": "(407) 265-8003",
    "address": "250 W Church Ave  Longwood, FL 32750",
    "location": "Calhoun"
  },
  {
    "name": "The Redwood Agency, LLC",
    "description": "Internet Marketing & Advertising",
    "phone": "(407) 476-6136",
    "address": "100 Sandy Oaks PL  Longwood, FL 32779",
    "location": "Calhoun"
  },
  {
    "name": "Pr Marketing",
    "description": "Marketing Consultants",
    "phone": "(407) 834-0677",
    "address": "190 S Ronald Reagan Blvd  Longwood, FL 32750",
    "location": "Calhoun"
  }
]
