[
  {
    "name": "Brand Poets: Brand Strategy + Digital Marketing",
    "description": "Marketing Consultants",
    "phone": "(305) 849-1333",
    "address": "8220 SW 148th Drive  Miami, FL 33158",
    "location": "Charlotte"
  },
  {
    "name": "Hurricane Digital Marketing",
    "description": "Marketing Programs & Services",
    "phone": "(786) 250-3522",
    "address": "15715 S Dixie Hwy Ste 416  Miami, FL 33157",
    "location": "Charlotte"
  },
  {
    "name": "Readers' Marketing",
    "description": "Marketing Programs & Services",
    "phone": "(786) 250-4803",
    "address": "16201 SW 95th Ave  Miami, FL 33157",
    "location": "Charlotte"
  },
  {
    "name": "R.A.C. Marketing LLC",
    "description": "Internet Marketing & Advertising",
    "phone": "(786) 503-3886",
    "address": "14034 SW 90th Ave Apt Aa205  miami, FL 33176",
    "location": "Charlotte"
  },
  {
    "name": "Florida Business Marketing",
    "description": "Marketing Consultants",
    "phone": "(786) 249-3170",
    "address": "10260 SW 181st St  Miami, FL 33157",
    "location": "Charlotte"
  },
  {
    "name": "Linked Media Marketing",
    "description": "Marketing Consultants",
    "phone": "(786) 701-3542",
    "address": "10401 SW 173rd St  Miami, FL 33157",
    "location": "Charlotte"
  },
  {
    "name": "Maritime Marketing Associates",
    "description": "Marketing Programs & Services",
    "phone": "(305) 238-2375",
    "address": "8920 SW 129th St  Miami, FL 33176",
    "location": "Charlotte"
  },
  {
    "name": "Symmetry Printing and Marketing",
    "description": "Advertising Agencies",
    "phone": "(305) 670-8532",
    "address": "8925 SW 129th St  Miami, FL 33176",
    "location": "Charlotte"
  },
  {
    "name": "Planet Marketing Inc",
    "description": "Marketing Programs & Services",
    "phone": "(305) 979-1031",
    "address": "13241 SW 97th Ct  Miami, FL 33176",
    "location": "Charlotte"
  },
  {
    "name": "Loretta Marketing Group Inc",
    "description": "Marketing Programs & Services",
    "phone": "(305) 232-5002",
    "address": "13935 SW 102nd Ct  Miami, FL 33176",
    "location": "Charlotte"
  },
  {
    "name": "Billions G Marketing",
    "description": "Marketing Consultants",
    "phone": "(786) 765-7780",
    "address": "14801 Pierce St  Miami, FL 33176",
    "location": "Charlotte"
  },
  {
    "name": "Miami Lifestyle Marketing Inc",
    "description": "Marketing Consultants",
    "phone": "(786) 376-3771",
    "address": "8914 SW 190th Terrace Rd  Miami, FL 33157",
    "location": "Charlotte"
  },
  {
    "name": "Latin American Wines & Spirits Marketing Ltd",
    "description": "Marketing Consultants",
    "phone": "(305) 378-9990",
    "address": "8840 SW 114th Ter  Miami, FL 33176",
    "location": "Charlotte"
  },
  {
    "name": "Continental Marketing Group",
    "description": "Signs",
    "phone": "(800) 697-8267",
    "address": "8865 SW 131st St  Miami, FL 33176",
    "location": "Charlotte"
  },
  {
    "name": "Marketing Enterprises, LLC",
    "description": "Educational Consultants",
    "phone": "(305) 388-3664",
    "address": "14261 SW 120th St Ste 102  Miami, FL 33186",
    "location": "Charlotte"
  },
  {
    "name": "Integrated Marketing Group",
    "description": "Marketing Programs & Services",
    "phone": "(305) 670-0123",
    "address": "9100 S Dadeland Blvd  Miami, FL 33156",
    "location": "Charlotte"
  },
  {
    "name": "Llizo Marketing",
    "description": "Marketing Programs & Services",
    "phone": "(305) 204-0760",
    "address": "5966 S Dixie Hwy suite 300  Miami, FL 33143",
    "location": "Charlotte"
  },
  {
    "name": "YP Marketing Solutions",
    "description": "Directory & Guide Advertising",
    "phone": "(305) 482-2700",
    "address": "9700 S Dixie Hwy  Miami, FL 33156",
    "location": "Charlotte"
  },
  {
    "name": "Pollution Solution Marketing Inc",
    "description": "Water Filtration & Purification Equipment",
    "phone": "(305) 666-5455",
    "address": "9703 S Dixie Hwy  Miami, FL 33156",
    "location": "Charlotte"
  },
  {
    "name": "That Marketing Agency",
    "description": "Marketing Programs & Services",
    "phone": "(305) 663-4227",
    "address": "8950 SW 74th Ct  Miami, FL 33156",
    "location": "Charlotte"
  },
  {
    "name": "Miava Marketing",
    "description": "Direct Mail Advertising",
    "phone": "(786) 429-1492",
    "address": "12330 SW 132nd Ct  Miami, FL 33186",
    "location": "Charlotte"
  },
  {
    "name": "Opportunity Marketing System",
    "description": "Marketing Programs & Services",
    "phone": "(305) 431-9878",
    "address": "11275 SW 133rd Ter  Miami, FL 33176",
    "location": "Charlotte"
  },
  {
    "name": "Floribbean Marketing",
    "description": "Marketing Consultants",
    "phone": "(305) 731-9948",
    "address": "9771 S Dixie Hwy  Miami, FL 33156",
    "location": "Charlotte"
  },
  {
    "name": "Innovative Marketing Group",
    "description": "Marketing Programs & Services",
    "phone": "(305) 670-4501",
    "address": "9200 S Dadeland Blvd  Miami, FL 33156",
    "location": "Charlotte"
  },
  {
    "name": "All In One Direct Marketing Solutions",
    "description": "Computer Printers & Supplies",
    "phone": "(305) 233-6100",
    "address": "11950 SW 128th St  Miami, FL 33186",
    "location": "Charlotte"
  },
  {
    "name": "Top Marketing",
    "description": "Marketing Consultants",
    "phone": "(305) 233-5757",
    "address": "11728 SW 118th Ter  Miami, FL 33186",
    "location": "Charlotte"
  },
  {
    "name": "Marketing Consultants",
    "description": "Marketing Consultants",
    "phone": "(305) 595-1232",
    "address": "8900 SW 102nd Ct  Miami, FL 33176",
    "location": "Charlotte"
  },
  {
    "name": "Rocket Marketing & Design",
    "description": "Marketing Programs & Services",
    "phone": "(786) 309-8333",
    "address": "13155 SW 134th St  Miami, FL 33186",
    "location": "Charlotte"
  },
  {
    "name": "Graph X",
    "description": "Marketing Programs & Services",
    "phone": "(305) 253-0100",
    "address": "12910 SW 89th Ct  Miami, FL 33176",
    "location": "Charlotte"
  },
  {
    "name": "iN33D Marketing",
    "description": "Marketing Programs & Services",
    "phone": "(786) 309-8191",
    "address": "13701 SW 72nd Ave  Palmetto Bay, FL 33158",
    "location": "Charlotte"
  },
  {
    "name": "Excellence Auto Body and Paint Specialist",
    "description": "Marketing Programs & Services",
    "phone": "(786) 250-4523",
    "address": "10361 SW 187th St  Cutler Bay, FL 33157",
    "location": "Charlotte"
  },
  {
    "name": "Prc",
    "description": "Marketing Programs & Services",
    "phone": "(305) 255-7653",
    "address": "19500 S Dixie Hwy  Cutler Bay, FL 33157",
    "location": "Charlotte"
  },
  {
    "name": "Out of Box Events and Weddings",
    "description": "Marketing Programs & Services",
    "phone": "(786) 273-9668",
    "address": "Po Box 562484  Miami, FL 33256",
    "location": "Charlotte"
  },
  {
    "name": "Doliner Group Inc",
    "description": "Marketing Programs & Services",
    "phone": "(305) 255-0041",
    "address": "13900 SW 104th Ave  Miami, FL 33176",
    "location": "Charlotte"
  },
  {
    "name": "Sky Is The Limit Corp",
    "description": "Marketing Programs & Services",
    "phone": "(305) 964-5081",
    "address": "11055 SW 186th St  Cutler Bay, FL 33157",
    "location": "Charlotte"
  },
  {
    "name": "Reliance Group Marketing",
    "description": "Marketing Programs & Services",
    "phone": "(786) 250-4411",
    "address": "10700 Caribbean Blvd  Cutler Bay, FL 33189",
    "location": "Charlotte"
  },
  {
    "name": "Suncoast Marketing",
    "description": "Marketing Programs & Services",
    "phone": "(786) 268-1191",
    "address": "12961 Lerida St  Coral Gables, FL 33156",
    "location": "Charlotte"
  },
  {
    "name": "Paton Marketing",
    "description": "Marketing Programs & Services",
    "phone": "(786) 454-9862",
    "address": "6200 SW 114th St  Pinecrest, FL 33156",
    "location": "Charlotte"
  },
  {
    "name": "Marketinglink Corp",
    "description": "Marketing Programs & Services",
    "phone": "(305) 746-7215",
    "address": "13170 SW 128th St Ste 203  Miami, FL 33186",
    "location": "Charlotte"
  },
  {
    "name": "5DW Affiliate",
    "description": "Marketing Programs & Services",
    "phone": "(404) 694-0062",
    "address": "21791 SW 108th Ct  Miami, FL 33170",
    "location": "Charlotte"
  },
  {
    "name": "Paleoscience Inc",
    "description": "Marketing Programs & Services",
    "phone": "(305) 595-7386",
    "address": "8370 SW 100th St  Miami, FL 33156",
    "location": "Charlotte"
  },
  {
    "name": "Miss Ink",
    "description": "Marketing Programs & Services",
    "phone": "(305) 537-6465",
    "address": "9990 SW 77th Ave Ste 200  Miami, FL 33156",
    "location": "Charlotte"
  },
  {
    "name": "Loyappty",
    "description": "Marketing Programs & Services",
    "phone": "(305) 670-8081",
    "address": "9155 S Dadeland Blvd  Miami, FL 33156",
    "location": "Charlotte"
  },
  {
    "name": "GlobalMED MEDIA",
    "description": "Marketing Programs & Services",
    "phone": "(305) 209-4633",
    "address": "9301 SW 92nd Ave  Miami, FL 33176",
    "location": "Charlotte"
  },
  {
    "name": "5Digital Inc",
    "description": "Marketing Programs & Services",
    "phone": "(786) 361-5441",
    "address": "9660 Kendale Blvd  Miami, FL 33176",
    "location": "Charlotte"
  },
  {
    "name": "Ray Perez Team Corp.",
    "description": "Marketing Programs & Services",
    "phone": "(786) 201-2188",
    "address": "14644 SW 132nd Ct  Miami, FL 33186",
    "location": "Charlotte"
  },
  {
    "name": "American Senior Marketers Inc",
    "description": "Marketing Programs & Services",
    "phone": "(786) 429-3268",
    "address": "12955 SW 132nd St Ste 207  Miami, FL 33186",
    "location": "Charlotte"
  },
  {
    "name": "Precise Engagement",
    "description": "Marketing Programs & Services",
    "phone": "(305) 814-0125",
    "address": "6619 S Dixie Hwy Ste 109  Miami, FL 33143",
    "location": "Charlotte"
  },
  {
    "name": "Miami Sky Mail",
    "description": "Marketing Programs & Services",
    "phone": "(305) 252-5553",
    "address": "13230 SW 132nd Ave Ste 25  Miami, FL 33186",
    "location": "Charlotte"
  },
  {
    "name": "Lesd Marketing",
    "description": "Marketing Programs & Services",
    "phone": "(512) 289-7004",
    "address": "16430 SW 137th Ave  Miami, FL 33177",
    "location": "Charlotte"
  },
  {
    "name": "HK Web Marketing",
    "description": "Marketing Programs & Services",
    "phone": "(305) 267-8863",
    "address": "13432 SW 131st St  Miami, FL 33186",
    "location": "Charlotte"
  },
  {
    "name": "Grace Marketing & Advertising",
    "description": "Marketing Programs & Services",
    "phone": "(305) 255-3926",
    "address": "12360 SW 132nd Ct  Miami, FL 33186",
    "location": "Charlotte"
  },
  {
    "name": "Nicole Riley Marketing",
    "description": "Marketing Programs & Services",
    "phone": "(786) 732-6780",
    "address": "13335 SW 124th St  Miami, FL 33186",
    "location": "Charlotte"
  },
  {
    "name": "Dealer Group Marketing",
    "description": "Marketing Programs & Services",
    "phone": "(305) 551-6938",
    "address": "12581 SW 134th Ct  Miami, FL 33186",
    "location": "Charlotte"
  },
  {
    "name": "Evans Group",
    "description": "Marketing Programs & Services",
    "phone": "(305) 603-8504",
    "address": "9500 SW 61st Ct  Pinecrest, FL 33156",
    "location": "Charlotte"
  },
  {
    "name": "Kompani Group",
    "description": "Marketing Programs & Services",
    "phone": "(786) 594-0435",
    "address": "4981 SW 74th Ct  Miami, FL 33155",
    "location": "Charlotte"
  },
  {
    "name": "Door 2 Door Ads",
    "description": "Marketing Programs & Services",
    "phone": "(786) 529-0516",
    "address": "132nd SW 114th Ave  Miami, FL 33170",
    "location": "Charlotte"
  },
  {
    "name": "Paragon Media",
    "description": "Marketing Programs & Services",
    "phone": "(786) 400-2290",
    "address": "9031 SW 68th Ter  Miami, FL 33173",
    "location": "Charlotte"
  },
  {
    "name": "Deltex Elite Marketing, Inc.",
    "description": "Marketing Programs & Services",
    "phone": "(305) 988-4731",
    "address": "10300 SW 72nd St Ste 315  Miami, FL 33173",
    "location": "Charlotte"
  },
  {
    "name": "Miami Marketing",
    "description": "Marketing Programs & Services",
    "phone": "(305) 275-7313",
    "address": "8441 SW 68th Street Rd  Miami, FL 33143",
    "location": "Charlotte"
  },
  {
    "name": "Local Marketing Today",
    "description": "Marketing Programs & Services",
    "phone": "(305) 273-9240",
    "address": "10604 SW 71st Ln  Miami, FL 33173",
    "location": "Charlotte"
  },
  {
    "name": "Marsense",
    "description": "Marketing Programs & Services",
    "phone": "(305) 702-0022",
    "address": "7990 SW 117th Ave  Miami, FL 33183",
    "location": "Charlotte"
  },
  {
    "name": "Metro Marketing Consultants",
    "description": "Marketing Programs & Services",
    "phone": "(305) 587-9560",
    "address": "13720 SW 143rd Ct  Miami, FL 33186",
    "location": "Charlotte"
  },
  {
    "name": "Local Internet Marketing Group",
    "description": "Marketing Programs & Services",
    "phone": "(786) 472-1644",
    "address": "10420 SW 62nd St  Miami, FL 33173",
    "location": "Charlotte"
  },
  {
    "name": "Shepard Lobe Costa Inc",
    "description": "Marketing Programs & Services",
    "phone": "(305) 372-1430",
    "address": "5310 SW 89th Ave  Miami, FL 33165",
    "location": "Charlotte"
  },
  {
    "name": "Numericit",
    "description": "Marketing Programs & Services",
    "phone": "(305) 494-0861",
    "address": "11221 SW 62nd Ter  Miami, FL 33173",
    "location": "Charlotte"
  },
  {
    "name": "Sgf",
    "description": "Marketing Programs & Services",
    "phone": "(786) 882-4311",
    "address": "11350 SW 61st Ter  Miami, FL 33173",
    "location": "Charlotte"
  },
  {
    "name": "Smash Interactive Marketing",
    "description": "Marketing Programs & Services",
    "phone": "(786) 899-2424",
    "address": "4955 SW 75th Ave  Miami, FL 33155",
    "location": "Charlotte"
  },
  {
    "name": "Universal Marketing Concepts",
    "description": "Marketing Programs & Services",
    "phone": "(786) 422-2635",
    "address": "8520 SW 133rd Avenue Rd  Miami, FL 33183",
    "location": "Charlotte"
  },
  {
    "name": "Smart Target Marketing",
    "description": "Marketing Programs & Services",
    "phone": "(305) 667-6665",
    "address": "5720 SW 52nd Ter  Miami, FL 33155",
    "location": "Charlotte"
  },
  {
    "name": "Yellow3 Marketing",
    "description": "Marketing Programs & Services",
    "phone": "(305) 985-0033",
    "address": "14343 SW 96th Ln  Miami, FL 33186",
    "location": "Charlotte"
  },
  {
    "name": "Zoicreative Digital Marketing Agency",
    "description": "Marketing Programs & Services",
    "phone": "(888) 531-2061",
    "address": "4600 SW 75th Ave  Miami, FL 33155",
    "location": "Charlotte"
  },
  {
    "name": "Alphapac A Marketing Company",
    "description": "Marketing Programs & Services",
    "phone": "(786) 268-7998",
    "address": "7065 SW 46th St  Miami, FL 33155",
    "location": "Charlotte"
  },
  {
    "name": "Paradigm Marketing",
    "description": "Marketing Programs & Services",
    "phone": "(305) 740-8338",
    "address": "5900 SW 73rd St  South Miami, FL 33143",
    "location": "Charlotte"
  },
  {
    "name": "Plusamedia",
    "description": "Marketing Programs & Services",
    "phone": "(786) 383-2588",
    "address": "13764 Kendale Lakes Dr  Miami, FL 33183",
    "location": "Charlotte"
  },
  {
    "name": "Garcia Lorenzo & Associates",
    "description": "Marketing Programs & Services",
    "phone": "(305) 266-8662",
    "address": "6527 Coral Way  Miami, FL 33155",
    "location": "Charlotte"
  },
  {
    "name": "Bizmarketing.us",
    "description": "Marketing Programs & Services",
    "phone": "(786) 222-2259",
    "address": "11780 sw 18th st  Miami, FL 33175",
    "location": "Charlotte"
  },
  {
    "name": "GoWebzy",
    "description": "Marketing Programs & Services",
    "phone": "(305) 283-3175",
    "address": "19800 sw 180th ave  Miami, FL 33187",
    "location": "Charlotte"
  },
  {
    "name": "Perfect Link Marketing",
    "description": "Marketing Programs & Services",
    "phone": "(305) 515-2882",
    "address": "8365 SW 152nd Ave  Miami, FL 33193",
    "location": "Charlotte"
  },
  {
    "name": "ASSERTIVE MARKETING GROUP LLC",
    "description": "Marketing Programs & Services",
    "phone": "(305) 552-7067",
    "address": "12055 Bird Dr  Miami, FL 33175",
    "location": "Charlotte"
  },
  {
    "name": "Sky Is the Limit Marketing Services Corp",
    "description": "Marketing Programs & Services",
    "phone": "(305) 342-4893",
    "address": "7815 Coral Way  Miami, FL 33155",
    "location": "Charlotte"
  },
  {
    "name": "Sponsorise Me America",
    "description": "Marketing Programs & Services",
    "phone": "(305) 640-5965",
    "address": "3339 Virginia St Apt 101  Miami, FL 33133",
    "location": "Charlotte"
  },
  {
    "name": "DONALDSON MARKETING",
    "description": "Marketing Programs & Services",
    "phone": "(678) 830-9327",
    "address": "3070 New York St  Miami, FL 33133",
    "location": "Charlotte"
  },
  {
    "name": "Navigant Marketing",
    "description": "Marketing Programs & Services",
    "phone": "(305) 929-8300",
    "address": "6100 Coral Way  Miami, FL 33155",
    "location": "Charlotte"
  },
  {
    "name": "Miami Marketing Solutions",
    "description": "Marketing Programs & Services",
    "phone": "(305) 400-0862",
    "address": "14110 SW 52nd St  Miami, FL 33175",
    "location": "Charlotte"
  },
  {
    "name": "Socialated",
    "description": "Marketing Programs & Services",
    "phone": "(786) 378-6116",
    "address": "2665 S Bayshore Dr Ste 1103  Miami, FL 33133",
    "location": "Charlotte"
  },
  {
    "name": "Virsocom Inc",
    "description": "Marketing Programs & Services",
    "phone": "(786) 353-0706",
    "address": "2665 S Bayshore Dr  Miami, FL 33133",
    "location": "Charlotte"
  },
  {
    "name": "Stradigys",
    "description": "Marketing Programs & Services",
    "phone": "(786) 558-8372",
    "address": "2665 S Bayshore Dr  Miami, FL 33133",
    "location": "Charlotte"
  },
  {
    "name": "Kal Marketing Group",
    "description": "Marketing Programs & Services",
    "phone": "(305) 200-3465",
    "address": "15921 SW 79th Ter  Miami, FL 33193",
    "location": "Charlotte"
  },
  {
    "name": "Sandra Clavijo-Bowman & Assoc",
    "description": "Marketing Programs & Services",
    "phone": "(305) 860-0901",
    "address": "2551 Tigertail Ave  Miami, FL 33133",
    "location": "Charlotte"
  },
  {
    "name": "Chase Marketing Group",
    "description": "Marketing Programs & Services",
    "phone": "(305) 567-0280",
    "address": "2937 SW 27th Ave  Miami, FL 33133",
    "location": "Charlotte"
  },
  {
    "name": "Contractor Click",
    "description": "Marketing Programs & Services",
    "phone": "(305) 902-4888",
    "address": "8200 SW 12th Ter  Miami, FL 33144",
    "location": "Charlotte"
  },
  {
    "name": "Fyistudio",
    "description": "Marketing Programs & Services",
    "phone": "(718) 415-7371",
    "address": "17150 SW 232nd St  Miami, FL 33170",
    "location": "Charlotte"
  },
  {
    "name": "Best Marketing & Billing",
    "description": "Marketing Programs & Services",
    "phone": "(305) 262-0341",
    "address": "920 SW 82nd Ave Ste A  Miami, FL 33144",
    "location": "Charlotte"
  },
  {
    "name": "Sedona Marketing Limited Liability Company",
    "description": "Marketing Programs & Services",
    "phone": "(888) 209-5051",
    "address": "2370 W Sr 89a  Miami, FL 33134",
    "location": "Charlotte"
  },
  {
    "name": "Cubi Marketing",
    "description": "Marketing Programs & Services",
    "phone": "(305) 783-0243",
    "address": "6303 SW 158th Ave  Miami, FL 33193",
    "location": "Charlotte"
  },
  {
    "name": "Dms Design & Marketing Solutions",
    "description": "Marketing Programs & Services",
    "phone": "(305) 227-0071",
    "address": "1421 SW 107th Ave  Miami, FL 33174",
    "location": "Charlotte"
  },
  {
    "name": "Stargrafix Marketing",
    "description": "Marketing Programs & Services",
    "phone": "(786) 719-0697",
    "address": "12255 SW 19th St  Miami, FL 33175",
    "location": "Charlotte"
  },
  {
    "name": "DeepSleep Studio",
    "description": "Marketing Programs & Services",
    "phone": "(305) 720-2990",
    "address": "2140 S Dixie Hwy  Miami, FL 33133",
    "location": "Charlotte"
  },
  {
    "name": "Grupo Bt USA",
    "description": "Marketing Programs & Services",
    "phone": "(305) 740-3030",
    "address": "4944 S Le Jeune Rd  Coral Gables, FL 33146",
    "location": "Charlotte"
  },
  {
    "name": "Xplocial",
    "description": "Marketing Programs & Services",
    "phone": "(205) 533-5680",
    "address": "2660 SW 37th Ave  Coconut Grove, FL 33133",
    "location": "Charlotte"
  },
  {
    "name": "Toki Dream Team Promotions Inc.",
    "description": "Marketing Programs & Services",
    "phone": "(786) 683-4523",
    "address": "Po Box 143609  Coral Gables, FL 33114",
    "location": "Charlotte"
  },
  {
    "name": "Glabes Social Media",
    "description": "Marketing Programs & Services",
    "phone": "(786) 344-0377",
    "address": "2525 Ponce De Leon Blvd  Coral Gables, FL 33134",
    "location": "Charlotte"
  },
  {
    "name": "Chopard",
    "description": "Marketing Programs & Services",
    "phone": "(305) 774-3898",
    "address": "75 Valencia Ave Ste 1000  Coral Gables, FL 33134",
    "location": "Charlotte"
  },
  {
    "name": "Market Analytics Group",
    "description": "Marketing Programs & Services",
    "phone": "(305) 442-7300",
    "address": "1131 Obispo Ave  Coral Gables, FL 33134",
    "location": "Charlotte"
  },
  {
    "name": "DLC Integrated Marketing Corp",
    "description": "Marketing Programs & Services",
    "phone": "(305) 374-9494",
    "address": "2600 S Douglas Rd  Coral Gables, FL 33134",
    "location": "Charlotte"
  },
  {
    "name": "American Marketing Assn-South",
    "description": "Marketing Programs & Services",
    "phone": "(312) 542-9000",
    "address": "265 Aragon Ave  Coral Gables, FL 33134",
    "location": "Charlotte"
  },
  {
    "name": "Ryder System, Inc",
    "description": "Marketing Programs & Services",
    "phone": "(305) 500-3726",
    "address": "2333 Ponce De Leon Blvd  Coral Gables, FL 33134",
    "location": "Charlotte"
  },
  {
    "name": "Thr33fold",
    "description": "Marketing Programs & Services",
    "phone": "(305) 389-5909",
    "address": "2333 Ponce De Leon Blvd  Coral Gables, FL 33134",
    "location": "Charlotte"
  },
  {
    "name": "Ebs",
    "description": "Marketing Programs & Services",
    "phone": "(305) 523-9695",
    "address": "2332 Galiano St  Coral Gables, FL 33134",
    "location": "Charlotte"
  },
  {
    "name": "The Profit Lab",
    "description": "Marketing Programs & Services",
    "phone": "(786) 693-2208",
    "address": "2332 Galiano St 2nd Fl  Coral Gables, FL 33134",
    "location": "Charlotte"
  },
  {
    "name": "The JLS Agency",
    "description": "Marketing Programs & Services",
    "phone": "(786) 472-5933",
    "address": "255 Alhambra Cir Ste 1160  Coral Gables, FL 33134",
    "location": "Charlotte"
  },
  {
    "name": "Micro Media Marketing Inc",
    "description": "Marketing Programs & Services",
    "phone": "(347) 878-6696",
    "address": "55 Merrick Way  Coral Gables, FL 33134",
    "location": "Charlotte"
  },
  {
    "name": "Imagen the Marketing Agency",
    "description": "Marketing Programs & Services",
    "phone": "(305) 774-9443",
    "address": "95 Merrick Way  Coral Gables, FL 33134",
    "location": "Charlotte"
  },
  {
    "name": "J. Daniel Company",
    "description": "Marketing Programs & Services",
    "phone": "(305) 717-8439",
    "address": "990 Biscayne Blvd Ste 503  Miami, FL 33132",
    "location": "Charlotte"
  },
  {
    "name": "Hitex Marketing",
    "description": "Marketing Programs & Services",
    "phone": "(305) 883-4535",
    "address": "7209 NW 54th St  Miami, FL 33166",
    "location": "Charlotte"
  },
  {
    "name": "NetroStar Inc.",
    "description": "Marketing Programs & Services",
    "phone": "(305) 577-9904",
    "address": "260 NE 17th Ter  Miami, FL 33132",
    "location": "Charlotte"
  },
  {
    "name": "Imagineer Customer Experience",
    "description": "Marketing Programs & Services",
    "phone": "(305) 600-4344",
    "address": "333 SE 2nd Ave  Miami, FL 33131",
    "location": "Charlotte"
  },
  {
    "name": "OptZoom - Internet Marketing Since 1999",
    "description": "Marketing Programs & Services",
    "phone": "(305) 505-1443",
    "address": "8919 SW 172nd Ave # 1112  Miami, FL 33196",
    "location": "Charlotte"
  },
  {
    "name": "Marketing Enterprises Latin",
    "description": "Marketing Programs & Services",
    "phone": "(305) 388-3664",
    "address": "16444 SW 61st Way  Miami, FL 33193",
    "location": "Charlotte"
  },
  {
    "name": "Tiger Direct Inc",
    "description": "Marketing Programs & Services",
    "phone": "(888) 278-4437",
    "address": "9250 W Flagler St  Miami, FL 33174",
    "location": "Charlotte"
  },
  {
    "name": "Unlimited Marketing Group",
    "description": "Marketing Programs & Services",
    "phone": "(305) 227-7330",
    "address": "175 Fontainebleau Blvd  Miami, FL 33172",
    "location": "Charlotte"
  },
  {
    "name": "01 Programs",
    "description": "Marketing Programs & Services",
    "phone": "(305) 204-6320",
    "address": "208 nw 71st ave  Miami, FL 33126",
    "location": "Charlotte"
  },
  {
    "name": "Amami Marketing Management",
    "description": "Marketing Programs & Services",
    "phone": "(785) 317-7741",
    "address": "1821 SW 27th Ave  Miami, FL 33145",
    "location": "Charlotte"
  },
  {
    "name": "M.A.R. Multiservices Co.",
    "description": "Marketing Programs & Services",
    "phone": "(786) 544-0400",
    "address": "11890 SW 8th St Ste 214b  Miami, FL 33184",
    "location": "Charlotte"
  },
  {
    "name": "Hispanic Digital Network",
    "description": "Marketing Programs & Services",
    "phone": "(954) 234-2321",
    "address": "9320 Fontainebleau Blvd  Miami, FL 33172",
    "location": "Charlotte"
  },
  {
    "name": "Doubleshot Marketing",
    "description": "Marketing Programs & Services",
    "phone": "(305) 780-4958",
    "address": "2285 SW 17th Ave  Miami, FL 33145",
    "location": "Charlotte"
  },
  {
    "name": "Media Corp Leo",
    "description": "Marketing Programs & Services",
    "phone": "(786) 391-2964",
    "address": "1801 Coral Way  Miami, FL 33145",
    "location": "Charlotte"
  },
  {
    "name": "Vantage Communications",
    "description": "Marketing Programs & Services",
    "phone": "(305) 431-2581",
    "address": "1826 SW 21st St  Miami, FL 33145",
    "location": "Charlotte"
  },
  {
    "name": "Bijoux Nouveau",
    "description": "Marketing Programs & Services",
    "phone": "(800) 262-3614",
    "address": "755 NW 72nd Ave  Miami, FL 33126",
    "location": "Charlotte"
  },
  {
    "name": "Dmar Online Marketing",
    "description": "Marketing Programs & Services",
    "phone": "(855) 423-1319",
    "address": "231 NW 51st Ave  Miami, FL 33126",
    "location": "Charlotte"
  },
  {
    "name": "A-Zone Marketing",
    "description": "Marketing Programs & Services",
    "phone": "(787) 587-3378",
    "address": "1016 NW 87th Ave  Miami, FL 33172",
    "location": "Charlotte"
  },
  {
    "name": "E & D Marketing Solutions",
    "description": "Marketing Programs & Services",
    "phone": "(786) 801-1593",
    "address": "2742 SW 8th St  Miami, FL 33135",
    "location": "Charlotte"
  },
  {
    "name": "305 vacation marketing",
    "description": "Marketing Programs & Services",
    "phone": "(305) 773-7852",
    "address": "4721 NW 7th St  Miami, FL 33126",
    "location": "Charlotte"
  },
  {
    "name": "Innovo Advertising",
    "description": "Marketing Programs & Services",
    "phone": "(305) 741-2591",
    "address": "6101 Waterford District Dr  Miami, FL 33126",
    "location": "Charlotte"
  },
  {
    "name": "Aerolineas Argentinas",
    "description": "Marketing Programs & Services",
    "phone": "(305) 261-0100",
    "address": "5835 Waterford District Dr  Miami, FL 33126",
    "location": "Charlotte"
  },
  {
    "name": "Brican America",
    "description": "Marketing Programs & Services",
    "phone": "(786) 388-6995",
    "address": "5301 Blue Lagoon Dr  Miami, FL 33126",
    "location": "Charlotte"
  },
  {
    "name": "Global Marketing",
    "description": "Marketing Programs & Services",
    "phone": "(786) 953-4860",
    "address": "2828 SW 3rd Ave  Miami, FL 33129",
    "location": "Charlotte"
  },
  {
    "name": "Beta II Marketing",
    "description": "Marketing Programs & Services",
    "phone": "(305) 263-7483",
    "address": "5200 Waterford District Dr  Miami, FL 33126",
    "location": "Charlotte"
  },
  {
    "name": "Tal International",
    "description": "Marketing Programs & Services",
    "phone": "(786) 388-1825",
    "address": "5200 Waterford District Dr Ste 620  Miami, FL 33126",
    "location": "Charlotte"
  },
  {
    "name": "Havas Media",
    "description": "Marketing Programs & Services",
    "phone": "(305) 377-1907",
    "address": "5201 Blue Lagoon Dr  Miami, FL 33126",
    "location": "Charlotte"
  },
  {
    "name": "Excel Creative Group",
    "description": "Marketing Programs & Services",
    "phone": "(305) 479-8630",
    "address": "1525 SW 13th Ave  Miami, FL 33145",
    "location": "Charlotte"
  },
  {
    "name": "P.S. This Rocks",
    "description": "Marketing Programs & Services",
    "phone": "(305) 703-3035",
    "address": "150 SE 25th Rd  Miami, FL 33129",
    "location": "Charlotte"
  },
  {
    "name": "Precision Digital",
    "description": "Marketing Programs & Services",
    "phone": "(305) 741-5114",
    "address": "2451 Brickell Ave  Miami, FL 33129",
    "location": "Charlotte"
  },
  {
    "name": "Premire World Marketing",
    "description": "Marketing Programs & Services",
    "phone": "(305) 856-7083",
    "address": "2600 SW 3rd Ave  Miami, FL 33129",
    "location": "Charlotte"
  },
  {
    "name": "Mental Services Corp",
    "description": "Marketing Programs & Services",
    "phone": "(305) 599-9969",
    "address": "1040 Nw 9th St Cir  Miami, FL 33172",
    "location": "Charlotte"
  },
  {
    "name": "NCL Corporation Ltd",
    "description": "Marketing Programs & Services",
    "phone": "(305) 436-4000",
    "address": "7665 NW 19th St  Miami, FL 33126",
    "location": "Charlotte"
  },
  {
    "name": "Tiger Shark Commerce",
    "description": "Marketing Programs & Services",
    "phone": "(954) 907-3055",
    "address": "1901 Brickell Ave  Miami, FL 33129",
    "location": "Charlotte"
  },
  {
    "name": "Siinc Agency",
    "description": "Marketing Programs & Services",
    "phone": "(305) 438-0225",
    "address": "1862 W Flagler St  Miami, FL 33135",
    "location": "Charlotte"
  },
  {
    "name": "Say I Do Marketing",
    "description": "Marketing Programs & Services",
    "phone": "(786) 309-6794",
    "address": "1065 SW 8th St  Miami, FL 33130",
    "location": "Charlotte"
  },
  {
    "name": "Outfront Media",
    "description": "Marketing Programs & Services",
    "phone": "(305) 477-2496",
    "address": "8530 NW 23rd St  Miami, FL 33122",
    "location": "Charlotte"
  },
  {
    "name": "Marketing Truck",
    "description": "Marketing Programs & Services",
    "phone": "(305) 424-2977",
    "address": "7500 NW 25th St  Miami, FL 33122",
    "location": "Charlotte"
  },
  {
    "name": "Alemao Maria Elena",
    "description": "Marketing Programs & Services",
    "phone": "(305) 639-8481",
    "address": "1393 SW 1st St  Miami, FL 33135",
    "location": "Charlotte"
  },
  {
    "name": "Omni Direct Inc",
    "description": "Marketing Programs & Services",
    "phone": "(786) 391-1091",
    "address": "1450 Brickell Ave  Miami, FL 33131",
    "location": "Charlotte"
  },
  {
    "name": "Menar Marketing International",
    "description": "Marketing Programs & Services",
    "phone": "(305) 593-1103",
    "address": "2801 NW 74th Ave Ste 206  Miami, FL 33122",
    "location": "Charlotte"
  },
  {
    "name": "E D Marketing Solutions",
    "description": "Marketing Programs & Services",
    "phone": "(786) 801-1593",
    "address": "2801 NW 74th Ave  Miami, FL 33122",
    "location": "Charlotte"
  },
  {
    "name": "Miami Herald",
    "description": "Marketing Programs & Services",
    "phone": "(305) 350-2111",
    "address": "11410 NW 20th St  Miami, FL 33172",
    "location": "Charlotte"
  },
  {
    "name": "Web Lice",
    "description": "Marketing Programs & Services",
    "phone": "(855) 932-5423",
    "address": "1395 Brickell Ave  Miami, FL 33131",
    "location": "Charlotte"
  },
  {
    "name": "Succes Marketing Inc.",
    "description": "Marketing Programs & Services",
    "phone": "(305) 812-9112",
    "address": "955 SW 2nd Ave Apt 10  Miami, FL 33130",
    "location": "Charlotte"
  },
  {
    "name": "C180 Social Media Strategy",
    "description": "Marketing Programs & Services",
    "phone": "(954) 225-0016",
    "address": "1200 Brickell Ave  Miami, FL 33131",
    "location": "Charlotte"
  },
  {
    "name": "LMR Latin Marketing",
    "description": "Marketing Programs & Services",
    "phone": "(305) 772-3947",
    "address": "1110 Brickell Ave  Miami, FL 33131",
    "location": "Charlotte"
  },
  {
    "name": "AD INC Mobile",
    "description": "Marketing Programs & Services",
    "phone": "(305) 409-6000",
    "address": "1111 Brickell Ave  Miami, FL 33131",
    "location": "Charlotte"
  },
  {
    "name": "Madflowbrand",
    "description": "Marketing Programs & Services",
    "phone": "(786) 658-0668",
    "address": "1101 Brickell Ave  Miami, FL 33131",
    "location": "Charlotte"
  },
  {
    "name": "W. Bradford & Co.",
    "description": "Marketing Programs & Services",
    "phone": "(317) 371-2221",
    "address": "1060 Brickell Ave  Miami, FL 33131",
    "location": "Charlotte"
  },
  {
    "name": "Rise Marketing Agency",
    "description": "Marketing Programs & Services",
    "phone": "(305) 209-0690",
    "address": "187 SW 7th St  Miami, FL 33130",
    "location": "Charlotte"
  },
  {
    "name": "Creative Mindworks Corp",
    "description": "Marketing Programs & Services",
    "phone": "(305) 820-0690",
    "address": "1100 Brickell Bay Dr  Miami, FL 33131",
    "location": "Charlotte"
  },
  {
    "name": "The Creative Elevator",
    "description": "Marketing Programs & Services",
    "phone": "(305) 767-6007",
    "address": "1000 Brickell Ave Ste 1005  Miami, FL 33131",
    "location": "Charlotte"
  },
  {
    "name": "The Goat Institute",
    "description": "Marketing Programs & Services",
    "phone": "(786) 333-7866",
    "address": "1000 Brickell Ave Ste 715  Miami, FL 33131",
    "location": "Charlotte"
  },
  {
    "name": "Thrive Internet Marketing Agency",
    "description": "Marketing Programs & Services",
    "phone": "(786) 600-2128",
    "address": "80 SW 8th St Ste 2000  Miami, FL 33130",
    "location": "Charlotte"
  },
  {
    "name": "Iwiin Digital Marketing",
    "description": "Marketing Programs & Services",
    "phone": "(888) 520-4130",
    "address": "999 Brickell Ave  Miami, FL 33131",
    "location": "Charlotte"
  },
  {
    "name": "Miamag",
    "description": "Marketing Programs & Services",
    "phone": "(786) 728-0008",
    "address": "999 Brickell Ave  Miami, FL 33131",
    "location": "Charlotte"
  },
  {
    "name": "GGP Miami Business & Marketing",
    "description": "Marketing Programs & Services",
    "phone": "(305) 772-2810",
    "address": "999 Brickell Ave  Miami, FL 33131",
    "location": "Charlotte"
  },
  {
    "name": "Metrostudio",
    "description": "Marketing Programs & Services",
    "phone": "(305) 424-9164",
    "address": "78 SW 7th St  Miami, FL 33130",
    "location": "Charlotte"
  },
  {
    "name": "Mega Digital Media",
    "description": "Marketing Programs & Services",
    "phone": "(888) 292-7200",
    "address": "1001 Brickell Bay Dr  Miami, FL 33131",
    "location": "Charlotte"
  },
  {
    "name": "Turbine SEO Digital Marketing Solution",
    "description": "Marketing Programs & Services",
    "phone": "(754) 271-3103",
    "address": "2949 NW 99Th Ave  Miami, FL 33172",
    "location": "Charlotte"
  },
  {
    "name": "Doally",
    "description": "Marketing Programs & Services",
    "phone": "(786) 431-0115",
    "address": "701 S Miami Ave Unit 245B  Miami, FL 33130",
    "location": "Charlotte"
  },
  {
    "name": "Criteo",
    "description": "Marketing Programs & Services",
    "phone": "(786) 623-4019",
    "address": "801 Brickell Ave  Miami, FL 33131",
    "location": "Charlotte"
  },
  {
    "name": "Wellness Company (suit 221)",
    "description": "Marketing Programs & Services",
    "phone": "(305) 303-8794",
    "address": "3399 NW 72nd Ave  Miami, FL 33122",
    "location": "Charlotte"
  },
  {
    "name": "Mako7 Digital Media",
    "description": "Marketing Programs & Services",
    "phone": "(305) 721-2478",
    "address": "777 Brickell Ave  Miami, FL 33131",
    "location": "Charlotte"
  },
  {
    "name": "Greater Miami CVB",
    "description": "Marketing Programs & Services",
    "phone": "(305) 539-3000",
    "address": "701 Brickell Ave  Miami, FL 33131",
    "location": "Charlotte"
  },
  {
    "name": "Ivanov Corp",
    "description": "Marketing Programs & Services",
    "phone": "(216) 284-0246",
    "address": "25 Se 2nd Ave Pmb1027 Miami  Miami, FL 33131",
    "location": "Charlotte"
  },
  {
    "name": "Champions Media Group LLC.",
    "description": "Marketing Programs & Services",
    "phone": "(786) 683-3104",
    "address": "340 W Flagler St Apt 1603  Miami, FL 33130",
    "location": "Charlotte"
  },
  {
    "name": "M 4 Digital Media",
    "description": "Marketing Programs & Services",
    "phone": "(786) 518-2853",
    "address": "31 SE 5th St Ste 213  Miami, FL 33131",
    "location": "Charlotte"
  },
  {
    "name": "Leo Media Marketing",
    "description": "Marketing Programs & Services",
    "phone": "(786) 304-1300",
    "address": "1720 NW North River Dr  Miami, FL 33125",
    "location": "Charlotte"
  },
  {
    "name": "General Services Administration",
    "description": "Marketing Programs & Services",
    "phone": "(305) 400-6160",
    "address": "333 S Miami Ave Ste 200  Miami, FL 33130",
    "location": "Charlotte"
  },
  {
    "name": "DMG- Dynasty Marketing Group",
    "description": "Marketing Programs & Services",
    "phone": "(305) 600-3833",
    "address": "485 Brickell Ave  Miami, FL 33131",
    "location": "Charlotte"
  },
  {
    "name": "William Spain llc",
    "description": "Marketing Programs & Services",
    "phone": "(786) 578-5194",
    "address": "3785 NW 82nd Ave Suite 116  Miami, FL 33166",
    "location": "Charlotte"
  },
  {
    "name": "The One Agency",
    "description": "Marketing Programs & Services",
    "phone": "(786) 999-9095",
    "address": "444 Brickell Ave  Miami, FL 33131",
    "location": "Charlotte"
  },
  {
    "name": "Smart Strata Ai",
    "description": "Marketing Programs & Services",
    "phone": "(855) 626-5705",
    "address": "601 Brickell Key Dr Ste 700  Miami, FL 33131",
    "location": "Charlotte"
  },
  {
    "name": "UpLevel Flow",
    "description": "Marketing Programs & Services",
    "phone": "(786) 882-7923",
    "address": "66 W Flagler St Ste 900  Miami, FL 33130",
    "location": "Charlotte"
  },
  {
    "name": "Trueba Media-Digital Marketing Agency",
    "description": "Marketing Programs & Services",
    "phone": "(305) 239-7575",
    "address": "66 W Flagler St  Miami, FL 33130",
    "location": "Charlotte"
  },
  {
    "name": "Vitalstream Marketing & Consultancy",
    "description": "Marketing Programs & Services",
    "phone": "(786) 699-6839",
    "address": "66 W Flagler St  Miami, FL 33130",
    "location": "Charlotte"
  },
  {
    "name": "South Beach Capital Markets Advisory Corporation",
    "description": "Marketing Programs & Services",
    "phone": "(305) 358-3232",
    "address": "701 Brickell Key Blvd Apt 2306  Miami, FL 33131",
    "location": "Charlotte"
  },
  {
    "name": "Concierge and Events by Victoria",
    "description": "Marketing Programs & Services",
    "phone": "(305) 632-8339",
    "address": "701 Brickell Key Blvd Apt 2310  Miami, FL 33131",
    "location": "Charlotte"
  },
  {
    "name": "Green Key Leads",
    "description": "Marketing Programs & Services",
    "phone": "(855) 695-3237",
    "address": "100 SE 2nd St  Miami, FL 33131",
    "location": "Charlotte"
  },
  {
    "name": "Green Marketing",
    "description": "Marketing Programs & Services",
    "phone": "(407) 936-1406",
    "address": "1444 NW 14th Ave  Miami, FL 33125",
    "location": "Charlotte"
  },
  {
    "name": "Myadcenter",
    "description": "Marketing Programs & Services",
    "phone": "(888) 676-7866",
    "address": "150 SE 2nd Ave  Miami, FL 33131",
    "location": "Charlotte"
  },
  {
    "name": "Juniper Technology",
    "description": "Marketing Programs & Services",
    "phone": "(305) 755-0251",
    "address": "168 SE 1st St  Miami, FL 33131",
    "location": "Charlotte"
  },
  {
    "name": "Lemon Yellow",
    "description": "Marketing Programs & Services",
    "phone": "(305) 704-7096",
    "address": "169 E Flagler St  Miami, FL 33131",
    "location": "Charlotte"
  },
  {
    "name": "Andretti Sports Marketing",
    "description": "Marketing Programs & Services",
    "phone": "(317) 871-2534",
    "address": "201 S Biscayne Blvd  Miami, FL 33131",
    "location": "Charlotte"
  },
  {
    "name": "SKL Marketing Inc",
    "description": "Marketing Programs & Services",
    "phone": "(305) 714-9351",
    "address": "200 S Biscayne Blvd  Miami, FL 33131",
    "location": "Charlotte"
  },
  {
    "name": "X3 Marketing Solutions",
    "description": "Marketing Programs & Services",
    "phone": "(305) 600-5406",
    "address": "111 NE 1st St  Miami, FL 33132",
    "location": "Charlotte"
  },
  {
    "name": "Mindwarehouse",
    "description": "Marketing Programs & Services",
    "phone": "(786) 571-8660",
    "address": "111 NE 1st St  Miami, FL 33132",
    "location": "Charlotte"
  },
  {
    "name": "Digilogic Marketing Agencies",
    "description": "Marketing Programs & Services",
    "phone": "(774) 757-2925",
    "address": "218 NW 8th St  Miami, FL 33136",
    "location": "Charlotte"
  },
  {
    "name": "Florida East Coast Industries",
    "description": "Marketing Programs & Services",
    "phone": "(305) 520-2300",
    "address": "700 NW 1st Ave  Miami, FL 33136",
    "location": "Charlotte"
  },
  {
    "name": "Premire Market Corp",
    "description": "Marketing Programs & Services",
    "phone": "(305) 635-8986",
    "address": "2254 NW 28th St  Miami, FL 33142",
    "location": "Charlotte"
  },
  {
    "name": "HNO Productions Inc",
    "description": "Marketing Programs & Services",
    "phone": "(305) 383-8245",
    "address": "990 Biscayne Blvd Ste 503  Miami, FL 33132",
    "location": "Charlotte"
  },
  {
    "name": "Tessell Marketing",
    "description": "Marketing Programs & Services",
    "phone": "(305) 517-7255",
    "address": "990 Biscayne Blvd  Miami, FL 33132",
    "location": "Charlotte"
  },
  {
    "name": "Rekket Digital Hub",
    "description": "Marketing Programs & Services",
    "phone": "(786) 600-1781",
    "address": "7950 NW 53rd St  Miami, FL 33166",
    "location": "Charlotte"
  },
  {
    "name": "Veritas Marketing and Distribution",
    "description": "Marketing Programs & Services",
    "phone": "(305) 636-5454",
    "address": "1561 NW 28th St  Miami, FL 33142",
    "location": "Charlotte"
  },
  {
    "name": "WG Studios",
    "description": "Marketing Programs & Services",
    "phone": "(305) 463-9232",
    "address": "1749 NE Miami Ct  Miami, FL 33132",
    "location": "Charlotte"
  },
  {
    "name": "Email Marketing & More",
    "description": "Marketing Programs & Services",
    "phone": "(786) 348-7729",
    "address": "555 NE 15th St  Miami, FL 33132",
    "location": "Charlotte"
  },
  {
    "name": "Ang Communications Group Inc",
    "description": "Marketing Programs & Services",
    "phone": "(786) 517-4750",
    "address": "555 NE 15th St  Miami, FL 33132",
    "location": "Charlotte"
  },
  {
    "name": "Social Hive Agency",
    "description": "Marketing Programs & Services",
    "phone": "(786) 332-6910",
    "address": "2048 NW Miami Ct  Miami, FL 33127",
    "location": "Charlotte"
  },
  {
    "name": "Capture Times",
    "description": "Marketing Programs & Services",
    "phone": "(833) 318-1940",
    "address": "2492 NW 44th St  Miami, FL 33142",
    "location": "Charlotte"
  },
  {
    "name": "Maria Morena",
    "description": "Marketing Programs & Services",
    "phone": "(305) 576-2233",
    "address": "2545 NW 5th Ave  Miami, FL 33127",
    "location": "Charlotte"
  },
  {
    "name": "Live Out Dreams Inc.",
    "description": "Marketing Programs & Services",
    "phone": "(305) 896-7596",
    "address": "1750 N Bayshore Dr Apt 4610  Miami, FL 33132",
    "location": "Charlotte"
  },
  {
    "name": "V Digital Services",
    "description": "Marketing Programs & Services",
    "phone": "(305) 290-3886",
    "address": "2750 NW 3rd Ave  Miami, FL 33127",
    "location": "Charlotte"
  },
  {
    "name": "Greenslant",
    "description": "Marketing Programs & Services",
    "phone": "(305) 209-6833",
    "address": "2001 Biscayne Blvd  Miami, FL 33137",
    "location": "Charlotte"
  },
  {
    "name": "Modofi",
    "description": "Marketing Programs & Services",
    "phone": "(850) 750-6636",
    "address": "114 NW 25th St  Miami, FL 33127",
    "location": "Charlotte"
  },
  {
    "name": "Itss",
    "description": "Marketing Programs & Services",
    "phone": "(786) 399-6878",
    "address": "7339 NW 66th St  Miami, FL 33166",
    "location": "Charlotte"
  },
  {
    "name": "Addone",
    "description": "Marketing Programs & Services",
    "phone": "(786) 360-4940",
    "address": "8399 NW 66th St  Miami, FL 33166",
    "location": "Charlotte"
  },
  {
    "name": "One Twelfth Inc",
    "description": "Marketing Programs & Services",
    "phone": "(786) 615-3051",
    "address": "333 NE 24th St Ste 409  Miami, FL 33137",
    "location": "Charlotte"
  },
  {
    "name": "World of Miniature Bears",
    "description": "Marketing Programs & Services",
    "phone": "(305) 592-7971",
    "address": "8300 NW 68th St  Miami, FL 33166",
    "location": "Charlotte"
  },
  {
    "name": "Imagine 360 Marketing",
    "description": "Marketing Programs & Services",
    "phone": "(212) 313-9616",
    "address": "3301 NE 1st Ave  Miami, FL 33137",
    "location": "Charlotte"
  },
  {
    "name": "World Tele Marketing",
    "description": "Telemarketing Services",
    "phone": "(786) 517-2930",
    "address": "1842 SW 8th St  Miami, FL 33135",
    "location": "Charlotte"
  },
  {
    "name": "International Exhibition & Marketing",
    "description": "Marketing Consultants",
    "phone": "(213) 232-5984",
    "address": "1800 SW 1st Ave  Miami, FL 33129",
    "location": "Charlotte"
  },
  {
    "name": "Applied Innovation and Marketing INC",
    "description": "Business & Trade Organizations",
    "phone": "(866) 319-0723",
    "address": "1581 Brickell Ave Apt 1103  Miami, FL 33129",
    "location": "Charlotte"
  },
  {
    "name": "Fiesta Marketing",
    "description": "Telemarketing Services",
    "phone": "(305) 994-3600",
    "address": "2539 NW 72nd Ave  Miami, FL 33122",
    "location": "Charlotte"
  },
  {
    "name": "Apeiron Global Marketing, LLC",
    "description": "Internet Consultants",
    "phone": "(305) 842-1190",
    "address": "60 SW 13th St Apt 4405  Miami, FL 33130",
    "location": "Charlotte"
  },
  {
    "name": "Digital Marketing Media",
    "description": "Internet Marketing & Advertising",
    "phone": "(305) 600-4952",
    "address": "80 SW 8th St Ste 2000  Miami, FL 33130",
    "location": "Charlotte"
  },
  {
    "name": "Max Borges Marketing Solutions Inc.",
    "description": "Marketing Consultants",
    "phone": "(305) 374-4404",
    "address": "80 SW 8th St Ste 1900  Miami, FL 33130",
    "location": "Charlotte"
  },
  {
    "name": "M3-Miami Marketing Media",
    "description": "Internet Consultants",
    "phone": "(305) 600-4952",
    "address": "80 SW 8th St  Miami, FL 33130",
    "location": "Charlotte"
  },
  {
    "name": "US Fruit & Vegetable Marketing",
    "description": "Federal Government",
    "phone": "(305) 373-2955",
    "address": "909 Brickell Plz  Miami, FL 33131",
    "location": "Charlotte"
  },
  {
    "name": "Internet Marketing & Advertising",
    "description": "Advertising Agencies",
    "phone": "(786) 220-1080",
    "address": "46 SE 1st St  Miami, FL 33131",
    "location": "Charlotte"
  },
  {
    "name": "On the Map Marketing",
    "description": "Marketing Consultants",
    "phone": "(305) 420-5556",
    "address": "200 SE 1st St Ste 502  Miami, FL 33131",
    "location": "Charlotte"
  },
  {
    "name": "International Realty Marketing",
    "description": "Real Estate Management",
    "phone": "(305) 933-2200",
    "address": "7950 NW 53rd St Ste 337  Miami, FL 33166",
    "location": "Charlotte"
  },
  {
    "name": "Argenfreight Marketing Enterprises",
    "description": "Freight Forwarding",
    "phone": "(305) 888-9065",
    "address": "7282 NW 54th St  Miami, FL 33166",
    "location": "Charlotte"
  },
  {
    "name": "Miami Social Media and Web Marketing",
    "description": "Internet Consultants",
    "phone": "(786) 317-2444",
    "address": "2195 SW 14th Ter Apt 4  Miami, FL 33145",
    "location": "Charlotte"
  },
  {
    "name": "National Petroleum Marketing",
    "description": "Auto Repair & Service",
    "phone": "(305) 638-8061",
    "address": "3699 NW 54th St  Miami, FL 33142",
    "location": "Charlotte"
  },
  {
    "name": "Utopia Marketing | Utopia Studios",
    "description": "Internet Marketing & Advertising",
    "phone": "(786) 329-2135",
    "address": "5201 NW 37th Avenue  Miami, FL 33142",
    "location": "Charlotte"
  },
  {
    "name": "Staples Print & Marketing Services",
    "description": "Printing Consultants",
    "phone": "(305) 573-1680",
    "address": "2121 Biscayne Blvd  Miami, FL 33137",
    "location": "Charlotte"
  },
  {
    "name": "Marketing Venture",
    "description": "Marketing Consultants",
    "phone": "(214) 280-3077",
    "address": "425 NE 22nd St Apt 1202  Miami, FL 33137",
    "location": "Charlotte"
  },
  {
    "name": "Agency Marketing Machine",
    "description": "Marketing Programs & Services",
    "phone": "(786) 322-4999",
    "address": "3050 Biscayne Blvd  Miami, FL 33137",
    "location": "Charlotte"
  },
  {
    "name": "Aum Marketing",
    "description": "Internet Service Providers (ISP)",
    "phone": "(877) 373-4273",
    "address": "7770 NW 64th St  Miami, FL 33166",
    "location": "Charlotte"
  },
  {
    "name": "US Department of Agriculture Agriculture & Marketing Service",
    "description": "Inspection Service",
    "phone": "(305) 870-9542",
    "address": "5600 NW 36th Ave  Miami, FL 33142",
    "location": "Charlotte"
  },
  {
    "name": "Elite Sales & Marketing Inc",
    "description": "Family & Business Entertainers",
    "phone": "(305) 576-3799",
    "address": "168 NE 24th St  Miami, FL 33137",
    "location": "Charlotte"
  },
  {
    "name": "Florida Marketing and Research",
    "description": "Marketing Consultants",
    "phone": "(786) 542-8481",
    "address": "153 NW 29th St Apt 3  Miami, FL 33127",
    "location": "Charlotte"
  },
  {
    "name": "WhizBiz Marketing",
    "description": "Marketing Consultants",
    "phone": "(866) 296-1886",
    "address": "2800 N Miami Ave  Miami, FL 33127",
    "location": "Charlotte"
  },
  {
    "name": "Kingdom Graphics & Marketing",
    "description": "Graphic Designers",
    "phone": "(305) 479-2330",
    "address": "6706 NW 72nd Ave  Miami, FL 33166",
    "location": "Charlotte"
  },
  {
    "name": "Internet Marketing Services",
    "description": "Marketing Consultants",
    "phone": "(305) 471-9847",
    "address": "7850 NW 71st St  Miami, FL 33166",
    "location": "Charlotte"
  }
]
