[
  {
    "dataYpid": "543308811",
    "name": "Relevanza",
    "description": "Marketing Programs & Services",
    "phone": "(305) 791-2054",
    "address": "9128 Strada Pl  Naples, FL 34108",
    "location": "Collier"
  },
  {
    "dataYpid": "553638180",
    "name": "Hamlin Power & Reaves Marketing",
    "description": "Marketing Programs & Services",
    "phone": "(217) 698-2023",
    "address": "9128 Strada Pl  Naples, FL 34108",
    "location": "Collier"
  },
  {
    "dataYpid": "543359870",
    "name": "ActiveData Digital Marketing",
    "description": "Marketing Programs & Services",
    "phone": "(239) 465-0310",
    "address": "1004 Collier Center Way Ste 206  Naples, FL 34110",
    "location": "Collier"
  },
  {
    "dataYpid": "561181282",
    "name": "Ad Force Inc",
    "description": "Marketing Programs & Services",
    "phone": "(239) 495-0007",
    "address": "9010 Strada Stell Ct  Naples, FL 34109",
    "location": "Collier"
  },
  {
    "dataYpid": "551252465",
    "name": "Geared Digital Marketing",
    "description": "Marketing Programs & Services",
    "phone": "(413) 329-1945",
    "address": "2359 Vanderbilt Beach Rd #410E  Naples, FL 34109",
    "location": "Collier"
  },
  {
    "dataYpid": "576835949",
    "name": "Glenn Torres | The Godfather Of Marketing",
    "description": "Marketing Programs & Services",
    "phone": "(239) 567-9937",
    "address": "16230 Allura Cir  Naples, FL 34110",
    "location": "Collier"
  },
  {
    "dataYpid": "554082912",
    "name": "Digital Response Marketing Group",
    "description": "Marketing Programs & Services",
    "phone": "(239) 963-4649",
    "address": "7221 Mill Run Cir  Naples, FL 34109",
    "location": "Collier"
  },
  {
    "dataYpid": "466982028",
    "name": "Marketcrank Inc",
    "description": "Marketing Programs & Services",
    "phone": "(239) 591-4733",
    "address": "1750 J And C Blvd  Naples, FL 34109",
    "location": "Collier"
  },
  {
    "dataYpid": "526242911",
    "name": "Smart Marketing",
    "description": "Marketing Programs & Services",
    "phone": "(239) 403-7755",
    "address": "6240 Shirley St  Naples, FL 34109",
    "location": "Collier"
  },
  {
    "dataYpid": "562503436",
    "name": "Market Crank Inc",
    "description": "Marketing Programs & Services",
    "phone": "(239) 591-2709",
    "address": "5647 Naples Blvd  Naples, FL 34109",
    "location": "Collier"
  },
  {
    "dataYpid": "481327994",
    "name": "iPartnerMedia, Inc.",
    "description": "Marketing Programs & Services",
    "phone": "(239) 449-4749",
    "address": "28200 Old 41 Rd Unit 204  Bonita Springs, FL 34135",
    "location": "Collier"
  },
  {
    "dataYpid": "545059683",
    "name": "iVortex Media",
    "description": "Marketing Programs & Services",
    "phone": "(888) 485-4234",
    "address": "9148 Bonita Beach Rd SE Ste 210  Bonita Springs, FL 34135",
    "location": "Collier"
  },
  {
    "dataYpid": "507470781",
    "name": "L W Marketing",
    "description": "Marketing Programs & Services",
    "phone": "(239) 405-8250",
    "address": "3725 Bonita Beach Rd  Bonita Springs, FL 34134",
    "location": "Collier"
  },
  {
    "dataYpid": "547261385",
    "name": "TLH Marketing",
    "description": "Marketing Programs & Services",
    "phone": "(239) 592-0060",
    "address": "4851 Tamiami Trl N  Naples, FL 34103",
    "location": "Collier"
  },
  {
    "dataYpid": "562472592",
    "name": "Naples SEO Company",
    "description": "Marketing Programs & Services",
    "phone": "(239) 300-5040",
    "address": "4850 Tamiami Trl N Unit 301  Naples, FL 34103",
    "location": "Collier"
  },
  {
    "dataYpid": "571715689",
    "name": "Digital ShortCutz Marketing Agency",
    "description": "Marketing Programs & Services",
    "phone": "(239) 537-9247",
    "address": "4850 Tamiami Trl N Unit 301  Naples, FL 34103",
    "location": "Collier"
  },
  {
    "dataYpid": "461563648",
    "name": "DREAMFly Marketing",
    "description": "Marketing Programs & Services",
    "phone": "(239) 682-0082",
    "address": "6145 Montelena Cir Apt 5102  Naples, FL 34119",
    "location": "Collier"
  },
  {
    "dataYpid": "522874284",
    "name": "Hmmm, inc.",
    "description": "Marketing Programs & Services",
    "phone": "(239) 404-5321",
    "address": "4021 Gulf Shore Blvd N Apt 1905  Naples, FL 34103",
    "location": "Collier"
  },
  {
    "dataYpid": "9514332",
    "name": "Hdd Broker",
    "description": "Marketing Programs & Services",
    "phone": "(239) 331-4665",
    "address": "15205 Collier Blvd Ste 104  Naples, FL 34119",
    "location": "Collier"
  },
  {
    "dataYpid": "566722317",
    "name": "Moxxi Marketing",
    "description": "Marketing Programs & Services",
    "phone": "(239) 330-6236",
    "address": "3521 Bonita Bay Blvd  Bonita Springs, FL 34134",
    "location": "Collier"
  },
  {
    "dataYpid": "508215430",
    "name": "Magic Marketing",
    "description": "Marketing Programs & Services",
    "phone": "(239) 227-0711",
    "address": "1200 diana ave  Naples, FL 34103",
    "location": "Collier"
  },
  {
    "dataYpid": "470220533",
    "name": "PGI Commercial",
    "description": "Marketing Programs & Services",
    "phone": "(239) 263-1808",
    "address": "2640 Golden Gate Pkwy  Naples, FL 34105",
    "location": "Collier"
  },
  {
    "dataYpid": "511465363",
    "name": "M.D Advertising Services",
    "description": "Marketing Programs & Services",
    "phone": "(239) 285-0760",
    "address": "1921 48th St Sw  Naples, FL 34116",
    "location": "Collier"
  },
  {
    "dataYpid": "483619665",
    "name": "Maverick Mobile Marketing",
    "description": "Marketing Programs & Services",
    "phone": "(239) 234-2390",
    "address": "484 Crossfield Cir  Naples, FL 34104",
    "location": "Collier"
  },
  {
    "dataYpid": "474589091",
    "name": "Ferris Marketing",
    "description": "Marketing Programs & Services",
    "phone": "(239) 263-3701",
    "address": "4720 Radio Rd  Naples, FL 34104",
    "location": "Collier"
  },
  {
    "dataYpid": "465435531",
    "name": "Silver Angel Promotions",
    "description": "Marketing Programs & Services",
    "phone": "(239) 878-5216",
    "address": "281 Stanhope Cir  Naples, FL 34104",
    "location": "Collier"
  },
  {
    "dataYpid": "485202214",
    "name": "Brooks Integrated Marketing",
    "description": "Marketing Programs & Services",
    "phone": "(239) 908-0595",
    "address": "3333 Renaissance Blvd Ste 210  Bonita Springs, FL 34134",
    "location": "Collier"
  },
  {
    "dataYpid": "546564378",
    "name": "Dealer's Greatest Assets Inc",
    "description": "Marketing Programs & Services",
    "phone": "(239) 221-5500",
    "address": "24031 S Tamiami Trl Ste 301  Bonita Springs, FL 34134",
    "location": "Collier"
  },
  {
    "dataYpid": "548530910",
    "name": "Trifecta Marketing",
    "description": "Direct Mail Advertising",
    "phone": "(239) 641-8633",
    "address": "2224 Heritage Greens Dr  Naples, FL 34119",
    "location": "Collier"
  },
  {
    "dataYpid": "536615230",
    "name": "B3 Marketing Naples Fl Office",
    "description": "Marketing Consultants",
    "phone": "(561) 405-1299",
    "address": "7925 Preserve Cir Apt 328  Naples, FL 34119",
    "location": "Collier"
  },
  {
    "dataYpid": "533382153",
    "name": "Elephant Marketing & Media",
    "description": "Advertising Agencies",
    "phone": "(239) 449-6107",
    "address": "3510 Kraft Rd Ste 200  Naples, FL 34105",
    "location": "Collier"
  },
  {
    "dataYpid": "29323975",
    "name": "Medical Marketing Agency",
    "description": "Insurance",
    "phone": "(239) 354-2564",
    "address": "121 Vista Ln  Naples, FL 34119",
    "location": "Collier"
  },
  {
    "dataYpid": "525581438",
    "name": "Surf Web Design & Internet Marketing",
    "description": "Internet Marketing & Advertising",
    "phone": "(239) 434-7095",
    "address": "1049 Trail Terrace Dr  Naples, FL 34103",
    "location": "Collier"
  },
  {
    "dataYpid": "492697501",
    "name": "Perri Marketing Communications",
    "description": "Communications Services",
    "phone": "(239) 370-0713",
    "address": "14846 Fripp Island Ct  Naples, FL 34119",
    "location": "Collier"
  },
  {
    "dataYpid": "478387570",
    "name": "WBN Marketing",
    "description": "Internet Marketing & Advertising",
    "phone": "(239) 919-0933",
    "address": "15275 Collier Blvd  Naples, FL 34119",
    "location": "Collier"
  },
  {
    "dataYpid": "519617963",
    "name": "EZ Global Marketing",
    "description": "Marketing Consultants",
    "phone": "(470) 236-8398",
    "address": "7550 Mission Hills Dr Ste 306  Naples, FL 34119",
    "location": "Collier"
  },
  {
    "dataYpid": "457986608",
    "name": "Impact Marketing",
    "description": "Advertising Agencies",
    "phone": "(239) 304-2057",
    "address": "2900 14th St N  Naples, FL 34103",
    "location": "Collier"
  },
  {
    "dataYpid": "464476123",
    "name": "Marketing Consultants",
    "description": "Marketing Consultants",
    "phone": "(239) 352-5551",
    "address": "4727 7th Ave SW  Naples, FL 34119",
    "location": "Collier"
  },
  {
    "dataYpid": "15686123",
    "name": "Dbr Marketing Inc",
    "description": "Marketing Consultants",
    "phone": "(239) 261-6800",
    "address": "2840 68th St SW  Naples, FL 34105",
    "location": "Collier"
  },
  {
    "dataYpid": "475950598",
    "name": "Allegra Marketing Print Mail",
    "description": "Direct Mail Advertising",
    "phone": "(239) 643-2442",
    "address": "3930 Domestic Ave  Naples, FL 34104",
    "location": "Collier"
  },
  {
    "dataYpid": "505219740",
    "name": "Alpha Web Marketing, LLC",
    "description": "Internet Marketing & Advertising",
    "phone": "(239) 908-6884",
    "address": "2055 Trade Center Way  Naples, FL 34109",
    "location": "Collier"
  },
  {
    "dataYpid": "9974517",
    "name": "Florida Sales & Marketing, Inc.",
    "description": "Aluminum",
    "phone": "(239) 649-1084",
    "address": "3763 Progress Ave  Naples, FL 34104",
    "location": "Collier"
  },
  {
    "dataYpid": "3722144",
    "name": "Abaco Marketing and Investment",
    "description": "Marketing Consultants",
    "phone": "(239) 263-0077",
    "address": "125 Airport Pulling Rd N  Naples, FL 34104",
    "location": "Collier"
  },
  {
    "dataYpid": "551220693",
    "name": "239 Marketing",
    "description": "Web Site Design & Services",
    "phone": "(239) 287-7269",
    "address": "3606 Enterprise Ave Ste 385  Naples, FL 34104",
    "location": "Collier"
  },
  {
    "dataYpid": "537099790",
    "name": "iprint Marketing , Graphic Design and Media",
    "description": "Printing Services",
    "phone": "(239) 330-8040",
    "address": "4940 Golden Gate Pkwy suite A  Naples, FL 34116",
    "location": "Collier"
  },
  {
    "dataYpid": "522895564",
    "name": "Orgetus Inc Marketing Simply Clever",
    "description": "Marketing Consultants",
    "phone": "(239) 674-3887",
    "address": "847 4th Ave S  Naples, FL 34102",
    "location": "Collier"
  },
  {
    "dataYpid": "465440191",
    "name": "Customer Finder Marketing",
    "description": "Internet Marketing & Advertising",
    "phone": "(727) 642-3315",
    "address": "4001 Santa Barbara Blvd Ste 358  Naples, FL 34104",
    "location": "Collier"
  },
  {
    "dataYpid": "475169738",
    "name": "Access Marketing Services",
    "description": "Merchandising Service",
    "phone": "(239) 234-5756",
    "address": "700 Industrial Blvd Ste 3  Naples, FL 34104",
    "location": "Collier"
  },
  {
    "dataYpid": "10348036",
    "name": "Kis Marketing",
    "description": "Marketing Consultants",
    "phone": "(239) 649-1043",
    "address": "4100 Corporate Sq  Naples, FL 34104",
    "location": "Collier"
  },
  {
    "dataYpid": "576728659",
    "name": "The Drivers World",
    "description": "Marketing Programs & Services",
    "phone": "(630) 489-9339",
    "address": "1766 Bald Eagle Dr  Naples, FL 34105",
    "location": "Collier"
  },
  {
    "dataYpid": "571808076",
    "name": "Cheetah Agency",
    "description": "Marketing Programs & Services",
    "phone": "(239) 329-0202",
    "address": "4851 Tamiami Trl N  Naples, FL 34103",
    "location": "Collier"
  },
  {
    "dataYpid": "572601822",
    "name": "The Sailboat Agency",
    "description": "Marketing Programs & Services",
    "phone": "(239) 710-2197",
    "address": "4850 Tamiami Trl N  Naples, FL 34103",
    "location": "Collier"
  },
  {
    "dataYpid": "482176270",
    "name": "Modern Motion",
    "description": "Marketing Programs & Services",
    "phone": "(239) 877-1373",
    "address": "9059 Gervais Cir Apt 1308  Naples, FL 34120",
    "location": "Collier"
  },
  {
    "dataYpid": "19382424",
    "name": "Asg",
    "description": "Marketing Programs & Services",
    "phone": "(800) 932-5536",
    "address": "708 Goodlette-Frank Rd N  Naples, FL 34102",
    "location": "Collier"
  },
  {
    "dataYpid": "575767573",
    "name": "SideBacon SEO Agency",
    "description": "Marketing Programs & Services",
    "phone": "(239) 744-2448",
    "address": "24575 Red Robin Dr  Bonita Springs, FL 34135",
    "location": "Collier"
  },
  {
    "dataYpid": "540992243",
    "name": "Social Media Marketing Mix",
    "description": "Marketing Programs & Services",
    "phone": "(239) 994-7825",
    "address": "3333 Renaissance Blvd  Bonita Springs, FL 34134",
    "location": "Collier"
  },
  {
    "dataYpid": "571490647",
    "name": "Minuteman Press",
    "description": "Marketing Programs & Services",
    "phone": "(239) 261-1198",
    "address": "771 Airport Rd. N. Units 4 & 5  Naples, FL 34104",
    "location": "Collier"
  },
  {
    "dataYpid": "458710414",
    "name": "Kwik Kopy",
    "description": "Marketing Programs & Services",
    "phone": "(239) 263-2500",
    "address": "350 9th St S  Naples, FL 34102",
    "location": "Collier"
  },
  {
    "dataYpid": "574469971",
    "name": "Budget Direct Ads",
    "description": "Marketing Programs & Services",
    "phone": "(239) 422-6468",
    "address": "4511 32nd Ave SW  Naples, FL 34116",
    "location": "Collier"
  },
  {
    "dataYpid": "470247822",
    "name": "Virtual Business Leader",
    "description": "Marketing Programs & Services",
    "phone": "(239) 494-5978",
    "address": "23150 Fashion Dr Ste 232-k  Estero, FL 33928",
    "location": "Collier"
  },
  {
    "dataYpid": "526662393",
    "name": "AdvMark Cross Media",
    "description": "Marketing Programs & Services",
    "phone": "(239) 273-6352",
    "address": "8532 Via Lungomare Cir  Estero, FL 33928",
    "location": "Collier"
  },
  {
    "dataYpid": "482175901",
    "name": "L2 Productions",
    "description": "Marketing Programs & Services",
    "phone": "(239) 494-5251",
    "address": "9410 Corkscrew Palms Cir  Estero, FL 33928",
    "location": "Collier"
  },
  {
    "dataYpid": "512342876",
    "name": "Sunset Marketing",
    "description": "Marketing Programs & Services",
    "phone": "(727) 755-8239",
    "address": "5972 cerromar dr  naples, FL 34112",
    "location": "Collier"
  },
  {
    "dataYpid": "572311588",
    "name": "44i, Inc.",
    "description": "Marketing Programs & Services",
    "phone": "(239) 940-5781",
    "address": "7523 Moorgate Point Way  Naples, FL 34113",
    "location": "Collier"
  },
  {
    "dataYpid": "505485806",
    "name": "Samiah by Design",
    "description": "Marketing Programs & Services",
    "phone": "(209) 920-9446",
    "address": "20791 Three Oaks Pkwy  Estero, FL 33928",
    "location": "Collier"
  },
  {
    "dataYpid": "482649680",
    "name": "Over 2 Social",
    "description": "Marketing Consultants",
    "phone": "(239) 234-2444",
    "address": "1185 Immokalee Rd  Naples, FL 34110",
    "location": "Collier"
  },
  {
    "dataYpid": "464354577",
    "name": "Coral Canyon",
    "description": "Internet Marketing & Advertising",
    "phone": "(239) 571-7518",
    "address": "164 Coral Vine Dr  Naples, FL 34110",
    "location": "Collier"
  },
  {
    "dataYpid": "504727105",
    "name": "Blackfrog Agency",
    "description": "Advertising Agencies",
    "phone": "(888) 799-6003",
    "address": "2211 Noble Ct  Naples, FL 34110",
    "location": "Collier"
  },
  {
    "dataYpid": "485213144",
    "name": "Chaos Marketing",
    "description": "Marketing Consultants",
    "phone": "(239) 431-8182",
    "address": "13500 Tamiami Trl N Ste 9  Naples, FL 34110",
    "location": "Collier"
  },
  {
    "dataYpid": "531531621",
    "name": "AVE MARIA WEB, LLC",
    "description": "Internet Marketing & Advertising",
    "phone": "(239) 675-3080",
    "address": "9128 Strada Pl Ste 10115  Naples, FL 34108",
    "location": "Collier"
  },
  {
    "dataYpid": "537012394",
    "name": "Search Mavericks",
    "description": "Internet Marketing & Advertising",
    "phone": "(877) 388-1392",
    "address": "9128 Strada Pl  Naples, FL 34108",
    "location": "Collier"
  },
  {
    "dataYpid": "573179937",
    "name": "Effectv",
    "description": "Advertising Agencies",
    "phone": "(888) 877-9799",
    "address": "999 Vanderbilt Beach Rd  Naples, FL 34108",
    "location": "Collier"
  },
  {
    "dataYpid": "573778343",
    "name": "KNUT",
    "description": "Internet Marketing & Advertising",
    "phone": "(239) 880-5688",
    "address": "999 Vanderbilt Beach Rd Ste 200  Naples, FL 34108",
    "location": "Collier"
  },
  {
    "dataYpid": "1566280",
    "name": "Primary Resources Inc",
    "description": "Marketing Consultants",
    "phone": "(239) 262-2004",
    "address": "999 Vanderbilt Beach Rd Ste 200  Naples, FL 34108",
    "location": "Collier"
  },
  {
    "dataYpid": "547764766",
    "name": "Kfe Consulting",
    "description": "Marketing Consultants",
    "phone": "(239) 450-9072",
    "address": "4289 Court Ln  Naples, FL 34109",
    "location": "Collier"
  },
  {
    "dataYpid": "559371423",
    "name": "Evolving Brands International",
    "description": "Marketing Consultants",
    "phone": "(239) 888-9256",
    "address": "8871 Ventura Way  Naples, FL 34109",
    "location": "Collier"
  },
  {
    "dataYpid": "462421033",
    "name": "IntegrityNETwrox",
    "description": "Web Site Hosting",
    "phone": "(239) 354-3017",
    "address": "5633 Strand Blvd Ste 314  Naples, FL 34110",
    "location": "Collier"
  },
  {
    "dataYpid": "527398868",
    "name": "Crowdreviews.com",
    "description": "Internet Marketing & Advertising",
    "phone": "(239) 234-1996",
    "address": "9045 Strada Stell Ct  Naples, FL 34109",
    "location": "Collier"
  },
  {
    "dataYpid": "564905191",
    "name": "Adsource",
    "description": "Marketing Consultants",
    "phone": "(239) 495-0007",
    "address": "9010 Strada Stell Ct  Naples, FL 34109",
    "location": "Collier"
  },
  {
    "dataYpid": "472646130",
    "name": "Rusty Hat Enterprises",
    "description": "Internet Marketing & Advertising",
    "phone": "(239) 287-0193",
    "address": "460 Launch Cir Apt 303  Naples, FL 34108",
    "location": "Collier"
  },
  {
    "dataYpid": "458145215",
    "name": "Professional Writing Services",
    "description": "Marketing Consultants",
    "phone": "(407) 738-8445",
    "address": "Po Box 112533  Naples, FL 34108",
    "location": "Collier"
  },
  {
    "dataYpid": "476313595",
    "name": "Hospital Marketing Solutions LLC",
    "description": "Internet Marketing & Advertising",
    "phone": "(239) 352-9242",
    "address": "2430 Vanderbilt Beach Rd Ste 108  Naples, FL 34109",
    "location": "Collier"
  },
  {
    "dataYpid": "453188373",
    "name": "Distributor Partners of America",
    "description": "Marketing Consultants",
    "phone": "(239) 593-0111",
    "address": "5633 Strand Blvd  Naples, FL 34110",
    "location": "Collier"
  },
  {
    "dataYpid": "522011636",
    "name": "Smart Spider",
    "description": "Marketing Consultants",
    "phone": "(239) 307-8806",
    "address": "5644 Tavilla Cir Ste 207  Naples, FL 34110",
    "location": "Collier"
  },
  {
    "dataYpid": "569454296",
    "name": "Bisnista Michelle Inc.",
    "description": "Business Coaches & Consultants",
    "phone": "(850) 966-3010",
    "address": "5660 Strand Court #A204  Naples, FL 34110",
    "location": "Collier"
  },
  {
    "dataYpid": "2956620",
    "name": "B-Squared Advertising",
    "description": "Print Advertising",
    "phone": "(239) 593-3600",
    "address": "5675 Strand Ct  Naples, FL 34110",
    "location": "Collier"
  },
  {
    "dataYpid": "464177526",
    "name": "GMC Associates Inc",
    "description": "Marketing Consultants",
    "phone": "(239) 591-0700",
    "address": "6047 Fairway Ct  Naples, FL 34110",
    "location": "Collier"
  },
  {
    "dataYpid": "525583198",
    "name": "DNA",
    "description": "Internet Marketing & Advertising",
    "phone": "(239) 592-4478",
    "address": "2155 Malibu Lake Cir  Naples, FL 34119",
    "location": "Collier"
  },
  {
    "dataYpid": "15950107",
    "name": "Digital Marketing & Imaging",
    "description": "Marketing Consultants",
    "phone": "(239) 597-0002",
    "address": "6729 Autumn Woods Blvd  Naples, FL 34109",
    "location": "Collier"
  },
  {
    "dataYpid": "478329117",
    "name": "Red BSG USA",
    "description": "Computer Online Services",
    "phone": "(239) 384-0027",
    "address": "2335 Bear Creek Dr  Naples, FL 34109",
    "location": "Collier"
  },
  {
    "dataYpid": "525972678",
    "name": "BLU NEXT WEB",
    "description": "Web Site Design & Services",
    "phone": "(239) 287-8105",
    "address": "2205 Arbour Walk Cir Apt 916  Naples, FL 34109",
    "location": "Collier"
  },
  {
    "dataYpid": "2327573",
    "name": "Nature Trade Ctr Inc",
    "description": "Advertising Specialties",
    "phone": "(239) 592-0753",
    "address": "1915 Trade Center Way  Naples, FL 34109",
    "location": "Collier"
  },
  {
    "dataYpid": "526215240",
    "name": "Blue Streak Marketing",
    "description": "Marketing Consultants",
    "phone": "(239) 325-1615",
    "address": "1915 Trade Center Way  Naples, FL 34109",
    "location": "Collier"
  },
  {
    "dataYpid": "544883470",
    "name": "Bluematter",
    "description": "Marketing Consultants",
    "phone": "(800) 759-9412",
    "address": "4500 Executive Dr  Naples, FL 34119",
    "location": "Collier"
  },
  {
    "dataYpid": "548639182",
    "name": "Activedata Mobile",
    "description": "Marketing Consultants",
    "phone": "(239) 631-5292",
    "address": "4500 Executive Dr Ste 230  Naples, FL 34119",
    "location": "Collier"
  },
  {
    "dataYpid": "644525",
    "name": "Imedia Corp",
    "description": "Marketing Consultants",
    "phone": "(239) 598-2216",
    "address": "6323 Janes Ln  Naples, FL 34109",
    "location": "Collier"
  },
  {
    "dataYpid": "29404809",
    "name": "America's Best Real Estate",
    "description": "Sales Promotion Service",
    "phone": "(239) 591-3225",
    "address": "6101 Pelican Bay Blvd Apt 103  Naples, FL 34108",
    "location": "Collier"
  },
  {
    "dataYpid": "2807252",
    "name": "O K Koral Marketing",
    "description": "Marketing Consultants",
    "phone": "(239) 250-0071",
    "address": "11398 Phoenix Way  Naples, FL 34119",
    "location": "Collier"
  },
  {
    "dataYpid": "15917570",
    "name": "Trullinger Associates Inc",
    "description": "Market Research & Analysis",
    "phone": "(239) 594-8003",
    "address": "6115 English Oaks Ln  Naples, FL 34119",
    "location": "Collier"
  },
  {
    "dataYpid": "562502188",
    "name": "Protouch Marketing",
    "description": "Marketing Consultants",
    "phone": "(239) 431-7378",
    "address": "6314 Trail Blvd  Naples, FL 34108",
    "location": "Collier"
  },
  {
    "dataYpid": "530139695",
    "name": "Wbn Marketing",
    "description": "Computer Software Publishers & Developers",
    "phone": "(239) 591-5961",
    "address": "6214 Trail Blvd  Naples, FL 34108",
    "location": "Collier"
  },
  {
    "dataYpid": "531494636",
    "name": "Atilus",
    "description": "Computer Software & Services",
    "phone": "(888) 928-4587",
    "address": "28440 Old 41 Rd Ste 9  Bonita Springs, FL 34135",
    "location": "Collier"
  },
  {
    "dataYpid": "509801946",
    "name": "Not Just Websites LLC",
    "description": "Web Site Design & Services",
    "phone": "(239) 878-9310",
    "address": "28210 Old 41 Rd, Suite 301  Bonita Springs, FL 34135",
    "location": "Collier"
  },
  {
    "dataYpid": "15966321",
    "name": "Creative Fitness Marketing Inc",
    "description": "Marketing Consultants",
    "phone": "(239) 948-0843",
    "address": "9240 Bonita Beach Rd SE Ste 1105  Bonita Springs, FL 34135",
    "location": "Collier"
  },
  {
    "dataYpid": "491505072",
    "name": "A D Navigator",
    "description": "Marketing Consultants",
    "phone": "(239) 676-7084",
    "address": "9220 Bonita Beach Rd SE  Bonita Springs, FL 34135",
    "location": "Collier"
  },
  {
    "dataYpid": "512461433",
    "name": "Mindful Life",
    "description": "Marketing Consultants",
    "phone": "(239) 676-5009",
    "address": "9122 Bonita Beach Rd SE  Bonita Springs, FL 34135",
    "location": "Collier"
  },
  {
    "dataYpid": "515235017",
    "name": "Lewis Winthorp",
    "description": "Marketing Consultants",
    "phone": "(239) 405-8250",
    "address": "3860 Via Del Rey  Bonita Springs, FL 34134",
    "location": "Collier"
  },
  {
    "dataYpid": "466264814",
    "name": "LW Marketing & Consulting",
    "description": "Telemarketing Services",
    "phone": "(239) 405-8250",
    "address": "3860 Via del Rey  Bonita Springs, FL 34134",
    "location": "Collier"
  },
  {
    "dataYpid": "482225105",
    "name": "Internet Marketing Logic",
    "description": "Internet Marketing & Advertising",
    "phone": "(239) 495-3940",
    "address": "3301 Bonita Beach Rd Ste 308  Bonita Springs, FL 34134",
    "location": "Collier"
  },
  {
    "dataYpid": "542015327",
    "name": "Home Buyers Marketing II Inc.",
    "description": "Marketing Consultants",
    "phone": "(239) 398-5527",
    "address": "27911 Crown Lake Blvd Ste 239  Bonita Springs, FL 34135",
    "location": "Collier"
  },
  {
    "dataYpid": "462416071",
    "name": "Card Web",
    "description": "Market Research & Analysis",
    "phone": "(239) 325-5300",
    "address": "5100 Tamiami Trl N  Naples, FL 34103",
    "location": "Collier"
  },
  {
    "dataYpid": "527831799",
    "name": "Motor Club of America (MCA)",
    "description": "Internet Marketing & Advertising",
    "phone": "(850) 792-6622",
    "address": "Amanda Lane  Naples, FL 34109",
    "location": "Collier"
  },
  {
    "dataYpid": "458564112",
    "name": "Reber Thomas Marketing",
    "description": "Marketing Consultants",
    "phone": "(239) 598-9091",
    "address": "1937 Isla De Palma Cir  Naples, FL 34119",
    "location": "Collier"
  },
  {
    "dataYpid": "575811901",
    "name": "PipelinePRO",
    "description": "Web Site Design & Services",
    "phone": "(877) 262-0120",
    "address": "4850 Tamiami Trl N Unit 301  Naples, FL 34103",
    "location": "Collier"
  },
  {
    "dataYpid": "490961500",
    "name": "Watchdog City",
    "description": "Internet Marketing & Advertising",
    "phone": "(239) 449-8045",
    "address": "4760 Tamiami Trl N Ste 1A  Naples, FL 34103",
    "location": "Collier"
  },
  {
    "dataYpid": "4574213",
    "name": "Resort Marketing Consultants",
    "description": "Marketing Consultants",
    "phone": "(239) 596-7900",
    "address": "3435 Pine Ridge Rd  Naples, FL 34109",
    "location": "Collier"
  },
  {
    "dataYpid": "29465936",
    "name": "EyeMagination",
    "description": "Internet Marketing & Advertising",
    "phone": "(941) 375-0352",
    "address": "1791 Morning Sun Ln  Naples, FL 34119",
    "location": "Collier"
  },
  {
    "dataYpid": "464244566",
    "name": "The Tradewell Group Inc",
    "description": "Marketing Consultants",
    "phone": "(239) 261-4244",
    "address": "1040 Morningside Dr  Naples, FL 34103",
    "location": "Collier"
  },
  {
    "dataYpid": "559527670",
    "name": "Koller Marketing Group",
    "description": "Marketing Consultants",
    "phone": "(239) 293-4659",
    "address": "8710 Ibis Cove Cir  Naples, FL 34119",
    "location": "Collier"
  },
  {
    "dataYpid": "534574425",
    "name": "Business Dynamix Solutions LLC",
    "description": "Business Coaches & Consultants",
    "phone": "(239) 262-1237",
    "address": "4099 Tamiami Trail North, Suite 237  Naples, FL 34103",
    "location": "Collier"
  },
  {
    "dataYpid": "464271392",
    "name": "A Sound Choice Entertainment",
    "description": "Internet Marketing & Advertising",
    "phone": "(239) 352-9988",
    "address": "14534 Indigo Lakes Cir  Naples, FL 34119",
    "location": "Collier"
  },
  {
    "dataYpid": "546061377",
    "name": "Markit Group",
    "description": "Marketing Consultants",
    "phone": "(239) 676-9756",
    "address": "3200 Bailey Ln  Naples, FL 34105",
    "location": "Collier"
  },
  {
    "dataYpid": "7310807",
    "name": "Market This",
    "description": "Marketing Consultants",
    "phone": "(239) 431-6524",
    "address": "12859 Carrington Cir Unit 103  Naples, FL 34105",
    "location": "Collier"
  },
  {
    "dataYpid": "545903735",
    "name": "Angel Hot Soft",
    "description": "Marketing Consultants",
    "phone": "(239) 234-6578",
    "address": "801 Anchor Rode Dr  Naples, FL 34103",
    "location": "Collier"
  },
  {
    "dataYpid": "534042792",
    "name": "www.insidetraveltoday.com",
    "description": "Internet Marketing & Advertising",
    "phone": "(239) 692-3355",
    "address": "2697 Poinciana Dr  Naples, FL 34105",
    "location": "Collier"
  },
  {
    "dataYpid": "525365241",
    "name": "Webpuzzlemaster Digital Marketing Agency",
    "description": "Marketing Consultants",
    "phone": "(239) 293-7695",
    "address": "15275 Collier Blvd Ste 201/207  Naples, FL 34119",
    "location": "Collier"
  },
  {
    "dataYpid": "483837392",
    "name": "1-800-GRANOLA.com",
    "description": "Marketing Consultants",
    "phone": "(800) 472-6652",
    "address": "15275 Collier Blvd Suite 201-222  Naples, FL 34119",
    "location": "Collier"
  },
  {
    "dataYpid": "11192101",
    "name": "Smart Markiting",
    "description": "Product Design, Development & Marketing",
    "phone": "(239) 403-7556",
    "address": "3033 Riviera Dr  Naples, FL 34103",
    "location": "Collier"
  },
  {
    "dataYpid": "464514755",
    "name": "Alpha Marketing Associates",
    "description": "Marketing Consultants",
    "phone": "(239) 992-5960",
    "address": "27218 Driftwood Dr  Bonita Springs, FL 34135",
    "location": "Collier"
  },
  {
    "dataYpid": "467600538",
    "name": "W&T Communications",
    "description": "Internet Marketing & Advertising",
    "phone": "(239) 495-6300",
    "address": "27499 Riverview Center Blvd Ste 105  Bonita Springs, FL 34134",
    "location": "Collier"
  },
  {
    "dataYpid": "480898588",
    "name": "Internet Marketing Logic, Inc.",
    "description": "Internet Marketing & Advertising",
    "phone": "(239) 495-3940",
    "address": "27499 Riverview Center Blvd  Bonita Springs, FL 34134",
    "location": "Collier"
  },
  {
    "dataYpid": "466378030",
    "name": "Stonehill Media",
    "description": "Marketing Consultants",
    "phone": "(239) 444-4393",
    "address": "27499 Riverview Center Blvd Ste 261  Bonita Springs, FL 34134",
    "location": "Collier"
  },
  {
    "dataYpid": "567573037",
    "name": "Beedash",
    "description": "Web Site Design & Services",
    "phone": "(239) 228-8837",
    "address": "3521 Bonita Bay Blvd Ste 100  Bonita Springs, FL 34134",
    "location": "Collier"
  },
  {
    "dataYpid": "481089557",
    "name": "Calypso Designs",
    "description": "Graphic Designers",
    "phone": "(239) 603-7658",
    "address": "10149 Sunshine Dr  Bonita Springs, FL 34135",
    "location": "Collier"
  },
  {
    "dataYpid": "495409689",
    "name": "Circle Consultants",
    "description": "Copy Writers",
    "phone": "(239) 244-1156",
    "address": "26455 Old 41 Rd  Bonita Springs, FL 34135",
    "location": "Collier"
  },
  {
    "dataYpid": "12341904",
    "name": "Media Trade Corp",
    "description": "Product Design, Development & Marketing",
    "phone": "(239) 948-2001",
    "address": "11820 Red Hibiscus Dr  Bonita Springs, FL 34135",
    "location": "Collier"
  },
  {
    "dataYpid": "12398071",
    "name": "SWFL Inc.",
    "description": "Business & Trade Organizations",
    "phone": "(239) 992-5011",
    "address": "25071 Chamber Of Commerce Dr  Bonita Springs, FL 34135",
    "location": "Collier"
  },
  {
    "dataYpid": "564235930",
    "name": "WYN Media LLC",
    "description": "Internet Marketing & Advertising",
    "phone": "(239) 359-6255",
    "address": "28150 Crest Preserve Circle  Bonita Springs, FL 34135",
    "location": "Collier"
  },
  {
    "dataYpid": "523483535",
    "name": "Michael Pilko Digital Media",
    "description": "Internet Marketing & Advertising",
    "phone": "(616) 402-9986",
    "address": "28070 Sosta Ln  Bonita Springs, FL 34135",
    "location": "Collier"
  },
  {
    "dataYpid": "9501455",
    "name": "R G B Internet Systems",
    "description": "Internet Marketing & Advertising",
    "phone": "(239) 403-9966",
    "address": "3050 Horseshoe Dr N Ste 200  Naples, FL 34104",
    "location": "Collier"
  },
  {
    "dataYpid": "481222872",
    "name": "Vu Studios",
    "description": "Internet Marketing & Advertising",
    "phone": "(239) 228-9300",
    "address": "475 Tamiami Trl N  Naples, FL 34102",
    "location": "Collier"
  },
  {
    "dataYpid": "548165345",
    "name": "C2 Communications",
    "description": "Marketing Consultants",
    "phone": "(239) 431-4646",
    "address": "2590 Golden Gate Pkwy Ste 110  Naples, FL 34105",
    "location": "Collier"
  },
  {
    "dataYpid": "474119224",
    "name": "Ft Myers Savings Network",
    "description": "Internet Marketing & Advertising",
    "phone": "(941) 677-8658",
    "address": "1185 14th Ave N  Naples, FL 34102",
    "location": "Collier"
  },
  {
    "dataYpid": "549966951",
    "name": "Young and Royal",
    "description": "Marketing Consultants",
    "phone": "(239) 331-8112",
    "address": "12975 Collier Blvd  Naples, FL 34116",
    "location": "Collier"
  },
  {
    "dataYpid": "504997792",
    "name": "Avenue Visual",
    "description": "Publicity Service",
    "phone": "(239) 961-6810",
    "address": "3606 Enterprise Ave Ste 307  Naples, FL 34104",
    "location": "Collier"
  },
  {
    "dataYpid": "555806446",
    "name": "Boardroompr",
    "description": "Advertising Agencies",
    "phone": "(239) 360-9340",
    "address": "3606 Enterprise Ave  Naples, FL 34104",
    "location": "Collier"
  },
  {
    "dataYpid": "513855430",
    "name": "Agingcare.com",
    "description": "Internet Marketing & Advertising",
    "phone": "(239) 594-3202",
    "address": "720 Goodlette-Frank Rd N  Naples, FL 34102",
    "location": "Collier"
  },
  {
    "dataYpid": "468234339",
    "name": "Maldonado & Associates",
    "description": "Marketing Consultants",
    "phone": "(239) 213-0168",
    "address": "351 Airport Pulling Rd N  Naples, FL 34104",
    "location": "Collier"
  },
  {
    "dataYpid": "454862034",
    "name": "List Marketing Inc",
    "description": "Marketing Consultants",
    "phone": "(239) 263-4350",
    "address": "555 10th St N  Naples, FL 34102",
    "location": "Collier"
  },
  {
    "dataYpid": "482175982",
    "name": "Concourse Business Services",
    "description": "Bookkeeping",
    "phone": "(239) 348-5030",
    "address": "4100 Corporate Sq Ste 162  Naples, FL 34104",
    "location": "Collier"
  },
  {
    "dataYpid": "460073725",
    "name": "An Organized You",
    "description": "Data Processing Service",
    "phone": "(239) 248-6655",
    "address": "PO Box 9278  Naples, FL 34101",
    "location": "Collier"
  },
  {
    "dataYpid": "517410805",
    "name": "Errand Family",
    "description": "Internet Marketing & Advertising",
    "phone": "(239) 403-4003",
    "address": "267 Airport Rd S  Naples, FL 34104",
    "location": "Collier"
  },
  {
    "dataYpid": "538268145",
    "name": "Social-Impact",
    "description": "Marketing Consultants",
    "phone": "(239) 325-1127",
    "address": "5101 31st Ave SW  Naples, FL 34116",
    "location": "Collier"
  },
  {
    "dataYpid": "551713841",
    "name": "Jgmapfj.com",
    "description": "Internet Marketing & Advertising",
    "phone": "(414) 666-2227",
    "address": "26132 Fawnwood Ct  Bonita Springs, FL 34134",
    "location": "Collier"
  },
  {
    "dataYpid": "14239109",
    "name": "Financial Marketing System",
    "description": "Marketing Consultants",
    "phone": "(239) 221-8952",
    "address": "3501 Candleberry Ct  Bonita Springs, FL 34134",
    "location": "Collier"
  },
  {
    "dataYpid": "464514506",
    "name": "First Page Google Rank",
    "description": "Internet Marketing & Advertising",
    "phone": "(239) 404-1200",
    "address": "10020 Coconut Rd  Estero, FL 34135",
    "location": "Collier"
  },
  {
    "dataYpid": "546227038",
    "name": "Fluid Church Consulting",
    "description": "Church Supplies & Services",
    "phone": "(239) 572-9142",
    "address": "23421 Walden Center Dr, Suite 120  Bonita Springs, FL 34134",
    "location": "Collier"
  },
  {
    "dataYpid": "466514625",
    "name": "US CET CORP",
    "description": "Incorporating Companies",
    "phone": "(239) 300-0348",
    "address": "2272 Airport Rd S Ste 210  Naples, FL 34112",
    "location": "Collier"
  },
  {
    "dataYpid": "551939589",
    "name": "Goldengirlssellflorida.com",
    "description": "Internet Marketing & Advertising",
    "phone": "(239) 641-9832",
    "address": "5th Avenue 621 5th Ave S  Naples, FL 34102",
    "location": "Collier"
  },
  {
    "dataYpid": "497880365",
    "name": "America Cares",
    "description": "Marketing Consultants",
    "phone": "(239) 304-8697",
    "address": "852 1st Ave S Ste 301  Naples, FL 34102",
    "location": "Collier"
  },
  {
    "dataYpid": "20876239",
    "name": "Bayfront Marketing",
    "description": "Marketing Consultants",
    "phone": "(239) 263-6884",
    "address": "465 Bayfront Pl  Naples, FL 34102",
    "location": "Collier"
  },
  {
    "dataYpid": "497213381",
    "name": "Patten Sales and Marketing",
    "description": "Marketing Consultants",
    "phone": "(239) 963-9783",
    "address": "1100 5th Ave S Ste 404  Naples, FL 34102",
    "location": "Collier"
  },
  {
    "dataYpid": "528262878",
    "name": "Riptide SEO",
    "description": "Internet Marketing & Advertising",
    "phone": "(239) 330-3824",
    "address": "780 5th Ave S Ste 200  Naples, FL 34102",
    "location": "Collier"
  },
  {
    "dataYpid": "481921044",
    "name": "Sigma Hospitality Resources",
    "description": "Hotel & Motel Management",
    "phone": "(239) 200-4562",
    "address": "6820 Sterling Greens Pl Apt 105  Naples, FL 34104",
    "location": "Collier"
  },
  {
    "dataYpid": "469956374",
    "name": "Bi",
    "description": "Marketing Consultants",
    "phone": "(239) 430-0101",
    "address": "3865 Davis Blvd  Naples, FL 34104",
    "location": "Collier"
  },
  {
    "dataYpid": "509590927",
    "name": "Coachbarreto.com",
    "description": "Internet Marketing & Advertising",
    "phone": "(239) 777-8453",
    "address": "900 Broad Ave S  Naples, FL 34102",
    "location": "Collier"
  },
  {
    "dataYpid": "527911857",
    "name": "Solve Design Create LLC",
    "description": "Audio-Visual Creative Services",
    "phone": "(239) 963-1213",
    "address": "4888 Davis Blvd Suite 244  Naples, FL 34104",
    "location": "Collier"
  },
  {
    "dataYpid": "457433499",
    "name": "Draiss Marketing LLC",
    "description": "Marketing Consultants",
    "phone": "(239) 963-4645",
    "address": "1367 Wildwood Lakes Blvd  Naples, FL 34104",
    "location": "Collier"
  },
  {
    "dataYpid": "546109992",
    "name": "Click Fraud Defender",
    "description": "Advertising Agencies",
    "phone": "(833) 343-3334",
    "address": "23448 Olde Meadowbrook Cir  Estero, FL 34134",
    "location": "Collier"
  },
  {
    "dataYpid": "19174808",
    "name": "Current House Productions",
    "description": "Internet Marketing & Advertising",
    "phone": "(239) 221-7947",
    "address": "9820 Springlake Cir  Estero, FL 33928",
    "location": "Collier"
  },
  {
    "dataYpid": "527481338",
    "name": "Myrebatingrealtor.com",
    "description": "Internet Marketing & Advertising",
    "phone": "(239) 218-9236",
    "address": "21301 S Tamiami Trl  Estero, FL 33928",
    "location": "Collier"
  },
  {
    "dataYpid": "22973317",
    "name": "Brian Joseph Studios Naples Web Design",
    "description": "Web Site Design & Services",
    "phone": "(239) 280-1294",
    "address": "1000 8th St NE  Naples, FL 34120",
    "location": "Collier"
  },
  {
    "dataYpid": "567100511",
    "name": "Niko Creatives",
    "description": "Marketing Consultants",
    "phone": "(239) 384-0984",
    "address": "2986 Full Moon Ct  Naples, FL 34112",
    "location": "Collier"
  },
  {
    "dataYpid": "482101514",
    "name": "Mindzoo",
    "description": "Marketing Consultants",
    "phone": "(239) 304-9611",
    "address": "3792 Jungle Plum Dr E  Naples, FL 34114",
    "location": "Collier"
  },
  {
    "dataYpid": "546069294",
    "name": "Johnthemasterbarber.com",
    "description": "Internet Marketing & Advertising",
    "phone": "(630) 202-3450",
    "address": "101 Champagne Ct  Naples, FL 34112",
    "location": "Collier"
  },
  {
    "dataYpid": "521193307",
    "name": "1800Towsafe.com",
    "description": "Internet Marketing & Advertising",
    "phone": "(239) 321-5514",
    "address": "13260 Immokalee Rd  Naples, FL 34120",
    "location": "Collier"
  },
  {
    "dataYpid": "559536647",
    "name": "Naples Promo Deals",
    "description": "Advertising Specialties",
    "phone": "(239) 348-2699",
    "address": "5683 Rattlesnake Hammock Rd  Naples, FL 34113",
    "location": "Collier"
  },
  {
    "dataYpid": "565054872",
    "name": "Naples Digital Marketing Agency Fannit",
    "description": "Internet Marketing & Advertising",
    "phone": "(239) 345-3680",
    "address": "811 Wilson Blvd S  Naples, FL 34117",
    "location": "Collier"
  },
  {
    "dataYpid": "499383028",
    "name": "Proforma Dynamic Image",
    "description": "Advertising-Promotional Products",
    "phone": "(239) 592-0086",
    "address": "3160 Orange Grove Trl  Naples, FL 34120",
    "location": "Collier"
  },
  {
    "dataYpid": "574432272",
    "name": "Lasso Up",
    "description": "Web Site Design & Services",
    "phone": "(888) 700-9412",
    "address": "6229 Union Island Way  Naples, FL 34113",
    "location": "Collier"
  },
  {
    "dataYpid": "517456666",
    "name": "Simplybbguns.com",
    "description": "Internet Marketing & Advertising",
    "phone": "(239) 285-9201",
    "address": "8595 Collier Blvd  Naples, FL 34114",
    "location": "Collier"
  },
  {
    "dataYpid": "502854051",
    "name": "Social Plug",
    "description": "Internet Marketing & Advertising",
    "phone": "(239) 877-4424",
    "address": "2172 Vardin pl  Naples, FL 34120",
    "location": "Collier"
  },
  {
    "dataYpid": "29321321",
    "name": "As Seen On TV Marketing",
    "description": "Marketing Consultants",
    "phone": "(239) 774-3580",
    "address": "7256 Carducci Ct  Naples, FL 34114",
    "location": "Collier"
  },
  {
    "dataYpid": "624407",
    "name": "Avon Calling",
    "description": "Marketing Consultants",
    "phone": "(239) 352-3372",
    "address": "4220 22nd St NE  Naples, FL 34120",
    "location": "Collier"
  },
  {
    "dataYpid": "469867130",
    "name": "Lisa Wilkinson, Creative Consultant",
    "description": "Copy Writers",
    "phone": "(239) 438-8133",
    "address": "2540 27th Ave NE  Naples, FL 34120",
    "location": "Collier"
  },
  {
    "dataYpid": "476107452",
    "name": "Patti Genko Marketing",
    "description": "Internet Marketing & Advertising",
    "phone": "(239) 449-6049",
    "address": "8630 Mustang Dr  Naples, FL 34113",
    "location": "Collier"
  },
  {
    "dataYpid": "515470798",
    "name": "PKG-Guru.com",
    "description": "Internet Marketing & Advertising",
    "phone": "(239) 398-8211",
    "address": "1231 Silver Lakes Blvd  Naples, FL 34114",
    "location": "Collier"
  },
  {
    "dataYpid": "562512845",
    "name": "Online Marketing Rehab",
    "description": "Marketing Consultants",
    "phone": "(239) 221-8868",
    "address": "21052 Bosco Ct  Estero, FL 33928",
    "location": "Collier"
  },
  {
    "dataYpid": "545900278",
    "name": "Lake Michigan Marketing",
    "description": "Marketing Consultants",
    "phone": "(616) 884-0058",
    "address": "20641 Rivers Frd  Estero, FL 33928",
    "location": "Collier"
  },
  {
    "dataYpid": "520357024",
    "name": "Precision Marketing Consultants",
    "description": "Marketing Consultants",
    "phone": "(239) 689-1950",
    "address": "19511 Bowring Park Rd Apt 106  Fort Myers, FL 33967",
    "location": "Collier"
  },
  {
    "dataYpid": "560485973",
    "name": "Digital Influence",
    "description": "Marketing Consultants",
    "phone": "(630) 301-2005",
    "address": "5525 Estero Blvd  Fort Myers Beach, FL 33931",
    "location": "Collier"
  },
  {
    "dataYpid": "504406935",
    "name": "Nautical Marketing",
    "description": "Marketing Consultants",
    "phone": "(239) 765-0707",
    "address": "1698 Estero Blvd  Fort Myers Beach, FL 33931",
    "location": "Collier"
  },
  {
    "dataYpid": "457603146",
    "name": "Champion Resorts Inc",
    "description": "Marketing Consultants",
    "phone": "(239) 765-0888",
    "address": "1661 Estero Blvd  Fort Myers Beach, FL 33931",
    "location": "Collier"
  },
  {
    "dataYpid": "22712155",
    "name": "GLOBEFLASH INTERNET WEB DESIGN HOSTING",
    "description": "Internet Marketing & Advertising",
    "phone": "(239) 287-9519",
    "address": "8325 Sumner Ave  Fort Myers, FL 33908",
    "location": "Collier"
  }
]