[
  {
    "dataYpid": "28896803",
    "name": "Milligan, Thomas",
    "description": "Marketing Programs & Services",
    "phone": "(941) 359-0328",
    "address": "1126 Four Seasons Cir Apt 209  Sarasota, FL 34234",
    "location": "DeSoto"
  },
  {
    "dataYpid": "4456480",
    "name": "Intercon Marketing Inc Contoure",
    "description": "Marketing Programs & Services",
    "phone": "(941) 355-4488",
    "address": "1540 Northgate Blvd  Sarasota, FL 34234",
    "location": "DeSoto"
  },
  {
    "dataYpid": "575680145",
    "name": "True Wellness Marketing",
    "description": "Marketing Programs & Services",
    "phone": "(877) 664-4654",
    "address": "1816 57th St Ste A301  Sarasota, FL 34243",
    "location": "DeSoto"
  },
  {
    "dataYpid": "496239765",
    "name": "Vector Marketing",
    "description": "Marketing Programs & Services",
    "phone": "(941) 358-4929",
    "address": "1939 Northgate Blvd  Sarasota, FL 34234",
    "location": "DeSoto"
  },
  {
    "dataYpid": "469038444",
    "name": "International Aviation Marketing Inc",
    "description": "Marketing Programs & Services",
    "phone": "(941) 355-5353",
    "address": "8191 N Tamiami Trl Ste 220  Sarasota, FL 34243",
    "location": "DeSoto"
  },
  {
    "dataYpid": "550847718",
    "name": "Sherpa Media",
    "description": "Marketing Programs & Services",
    "phone": "(941) 444-1699",
    "address": "2203 Industrial Blvd  Sarasota, FL 34234",
    "location": "DeSoto"
  },
  {
    "dataYpid": "4518713",
    "name": "National In-Store",
    "description": "Marketing Programs & Services",
    "phone": "(941) 358-3384",
    "address": "7425 16th St E Ste 101  Sarasota, FL 34243",
    "location": "DeSoto"
  },
  {
    "dataYpid": "574445157",
    "name": "Tweed Marketing, Inc.",
    "description": "Marketing Programs & Services",
    "phone": "(941) 525-0552",
    "address": "1226 N Tamiami Trl  Sarasota, FL 34236",
    "location": "DeSoto"
  },
  {
    "dataYpid": "571682357",
    "name": "Twin Towers Trading Corp",
    "description": "Marketing Programs & Services",
    "phone": "(732) 786-8010",
    "address": "7168 15th St E  Sarasota, FL 34243",
    "location": "DeSoto"
  },
  {
    "dataYpid": "497583204",
    "name": "Monolith Marketing",
    "description": "Marketing Programs & Services",
    "phone": "(941) 350-5835",
    "address": "1232 Zacchini Ave  Sarasota, FL 34237",
    "location": "DeSoto"
  },
  {
    "dataYpid": "561361689",
    "name": "Johnson Marketing Group",
    "description": "Marketing Programs & Services",
    "phone": "(941) 955-3200",
    "address": "1785 6th St  Sarasota, FL 34236",
    "location": "DeSoto"
  },
  {
    "dataYpid": "29181958",
    "name": "Zenith Marketing Group Inc",
    "description": "Marketing Programs & Services",
    "phone": "(732) 577-1400",
    "address": "824 Magellan Dr  Sarasota, FL 34243",
    "location": "DeSoto"
  },
  {
    "dataYpid": "505819196",
    "name": "Ilandguide Worldwide Inc",
    "description": "Marketing Programs & Services",
    "phone": "(718) 445-7131",
    "address": "677 N Washington Blvd  Sarasota, FL 34236",
    "location": "DeSoto"
  },
  {
    "dataYpid": "555872399",
    "name": "Book Week Partners",
    "description": "Marketing Programs & Services",
    "phone": "(800) 950-2371",
    "address": "677 N Washington Blvd # 31  Sarasota, FL 34236",
    "location": "DeSoto"
  },
  {
    "dataYpid": "3148481",
    "name": "C R A Marketing Inc",
    "description": "Marketing Programs & Services",
    "phone": "(941) 955-5585",
    "address": "1401 2nd St  Sarasota, FL 34236",
    "location": "DeSoto"
  },
  {
    "dataYpid": "475202430",
    "name": "Expo Marketing",
    "description": "Marketing Programs & Services",
    "phone": "(941) 444-6464",
    "address": "1819 Main St  Sarasota, FL 34236",
    "location": "DeSoto"
  },
  {
    "dataYpid": "473405628",
    "name": "Magnum Marketing PC",
    "description": "Marketing Programs & Services",
    "phone": "(941) 388-7359",
    "address": "1900 Main St  Sarasota, FL 34236",
    "location": "DeSoto"
  },
  {
    "dataYpid": "526781542",
    "name": "PRO Team Networking",
    "description": "Marketing Programs & Services",
    "phone": "(727) 277-2055",
    "address": "2803 Fruitville Rd  Sarasota, FL 34237",
    "location": "DeSoto"
  },
  {
    "dataYpid": "566418964",
    "name": "Tu Marketing Digital",
    "description": "Marketing Programs & Services",
    "phone": "(727) 564-0631",
    "address": "3167 8th St  Sarasota, FL 34237",
    "location": "DeSoto"
  },
  {
    "dataYpid": "537652463",
    "name": "Barbara Peat consulting",
    "description": "Marketing Programs & Services",
    "phone": "(941) 524-9023",
    "address": "3448 Tallywood Circle  Sarasota, FL 34243",
    "location": "DeSoto"
  },
  {
    "dataYpid": "29072784",
    "name": "Michel Sport Marketing Inc",
    "description": "Marketing Programs & Services",
    "phone": "(941) 954-3782",
    "address": "201 Bird Key Dr  Sarasota, FL 34236",
    "location": "DeSoto"
  },
  {
    "dataYpid": "570743605",
    "name": "Rumble, Inc",
    "description": "Marketing Programs & Services",
    "phone": "(941) 210-0196",
    "address": "444 Gulf Of Mexico Dr  Longboat Key, FL 34228",
    "location": "DeSoto"
  },
  {
    "dataYpid": "533685041",
    "name": "Socially 24/7",
    "description": "Marketing Programs & Services",
    "phone": "(941) 212-0100",
    "address": "1505 Bay View Dr  Sarasota, FL 34239",
    "location": "DeSoto"
  },
  {
    "dataYpid": "566433810",
    "name": "Dealer Rewards",
    "description": "Marketing Programs & Services",
    "phone": "(302) 537-2194",
    "address": "2275 Vihia Vis  Sarasota, FL 34239",
    "location": "DeSoto"
  },
  {
    "dataYpid": "7810357",
    "name": "Trace Marketing Inc",
    "description": "Marketing Programs & Services",
    "phone": "(941) 927-2202",
    "address": "3243 Espanola Dr  Sarasota, FL 34239",
    "location": "DeSoto"
  },
  {
    "dataYpid": "468764727",
    "name": "Menu's R Us",
    "description": "Marketing Programs & Services",
    "phone": "(800) 489-2605",
    "address": "3230 Southgate Cir Suite 140  Sarasota, FL 34239",
    "location": "DeSoto"
  },
  {
    "dataYpid": "466448970",
    "name": "High Road Marketing",
    "description": "Marketing Programs & Services",
    "phone": "(941) 953-4608",
    "address": "3800 S Tamiami Trl Unit 312  Sarasota, FL 34239",
    "location": "DeSoto"
  },
  {
    "dataYpid": "29380778",
    "name": "Shoot the Moon Productions",
    "description": "Marketing Programs & Services",
    "phone": "(941) 378-0099",
    "address": "4025 Linwood St  Sarasota, FL 34232",
    "location": "DeSoto"
  },
  {
    "dataYpid": "501682966",
    "name": "New Lefe Digital Marketing",
    "description": "Marketing Programs & Services",
    "phone": "(941) 706-2249",
    "address": "3933 Breck Ln  Sarasota, FL 34232",
    "location": "DeSoto"
  },
  {
    "dataYpid": "14264601",
    "name": "CD Central",
    "description": "Marketing Programs & Services",
    "phone": "(941) 925-0800",
    "address": "3322 Bee Ridge Rd Ste 100  Sarasota, FL 34239",
    "location": "DeSoto"
  },
  {
    "dataYpid": "547353132",
    "name": "AI Marketing Team",
    "description": "Marketing Programs & Services",
    "phone": "(941) 229-1195",
    "address": "2333 53rd Ave E Unit 1735  Oneco, FL 34264",
    "location": "DeSoto"
  },
  {
    "dataYpid": "23094543",
    "name": "Daniel DeCaro Real Estate Auction",
    "description": "Marketing Programs & Services",
    "phone": "(941) 504-3555",
    "address": "29 Avenue Of The Flowers  Longboat Key, FL 34228",
    "location": "DeSoto"
  },
  {
    "dataYpid": "559482761",
    "name": "Strategic Networks",
    "description": "Marketing Programs & Services",
    "phone": "(941) 363-1638",
    "address": "4112 53rd Ave E  Bradenton, FL 34203",
    "location": "DeSoto"
  },
  {
    "dataYpid": "553615174",
    "name": "T J Marketing Inc",
    "description": "Marketing Programs & Services",
    "phone": "(941) 900-2341",
    "address": "1204 44th Ave E  Bradenton, FL 34203",
    "location": "DeSoto"
  },
  {
    "dataYpid": "473404574",
    "name": "Schroeder Marketing Inc",
    "description": "Marketing Programs & Services",
    "phone": "(941) 708-5243",
    "address": "6155 Aviary Ct  Bradenton, FL 34203",
    "location": "DeSoto"
  },
  {
    "dataYpid": "457087593",
    "name": "Island Marketing",
    "description": "Marketing Programs & Services",
    "phone": "(941) 346-1144",
    "address": "619 Tremont St  Sarasota, FL 34242",
    "location": "DeSoto"
  },
  {
    "dataYpid": "512776445",
    "name": "Marketing Concepts & Designs",
    "description": "Marketing Programs & Services",
    "phone": "(941) 266-8783",
    "address": "4421 Spahn St  Sarasota, FL 34232",
    "location": "DeSoto"
  },
  {
    "dataYpid": "575963405",
    "name": "Trump Media & Technology Group Corp",
    "description": "Marketing Programs & Services",
    "phone": "(941) 735-7346",
    "address": "401 N Cattlemen Rd  Sarasota, FL 34232",
    "location": "DeSoto"
  },
  {
    "dataYpid": "559174940",
    "name": "Carrasco Marketing",
    "description": "Marketing Programs & Services",
    "phone": "(941) 726-6581",
    "address": "2339 Riverwood Pines Dr  Sarasota, FL 34231",
    "location": "DeSoto"
  },
  {
    "dataYpid": "505817844",
    "name": "Repatron",
    "description": "Marketing Programs & Services",
    "phone": "(941) 363-1014",
    "address": "4411 Bee Ridge Rd  Sarasota, FL 34233",
    "location": "DeSoto"
  },
  {
    "dataYpid": "20205319",
    "name": "Prospects Plus",
    "description": "Marketing Programs & Services",
    "phone": "(941) 342-9700",
    "address": "5875 Bahia Vista St  Sarasota, FL 34232",
    "location": "DeSoto"
  },
  {
    "dataYpid": "475158486",
    "name": "WebXgroup",
    "description": "Marketing Programs & Services",
    "phone": "(941) 400-8468",
    "address": "4980 Cross Creek Rd  Sarasota, FL 34231",
    "location": "DeSoto"
  },
  {
    "dataYpid": "4995094",
    "name": "E Coupons Florida Marketing Grou",
    "description": "Marketing Programs & Services",
    "phone": "(941) 342-0900",
    "address": "6120 Porter Rd  Sarasota, FL 34240",
    "location": "DeSoto"
  },
  {
    "dataYpid": "531045851",
    "name": "Josh Wade SEO",
    "description": "Marketing Programs & Services",
    "phone": "(919) 389-8290",
    "address": "2100 Constitution Blvd # 207  Sarasota, FL 34231",
    "location": "DeSoto"
  },
  {
    "dataYpid": "486632656",
    "name": "Milestone Marketing",
    "description": "Marketing Programs & Services",
    "phone": "(941) 306-3602",
    "address": "3793 Countryside Rd  Sarasota, FL 34233",
    "location": "DeSoto"
  },
  {
    "dataYpid": "459602473",
    "name": "Southeast Lending Group Inc",
    "description": "Marketing Programs & Services",
    "phone": "(941) 921-5634",
    "address": "1810 Shelburne Ln  Sarasota, FL 34231",
    "location": "DeSoto"
  },
  {
    "dataYpid": "13197155",
    "name": "Gateway Properties & Marketing",
    "description": "Marketing Programs & Services",
    "phone": "(941) 922-8072",
    "address": "6637 Superior Ave  Sarasota, FL 34231",
    "location": "DeSoto"
  },
  {
    "dataYpid": "478396512",
    "name": "CRE8TEGY",
    "description": "Marketing Programs & Services",
    "phone": "(941) 330-4153",
    "address": "6720 S Tamiami Trl # 1005  Sarasota, FL 34231",
    "location": "DeSoto"
  },
  {
    "dataYpid": "465492690",
    "name": "Foster Business Development, LLC",
    "description": "Marketing Programs & Services",
    "phone": "(941) 962-3827",
    "address": "8374 Market St # 189  Lakewood Ranch, FL 34202",
    "location": "DeSoto"
  },
  {
    "dataYpid": "519376354",
    "name": "Cyber Marketing Services",
    "description": "Marketing Programs & Services",
    "phone": "(941) 702-8389",
    "address": "5343 Paylor Ln  Lakewood Ranch, FL 34240",
    "location": "DeSoto"
  },
  {
    "dataYpid": "562101030",
    "name": "Ustci",
    "description": "Marketing Programs & Services",
    "phone": "(941) 744-1400",
    "address": "2840 Manatee Ave E  Bradenton, FL 34208",
    "location": "DeSoto"
  },
  {
    "dataYpid": "497731540",
    "name": "PERC",
    "description": "Marketing Programs & Services",
    "phone": "(612) 254-6300",
    "address": "11130 Battery Park Place  Bradenton, FL 34211",
    "location": "DeSoto"
  },
  {
    "dataYpid": "495302370",
    "name": "Sharper Advertising",
    "description": "Marketing Programs & Services",
    "phone": "(941) 702-8607",
    "address": "1235 Sarasota Center Blvd  Sarasota, FL 34240",
    "location": "DeSoto"
  },
  {
    "dataYpid": "20486853",
    "name": "Sweeney Marketing Group Inc",
    "description": "Marketing Programs & Services",
    "phone": "(941) 371-7010",
    "address": "70 Sarasota Center Blvd  Sarasota, FL 34240",
    "location": "DeSoto"
  },
  {
    "dataYpid": "505125521",
    "name": "Vision Innovations",
    "description": "Marketing Programs & Services",
    "phone": "(941) 377-5900",
    "address": "40 Sarasota Center Blvd  Sarasota, FL 34240",
    "location": "DeSoto"
  },
  {
    "dataYpid": "458888669",
    "name": "Summer Golf Marketing",
    "description": "Marketing Programs & Services",
    "phone": "(941) 923-2232",
    "address": "7131 Curtiss Ave Ste 2  Sarasota, FL 34231",
    "location": "DeSoto"
  },
  {
    "dataYpid": "29473515",
    "name": "P & H Marketing",
    "description": "Marketing Programs & Services",
    "phone": "(941) 923-5259",
    "address": "7411 Biltmore Dr  Sarasota, FL 34231",
    "location": "DeSoto"
  },
  {
    "dataYpid": "551570267",
    "name": "Arp Diverse Marketing Consulting",
    "description": "Marketing Programs & Services",
    "phone": "(561) 420-9063",
    "address": "1728 Pinyon Pine Dr  Sarasota, FL 34240",
    "location": "DeSoto"
  },
  {
    "dataYpid": "29180126",
    "name": "Est of Global Tel Marketing",
    "description": "Marketing Programs & Services",
    "phone": "(941) 776-9912",
    "address": "4659 Oak Hollow Dr  Sarasota, FL 34241",
    "location": "DeSoto"
  },
  {
    "dataYpid": "569810085",
    "name": "A B Marketing",
    "description": "Marketing Programs & Services",
    "phone": "(563) 209-3739",
    "address": "4841 Sweetshade Dr  Sarasota, FL 34241",
    "location": "DeSoto"
  },
  {
    "dataYpid": "550117522",
    "name": "Entech North",
    "description": "Marketing Programs & Services",
    "phone": "(866) 800-0026",
    "address": "615 67th Street Cir E  Bradenton, FL 34208",
    "location": "DeSoto"
  },
  {
    "dataYpid": "574939920",
    "name": "TruReach Marketing",
    "description": "Marketing Programs & Services",
    "phone": "(888) 315-4769",
    "address": "7322 Manatee Ave W  Bradenton, FL 34209",
    "location": "DeSoto"
  },
  {
    "dataYpid": "510682454",
    "name": "American Marine",
    "description": "Marketing Programs & Services",
    "phone": "(941) 356-4522",
    "address": "7322 Manatee Ave W  Bradenton, FL 34209",
    "location": "DeSoto"
  },
  {
    "dataYpid": "565125303",
    "name": "Real Authority",
    "description": "Marketing Programs & Services",
    "phone": "(941) 870-2778",
    "address": "1133 Riverscape St  Bradenton, FL 34208",
    "location": "DeSoto"
  },
  {
    "dataYpid": "566286830",
    "name": "Vantrum",
    "description": "Marketing Programs & Services",
    "phone": "(941) 200-3737",
    "address": "8720 Port Harbour Pkwy  Bradenton, FL 34212",
    "location": "DeSoto"
  },
  {
    "dataYpid": "559248608",
    "name": "JRR Marketing Brokers",
    "description": "Marketing Programs & Services",
    "phone": "(941) 779-8149",
    "address": "1930 24th Ave W  Palmetto, FL 34221",
    "location": "DeSoto"
  },
  {
    "dataYpid": "500751995",
    "name": "Goodinfo.com",
    "description": "Marketing Programs & Services",
    "phone": "(855) 508-4663",
    "address": "8586 Potter Park Dr  Sarasota, FL 34238",
    "location": "DeSoto"
  },
  {
    "dataYpid": "497501440",
    "name": "T B C Marketing",
    "description": "Marketing Programs & Services",
    "phone": "(941) 966-6283",
    "address": "3621 N Point Rd  Osprey, FL 34229",
    "location": "DeSoto"
  },
  {
    "dataYpid": "567122935",
    "name": "Home Care Marketing Pros",
    "description": "Marketing Programs & Services",
    "phone": "(888) 861-2337",
    "address": "230 Sapphire Lake Dr Unit 201  Bradenton, FL 34209",
    "location": "DeSoto"
  },
  {
    "dataYpid": "554020085",
    "name": "Foundation Marketing Group Inc",
    "description": "Marketing Programs & Services",
    "phone": "(727) 372-4670",
    "address": "8955 Us Highway 301 N  Parrish, FL 34219",
    "location": "DeSoto"
  },
  {
    "dataYpid": "538675449",
    "name": "Wayne Marketing",
    "description": "Marketing Programs & Services",
    "phone": "(941) 702-2126",
    "address": "1962 Main St  Sarasota, FL 34236",
    "location": "DeSoto"
  },
  {
    "dataYpid": "503438212",
    "name": "Mp Usa",
    "description": "Marketing Programs & Services",
    "phone": "(941) 727-7700",
    "address": "2319 72nd Ave E  Sarasota, FL 34243",
    "location": "DeSoto"
  },
  {
    "dataYpid": "9378903",
    "name": "Mail-It",
    "description": "Marketing Programs & Services",
    "phone": "(941) 365-6245",
    "address": "1500 N Washington Blvd  Sarasota, FL 34236",
    "location": "DeSoto"
  },
  {
    "dataYpid": "517432014",
    "name": "Minuteman Press",
    "description": "Marketing Programs & Services",
    "phone": "(941) 955-5070",
    "address": "1746 10th Way  Sarasota, FL 34236",
    "location": "DeSoto"
  },
  {
    "dataYpid": "549789235",
    "name": "Puree Fantastico",
    "description": "Marketing Programs & Services",
    "phone": "(213) 925-1400",
    "address": "700 Cocoanut Ave Unit 420  Sarasota, FL 34236",
    "location": "DeSoto"
  },
  {
    "dataYpid": "483614051",
    "name": "Wilde Productions",
    "description": "Marketing Programs & Services",
    "phone": "(941) 316-9888",
    "address": "461 N Orange Ave  Sarasota, FL 34236",
    "location": "DeSoto"
  },
  {
    "dataYpid": "571064761",
    "name": "NetReputation",
    "description": "Marketing Programs & Services",
    "phone": "(941) 229-3696",
    "address": "1100 N Tuttle Ave  Sarasota, FL 34237",
    "location": "DeSoto"
  },
  {
    "dataYpid": "570422022",
    "name": "Spredx",
    "description": "Marketing Programs & Services",
    "phone": "(941) 227-4857",
    "address": "1343 Main St Ste 312  Sarasota, FL 34236",
    "location": "DeSoto"
  },
  {
    "dataYpid": "12196929",
    "name": "Kwik Kopy",
    "description": "Marketing Programs & Services",
    "phone": "(941) 365-2711",
    "address": "1900 Main St  Sarasota, FL 34236",
    "location": "DeSoto"
  },
  {
    "dataYpid": "552179284",
    "name": "Ad Nerds Media",
    "description": "Marketing Programs & Services",
    "phone": "(941) 244-5015",
    "address": "1990 Main St  Sarasota, FL 34236",
    "location": "DeSoto"
  },
  {
    "dataYpid": "571805222",
    "name": "Cheetah Agency",
    "description": "Marketing Programs & Services",
    "phone": "(941) 662-4242",
    "address": "1990 Main St  Sarasota, FL 34236",
    "location": "DeSoto"
  },
  {
    "dataYpid": "1227779",
    "name": "Genesis Marketing",
    "description": "Marketing Programs & Services",
    "phone": "(941) 953-2400",
    "address": "727 S Orange Ave  Sarasota, FL 34236",
    "location": "DeSoto"
  },
  {
    "dataYpid": "481312988",
    "name": "Purple Gazelle",
    "description": "Marketing Programs & Services",
    "phone": "(941) 840-0755",
    "address": "6212 29th St E  Bradenton, FL 34203",
    "location": "DeSoto"
  },
  {
    "dataYpid": "480726027",
    "name": "Knight Marketing",
    "description": "Marketing Programs & Services",
    "phone": "(941) 361-3070",
    "address": "2032 Hawthorne St  Sarasota, FL 34239",
    "location": "DeSoto"
  },
  {
    "dataYpid": "521935913",
    "name": "Lakewood Ranch Living Magazine",
    "description": "Marketing Programs & Services",
    "phone": "(941) 545-9772",
    "address": "938 Cronley Pl  Sarasota, FL 34237",
    "location": "DeSoto"
  },
  {
    "dataYpid": "472736133",
    "name": "1 Up Rankings LLC",
    "description": "Marketing Programs & Services",
    "phone": "(941) 227-4850",
    "address": "3341 Gerhardt St  Sarasota, FL 34237",
    "location": "DeSoto"
  },
  {
    "dataYpid": "481506258",
    "name": "Modernized Marketing Methods",
    "description": "Marketing Programs & Services",
    "phone": "(888) 405-8701",
    "address": "Bee Ridge Road  Sarasota, FL 34233",
    "location": "DeSoto"
  },
  {
    "dataYpid": "495379265",
    "name": "NutsITLab, L.L.C.",
    "description": "Marketing Programs & Services",
    "phone": "(941) 524-4401",
    "address": "6150 State Road 70 E  Bradenton, FL 34203",
    "location": "DeSoto"
  },
  {
    "dataYpid": "505193444",
    "name": "Siesta Digital",
    "description": "Marketing Programs & Services",
    "phone": "(941) 999-3200",
    "address": "4101 Lake Bayshore Dr  Bradenton, FL 34205",
    "location": "DeSoto"
  },
  {
    "dataYpid": "551498040",
    "name": "Klosable",
    "description": "Marketing Programs & Services",
    "phone": "(941) 247-0100",
    "address": "2201 Cantu Ct Ste 118  Sarasota, FL 34232",
    "location": "DeSoto"
  },
  {
    "dataYpid": "576574421",
    "name": "Brown Pine Cone",
    "description": "Marketing Programs & Services",
    "phone": "(941) 999-1399",
    "address": "6321 Porter Rd Ste 4  Sarasota, FL 34240",
    "location": "DeSoto"
  },
  {
    "dataYpid": "547680274",
    "name": "Innovati Agent Service",
    "description": "Marketing Programs & Services",
    "phone": "(941) 921-5027",
    "address": "6508 Superior Ave  Sarasota, FL 34231",
    "location": "DeSoto"
  },
  {
    "dataYpid": "503953172",
    "name": "Sky Walker Marketing",
    "description": "Marketing Programs & Services",
    "phone": "(941) 822-3286",
    "address": "4163 Clark Rd  Sarasota, FL 34233",
    "location": "DeSoto"
  },
  {
    "dataYpid": "537488099",
    "name": "Main Street Search Marketing",
    "description": "Marketing Programs & Services",
    "phone": "(844) 326-4080",
    "address": "8130 Lakewood Main St, #321  Lakewood Ranch, FL 34202",
    "location": "DeSoto"
  },
  {
    "dataYpid": "466481780",
    "name": "Cactus Sky Digital",
    "description": "Marketing Programs & Services",
    "phone": "(941) 756-1932",
    "address": "5454 Lena Rd Unit 104  Bradenton, FL 34211",
    "location": "DeSoto"
  },
  {
    "dataYpid": "531728481",
    "name": "Deckard & Company",
    "description": "Marketing Programs & Services",
    "phone": "(941) 462-4546",
    "address": "1201 6th Ave W Ste 100  Bradenton, FL 34205",
    "location": "DeSoto"
  },
  {
    "dataYpid": "572984581",
    "name": "Net Sphere",
    "description": "Marketing Programs & Services",
    "phone": "(941) 300-0531",
    "address": "1201 6th Ave W  Bradenton, FL 34205",
    "location": "DeSoto"
  },
  {
    "dataYpid": "3083245",
    "name": "Confluent Creative",
    "description": "Marketing Programs & Services",
    "phone": "(941) 722-0317",
    "address": "717 Manatee Ave W Ste 100  Bradenton, FL 34205",
    "location": "DeSoto"
  },
  {
    "dataYpid": "556752400",
    "name": "99 Calls",
    "description": "Marketing Programs & Services",
    "phone": "(800) 717-4669",
    "address": "10930 State Road 70 E  Lakewood Ranch, FL 34202",
    "location": "DeSoto"
  },
  {
    "dataYpid": "536592523",
    "name": "Digisphere Marketing Inc",
    "description": "Marketing Programs & Services",
    "phone": "(941) 342-0025",
    "address": "7273 Bee Ridge Rd  Sarasota, FL 34241",
    "location": "DeSoto"
  },
  {
    "dataYpid": "545681915",
    "name": "Fpra",
    "description": "Marketing Programs & Services",
    "phone": "(941) 365-2135",
    "address": "40 Sarasota Center Blvd  Sarasota, FL 34240",
    "location": "DeSoto"
  },
  {
    "dataYpid": "576098552",
    "name": "Dinko Design LLC",
    "description": "Marketing Programs & Services",
    "phone": "(941) 735-8007",
    "address": "8536 Whispering St  Sarasota, FL 34240",
    "location": "DeSoto"
  },
  {
    "dataYpid": "535373599",
    "name": "Wedding/Bachelorette Customized Party Goods",
    "description": "Marketing Programs & Services",
    "phone": "(941) 877-0205",
    "address": "12715 Nightshade Place  Bradenton, FL 34202",
    "location": "DeSoto"
  },
  {
    "dataYpid": "476163556",
    "name": "AMI Creative Studio",
    "description": "Marketing Programs & Services",
    "phone": "(941) 773-9665",
    "address": "3101 Avenue F  Holmes Beach, FL 34217",
    "location": "DeSoto"
  },
  {
    "dataYpid": "482313059",
    "name": "Boldindesign",
    "description": "Marketing Programs & Services",
    "phone": "(941) 780-5385",
    "address": "12806 24th Street Cir E  Parrish, FL 34219",
    "location": "DeSoto"
  },
  {
    "dataYpid": "550454541",
    "name": "Relativity SEO",
    "description": "Marketing Programs & Services",
    "phone": "(941) 251-5267",
    "address": "517 72nd St  Holmes Beach, FL 34217",
    "location": "DeSoto"
  },
  {
    "dataYpid": "522100787",
    "name": "Accubase Inc.",
    "description": "Marketing Programs & Services",
    "phone": "(312) 685-2777",
    "address": "2178 Calusa Lakes Blvd  Nokomis, FL 34275",
    "location": "DeSoto"
  },
  {
    "dataYpid": "504489930",
    "name": "Harvest Marketing Rainbow",
    "description": "Marketing Consultants",
    "phone": "(941) 960-1944",
    "address": "934 Sunridge Dr  Sarasota, FL 34234",
    "location": "DeSoto"
  },
  {
    "dataYpid": "20738532",
    "name": "Honeywell International",
    "description": "Market Research & Analysis",
    "phone": "(514) 581-3954",
    "address": "8323 Lindbergh Ct  Sarasota, FL 34243",
    "location": "DeSoto"
  },
  {
    "dataYpid": "6139548",
    "name": "Design Marketing Group Inc",
    "description": "Graphic Designers",
    "phone": "(941) 377-6709",
    "address": "4391 Independence Ct  Sarasota, FL 34234",
    "location": "DeSoto"
  },
  {
    "dataYpid": "472738248",
    "name": "Moms Creating Finanacial Freedom",
    "description": "Direct Marketing Services",
    "phone": "(813) 308-9552",
    "address": "1850 University Pkwy  Sarasota, FL 34243",
    "location": "DeSoto"
  },
  {
    "dataYpid": "488743040",
    "name": "SignZoo",
    "description": "Advertising Specialties",
    "phone": "(941) 355-5653",
    "address": "4139 N Washington Blvd  Sarasota, FL 34234",
    "location": "DeSoto"
  },
  {
    "dataYpid": "4762484",
    "name": "Events and More By Dee",
    "description": "Marketing Consultants",
    "phone": "(941) 359-0040",
    "address": "1877 Northgate Blvd  Sarasota, FL 34234",
    "location": "DeSoto"
  },
  {
    "dataYpid": "6135590",
    "name": "Nationwide Expos Inc",
    "description": "Trade Shows, Expositions & Fairs",
    "phone": "(941) 359-0030",
    "address": "1877 Northgate Blvd  Sarasota, FL 34234",
    "location": "DeSoto"
  },
  {
    "dataYpid": "542197508",
    "name": "Systematic Business Marketing",
    "description": "Internet Marketing & Advertising",
    "phone": "(941) 222-0880",
    "address": "8051 N Tamiami Trl Ste B5  Sarasota, FL 34243",
    "location": "DeSoto"
  },
  {
    "dataYpid": "480183126",
    "name": "Bizmark Consulting",
    "description": "Business Coaches & Consultants",
    "phone": "(941) 487-8376",
    "address": "2215 Ixora Ave  Sarasota, FL 34234",
    "location": "DeSoto"
  },
  {
    "dataYpid": "528361059",
    "name": "Agentpersonalassistant.com",
    "description": "Internet Marketing & Advertising",
    "phone": "(941) 552-4483",
    "address": "7456 16th St E  Sarasota, FL 34243",
    "location": "DeSoto"
  },
  {
    "dataYpid": "16593582",
    "name": "Orange Circle Media",
    "description": "Internet Marketing & Advertising",
    "phone": "(941) 585-0009",
    "address": "1605 Main St Ste 910  Sarasota, FL 34236",
    "location": "DeSoto"
  },
  {
    "dataYpid": "4960651",
    "name": "Digital Image Business Solutions",
    "description": "Internet Marketing & Advertising",
    "phone": "(941) 757-1880",
    "address": "7216 21st St E  Sarasota, FL 34243",
    "location": "DeSoto"
  },
  {
    "dataYpid": "478398382",
    "name": "AdEmporia.com",
    "description": "Directory & Guide Advertising",
    "phone": "(408) 471-7237",
    "address": "8437 Tuttle Ave # 316  Sarasota, FL 34243",
    "location": "DeSoto"
  },
  {
    "dataYpid": "767894",
    "name": "Total Network Resources",
    "description": "Insurance",
    "phone": "(941) 355-3817",
    "address": "7458 N Tamiami Trl  Sarasota, FL 34243",
    "location": "DeSoto"
  },
  {
    "dataYpid": "465678378",
    "name": "Masters Marketing & Media",
    "description": "Marketing Consultants",
    "phone": "(941) 351-0505",
    "address": "213 Gaines Ave  Sarasota, FL 34243",
    "location": "DeSoto"
  },
  {
    "dataYpid": "522554987",
    "name": "Triple M Media Inc",
    "description": "Marketing Consultants",
    "phone": "(866) 513-4691",
    "address": "1058 N Tamiami Trl  Sarasota, FL 34236",
    "location": "DeSoto"
  },
  {
    "dataYpid": "4570816",
    "name": "Koala Tee Inc",
    "description": "Advertising-Promotional Products",
    "phone": "(941) 954-7700",
    "address": "2160 17th St  Sarasota, FL 34234",
    "location": "DeSoto"
  },
  {
    "dataYpid": "495389846",
    "name": "LM Maker",
    "description": "Marketing Consultants",
    "phone": "(941) 822-8041",
    "address": "310 Whitfield Ave  Sarasota, FL 34243",
    "location": "DeSoto"
  },
  {
    "dataYpid": "4861663",
    "name": "Impact Business Mail & Marketing",
    "description": "Direct Mail Advertising",
    "phone": "(941) 755-2007",
    "address": "6992 Iris Ave  Sarasota, FL 34243",
    "location": "DeSoto"
  },
  {
    "dataYpid": "495857319",
    "name": "eMarketing Connect",
    "description": "Internet Marketing & Advertising",
    "phone": "(941) 228-8002",
    "address": "6076 N Lockwood Ridge Rd  Sarasota, FL 34243",
    "location": "DeSoto"
  },
  {
    "dataYpid": "563124990",
    "name": "Digital 941",
    "description": "Digital Printing & Imaging",
    "phone": "(941) 867-0442",
    "address": "710 N Lemon Ave  Sarasota, FL 34236",
    "location": "DeSoto"
  },
  {
    "dataYpid": "573094882",
    "name": "Incredible Adventures",
    "description": "Marketing Consultants",
    "phone": "(941) 346-2603",
    "address": "8466 Lockwood Ridge Rd  Sarasota, FL 34243",
    "location": "DeSoto"
  },
  {
    "dataYpid": "2842456",
    "name": "Berkana Media",
    "description": "Marketing Consultants",
    "phone": "(941) 366-7774",
    "address": "2195 Princeton St  Sarasota, FL 34237",
    "location": "DeSoto"
  },
  {
    "dataYpid": "18338071",
    "name": "Riddley Research",
    "description": "Market Research & Analysis",
    "phone": "(941) 953-8443",
    "address": "1000 N Washington Blvd  Sarasota, FL 34236",
    "location": "DeSoto"
  },
  {
    "dataYpid": "462416482",
    "name": "Walters Marketing Group Inc",
    "description": "Marketing Consultants",
    "phone": "(941) 957-7866",
    "address": "1000 N Washington Blvd  Sarasota, FL 34236",
    "location": "DeSoto"
  },
  {
    "dataYpid": "3348789",
    "name": "D L & Associates Inc",
    "description": "Advertising-Promotional Products",
    "phone": "(941) 355-8477",
    "address": "2628 17th St  Sarasota, FL 34234",
    "location": "DeSoto"
  },
  {
    "dataYpid": "468992699",
    "name": "Atlarge Inc",
    "description": "Advertising Agencies",
    "phone": "(941) 365-9200",
    "address": "513 Central Ave  Sarasota, FL 34236",
    "location": "DeSoto"
  },
  {
    "dataYpid": "15307475",
    "name": "AE Design Group",
    "description": "Marketing Consultants",
    "phone": "(941) 365-3114",
    "address": "1385 5th St  Sarasota, FL 34236",
    "location": "DeSoto"
  },
  {
    "dataYpid": "12443226",
    "name": "Stockhouse Media Corp",
    "description": "Internet Marketing & Advertising",
    "phone": "(941) 365-5719",
    "address": "1133 4th St  Sarasota, FL 34236",
    "location": "DeSoto"
  },
  {
    "dataYpid": "536565904",
    "name": "Creative SEO and Internet Marketing",
    "description": "Internet Marketing & Advertising",
    "phone": "(800) 322-1100",
    "address": "715 N. Washington Blvd. Suite E  Sarasota, FL 34236",
    "location": "DeSoto"
  },
  {
    "dataYpid": "2276945",
    "name": "Royal Tiara Towels & Robes",
    "description": "Advertising-Promotional Products",
    "phone": "(941) 351-8880",
    "address": "7326 38th Ct E  Sarasota, FL 34243",
    "location": "DeSoto"
  },
  {
    "dataYpid": "545355058",
    "name": "Olqm.net",
    "description": "Internet Marketing & Advertising",
    "phone": "(941) 755-1826",
    "address": "833 Magellan Dr  Sarasota, FL 34243",
    "location": "DeSoto"
  },
  {
    "dataYpid": "574341264",
    "name": "RazorJaw Digital",
    "description": "Marketing Consultants",
    "phone": "(877) 358-4984",
    "address": "677 N Washington Blvd Ste O32  Sarasota, FL 34236",
    "location": "DeSoto"
  },
  {
    "dataYpid": "542890803",
    "name": "800.Com",
    "description": "Internet Marketing & Advertising",
    "phone": "(941) 413-0490",
    "address": "1358 Fruitville Rd  Sarasota, FL 34236",
    "location": "DeSoto"
  },
  {
    "dataYpid": "546034820",
    "name": "Hub Media",
    "description": "Advertising Agencies",
    "phone": "(941) 914-0117",
    "address": "227 Central Ave  Sarasota, FL 34236",
    "location": "DeSoto"
  },
  {
    "dataYpid": "479191835",
    "name": "Carlson Studio Marketing",
    "description": "Marketing Consultants",
    "phone": "(941) 362-3011",
    "address": "1613 Fruitville Rd  Sarasota, FL 34236",
    "location": "DeSoto"
  },
  {
    "dataYpid": "544469885",
    "name": "Infinity Exhibits",
    "description": "Display Designers & Producers",
    "phone": "(941) 371-4172",
    "address": "2226 8th St  Sarasota, FL 34237",
    "location": "DeSoto"
  },
  {
    "dataYpid": "29106328",
    "name": "Mobilecapture.com",
    "description": "Internet Marketing & Advertising",
    "phone": "(941) 365-0274",
    "address": "1507 2nd St  Sarasota, FL 34236",
    "location": "DeSoto"
  },
  {
    "dataYpid": "472284207",
    "name": "Dealers United",
    "description": "Marketing Consultants",
    "phone": "(941) 953-2308",
    "address": "1680 Fruitville Rd Ste 401  Sarasota, FL 34236",
    "location": "DeSoto"
  },
  {
    "dataYpid": "552249193",
    "name": "Sarasota Internet Consulting",
    "description": "Internet Marketing & Advertising",
    "phone": "(941) 877-6080",
    "address": "1680 Fruitville Rd # 500  Sarasota, FL 34236",
    "location": "DeSoto"
  },
  {
    "dataYpid": "563869781",
    "name": "Parkyourlicenseforfree.com",
    "description": "Internet Marketing & Advertising",
    "phone": "(888) 301-6003",
    "address": "1680 Fruitville Rd  Sarasota, FL 34236",
    "location": "DeSoto"
  },
  {
    "dataYpid": "558601778",
    "name": "LeadsForward",
    "description": "Internet Marketing & Advertising",
    "phone": "(860) 331-8331",
    "address": "1680 Fruitville Road #530  Sarasota, FL 34236",
    "location": "DeSoto"
  },
  {
    "dataYpid": "564735094",
    "name": "Revcontent",
    "description": "Marketing Consultants",
    "phone": "(941) 225-6132",
    "address": "1689 2nd St  Sarasota, FL 34236",
    "location": "DeSoto"
  },
  {
    "dataYpid": "466829",
    "name": "Innovative Research of America",
    "description": "Market Research & Analysis",
    "phone": "(941) 365-1406",
    "address": "2 N Tamiami Trl  Sarasota, FL 34236",
    "location": "DeSoto"
  },
  {
    "dataYpid": "472448813",
    "name": "125 Marketing",
    "description": "Marketing Consultants",
    "phone": "(941) 351-8111",
    "address": "7622 Lockwood Ridge Rd  Sarasota, FL 34243",
    "location": "DeSoto"
  },
  {
    "dataYpid": "479257796",
    "name": "Financial Insurance Management Corporation",
    "description": "Insurance",
    "phone": "(941) 365-2391",
    "address": "1440 Main St  Sarasota, FL 34236",
    "location": "DeSoto"
  },
  {
    "dataYpid": "562127085",
    "name": "Web Presence",
    "description": "Internet Marketing & Advertising",
    "phone": "(844) 917-0925",
    "address": "1440 Main St Fl 3  Sarasota, FL 34236",
    "location": "DeSoto"
  },
  {
    "dataYpid": "473220795",
    "name": "4Women.com",
    "description": "Internet Marketing & Advertising",
    "phone": "(941) 361-2408",
    "address": "22 Goodrich Ave  Sarasota, FL 34236",
    "location": "DeSoto"
  },
  {
    "dataYpid": "7729238",
    "name": "Ziegler Capital Markets",
    "description": "Internet Marketing & Advertising",
    "phone": "(941) 955-0769",
    "address": "1341 Main St  Sarasota, FL 34236",
    "location": "DeSoto"
  },
  {
    "dataYpid": "561137717",
    "name": "Link Group",
    "description": "Market Research & Analysis",
    "phone": "(941) 271-4000",
    "address": "1620 Main St  Sarasota, FL 34236",
    "location": "DeSoto"
  },
  {
    "dataYpid": "455324066",
    "name": "MethodFactory - Full-Service Digital Solutions Company",
    "description": "Web Site Design & Services",
    "phone": "(941) 364-8161",
    "address": "240 N Washington Blvd Ste 420  Sarasota, FL 34236",
    "location": "DeSoto"
  },
  {
    "dataYpid": "474314607",
    "name": "Allegra Marketing Print Mail",
    "description": "Direct Mail Advertising",
    "phone": "(941) 951-7599",
    "address": "1693 Main St  Sarasota, FL 34236",
    "location": "DeSoto"
  },
  {
    "dataYpid": "571590201",
    "name": "Broadlume",
    "description": "Internet Marketing & Advertising",
    "phone": "(888) 348-3500",
    "address": "1819 Main St Ste 102  Sarasota, FL 34236",
    "location": "DeSoto"
  },
  {
    "dataYpid": "528623331",
    "name": "Nextiny Marketing",
    "description": "Advertising Agencies",
    "phone": "(941) 870-0623",
    "address": "1819 Main St Ste 235  Sarasota, FL 34236",
    "location": "DeSoto"
  },
  {
    "dataYpid": "541084602",
    "name": "Social Shark",
    "description": "Internet Marketing & Advertising",
    "phone": "(941) 216-6072",
    "address": "1800 Main St, Suite 480  Sarasota, FL 34236",
    "location": "DeSoto"
  },
  {
    "dataYpid": "501685864",
    "name": "Nickel & Nickel Communicatio",
    "description": "Marketing Consultants",
    "phone": "(941) 954-0600",
    "address": "47 S Palm Ave  Sarasota, FL 34236",
    "location": "DeSoto"
  },
  {
    "dataYpid": "15472530",
    "name": "Architecte Miniatura",
    "description": "Architects & Builders Services",
    "phone": "(941) 955-5555",
    "address": "PO Box 1783  Sarasota, FL 34230",
    "location": "DeSoto"
  },
  {
    "dataYpid": "535802434",
    "name": "Suncoast Aerials",
    "description": "Aerial Photographers",
    "phone": "(941) 400-1227",
    "address": "Main Street  Sarasota, FL 34241",
    "location": "DeSoto"
  },
  {
    "dataYpid": "468530674",
    "name": "Ipixels Mediaworks",
    "description": "Internet Marketing & Advertising",
    "phone": "(941) 312-6275",
    "address": "1900 Main St Ste 307  Sarasota, FL 34236",
    "location": "DeSoto"
  },
  {
    "dataYpid": "465672491",
    "name": "Envira Trends Inc",
    "description": "Marketing Consultants",
    "phone": "(941) 365-8835",
    "address": "1900 Main St  Sarasota, FL 34236",
    "location": "DeSoto"
  },
  {
    "dataYpid": "503733128",
    "name": "Janbury Company",
    "description": "Marketing Consultants",
    "phone": "(941) 556-9540",
    "address": "100 Wallace Ave Ste 245  Sarasota, FL 34237",
    "location": "DeSoto"
  },
  {
    "dataYpid": "458344340",
    "name": "Creative Agency Services",
    "description": "Marketing Consultants",
    "phone": "(941) 554-8366",
    "address": "1962 Main St Ste 420  Sarasota, FL 34236",
    "location": "DeSoto"
  },
  {
    "dataYpid": "470773721",
    "name": "Cap Brand Marketing",
    "description": "Marketing Consultants",
    "phone": "(941) 953-9191",
    "address": "1962 Main St  Sarasota, FL 34236",
    "location": "DeSoto"
  },
  {
    "dataYpid": "502302864",
    "name": "Acrobatrix Worldwide",
    "description": "Advertising Agencies",
    "phone": "(941) 953-9155",
    "address": "1962 Main St  Sarasota, FL 34236",
    "location": "DeSoto"
  },
  {
    "dataYpid": "526345211",
    "name": "Bristol Marketing",
    "description": "Marketing Consultants",
    "phone": "(941) 365-1655",
    "address": "1701 Ringling Blvd  Sarasota, FL 34236",
    "location": "DeSoto"
  },
  {
    "dataYpid": "558588963",
    "name": "The Click Depot",
    "description": "Internet Marketing & Advertising",
    "phone": "(941) 306-3055",
    "address": "1990 Main St Ste 772-A  Sarasota, FL 34236",
    "location": "DeSoto"
  },
  {
    "dataYpid": "567007319",
    "name": "MyTownVIP - Website Design | SEO | Analytics",
    "description": "Marketing Consultants",
    "phone": "(941) 777-3577",
    "address": "1990 Main St Ste 750  Sarasota, FL 34236",
    "location": "DeSoto"
  },
  {
    "dataYpid": "456912329",
    "name": "Eric Paul Communications",
    "description": "Computer Online Services",
    "phone": "(941) 400-1044",
    "address": "1990 Main St Ste 750  Sarasota, FL 34236",
    "location": "DeSoto"
  },
  {
    "dataYpid": "470384818",
    "name": "Trent Evans Business Consutling",
    "description": "Internet Marketing & Advertising",
    "phone": "(941) 552-6461",
    "address": "Fruitville Rd  Sarasota, FL 34237",
    "location": "DeSoto"
  },
  {
    "dataYpid": "561064316",
    "name": "Clockitin.com",
    "description": "Internet Marketing & Advertising",
    "phone": "(248) 380-6457",
    "address": "258 Golden Gate Pt  Sarasota, FL 34236",
    "location": "DeSoto"
  },
  {
    "dataYpid": "561702983",
    "name": "Vivid Studios",
    "description": "Web Site Design & Services",
    "phone": "(941) 896-5219",
    "address": "2524 Trailmate Dr  Sarasota, FL 34243",
    "location": "DeSoto"
  },
  {
    "dataYpid": "521549479",
    "name": "Construction Marketing Inc.",
    "description": "Marketing Consultants",
    "phone": "(941) 312-7801",
    "address": "2526 Trailmate Dr  Sarasota, FL 34243",
    "location": "DeSoto"
  },
  {
    "dataYpid": "480626717",
    "name": "Odato Marketing Group, Inc.",
    "description": "Internet Marketing & Advertising",
    "phone": "(941) 954-0345",
    "address": "330 S Pineapple Ave Ste 203  Sarasota, FL 34236",
    "location": "DeSoto"
  },
  {
    "dataYpid": "465681417",
    "name": "Journey Web Development",
    "description": "Internet Consultants",
    "phone": "(941) 364-3888",
    "address": "2170 Main St Ste 303  Sarasota, FL 34237",
    "location": "DeSoto"
  },
  {
    "dataYpid": "16664466",
    "name": "The Templeton Foundation",
    "description": "Market Research & Analysis",
    "phone": "(941) 365-8603",
    "address": "2185 Ringling Blvd  Sarasota, FL 34237",
    "location": "DeSoto"
  },
  {
    "dataYpid": "517425167",
    "name": "Eashland.net",
    "description": "Internet Marketing & Advertising",
    "phone": "(941) 955-9405",
    "address": "640 S Washington Blvd  Sarasota, FL 34236",
    "location": "DeSoto"
  },
  {
    "dataYpid": "503786258",
    "name": "Jz Marketing Solutions",
    "description": "Marketing Consultants",
    "phone": "(941) 321-5744",
    "address": "741 Orange Ave  Sarasota, FL 34236",
    "location": "DeSoto"
  },
  {
    "dataYpid": "560969032",
    "name": "Adaptive Creations Group",
    "description": "Marketing Consultants",
    "phone": "(941) 870-4722",
    "address": "5004 Delmonte Ave  Sarasota, FL 34235",
    "location": "DeSoto"
  },
  {
    "dataYpid": "468992999",
    "name": "KGC Inc",
    "description": "Marketing Consultants",
    "phone": "(941) 951-1111",
    "address": "202 N Rhodes Ave Ste 104  Sarasota, FL 34237",
    "location": "DeSoto"
  },
  {
    "dataYpid": "561053002",
    "name": "Divine Social",
    "description": "Marketing Consultants",
    "phone": "(773) 230-0001",
    "address": "4422 67th Avenue Cir E  Sarasota, FL 34243",
    "location": "DeSoto"
  },
  {
    "dataYpid": "5812974",
    "name": "Bioresonance Research",
    "description": "Market Research & Analysis",
    "phone": "(941) 316-9551",
    "address": "2831 Ringling Blvd  Sarasota, FL 34237",
    "location": "DeSoto"
  },
  {
    "dataYpid": "475559139",
    "name": "EASMITH VENTURES",
    "description": "Internet Marketing & Advertising",
    "phone": "(941) 351-3484",
    "address": "8039 Desoto Woods Dr  Sarasota, FL 34243",
    "location": "DeSoto"
  },
  {
    "dataYpid": "575818481",
    "name": "Realtor Systems",
    "description": "Marketing Consultants",
    "phone": "(833) 260-0930",
    "address": "935 N Beneva Rd, Ste 609-1170  Sarasota, FL 34232",
    "location": "DeSoto"
  },
  {
    "dataYpid": "12995097",
    "name": "LuLu Wow",
    "description": "Internet Marketing & Advertising",
    "phone": "(941) 312-4564",
    "address": "2957 Michigan St  Sarasota, FL 34237",
    "location": "DeSoto"
  },
  {
    "dataYpid": "480762281",
    "name": "Sarasota Manatee Originals",
    "description": "Marketing Consultants",
    "phone": "(941) 365-2800",
    "address": "1215 S Tamiami Trl  Sarasota, FL 34239",
    "location": "DeSoto"
  },
  {
    "dataYpid": "531395413",
    "name": "Fuddybuddy.com",
    "description": "Internet Marketing & Advertising",
    "phone": "(941) 906-8077",
    "address": "501 N Beneva Rd  Sarasota, FL 34232",
    "location": "DeSoto"
  },
  {
    "dataYpid": "14587864",
    "name": "Ernst Van Praag",
    "description": "Marketing Consultants",
    "phone": "(941) 364-8100",
    "address": "1610 S Orange Ave  Sarasota, FL 34239",
    "location": "DeSoto"
  },
  {
    "dataYpid": "469581963",
    "name": "Stay On Top Web Design & Internet Marketing Sarasota",
    "description": "Internet Marketing & Advertising",
    "phone": "(941) 400-7897",
    "address": "415 W Cornelius Cir  Sarasota, FL 34232",
    "location": "DeSoto"
  },
  {
    "dataYpid": "556794157",
    "name": "Frankly",
    "description": "Internet Marketing & Advertising",
    "phone": "(732) 682-6164",
    "address": "Address On File With Bbb  Sarasota, FL 34235",
    "location": "DeSoto"
  },
  {
    "dataYpid": "560824383",
    "name": "CustomerClicks Company of Sarasota, Digital Marketing, Website Design",
    "description": "Marketing Consultants",
    "phone": "(941) 500-4282",
    "address": "1501 S Shade Ave  Sarasota, FL 34239",
    "location": "DeSoto"
  },
  {
    "dataYpid": "472925501",
    "name": "L & S Partners",
    "description": "Product Design, Development & Marketing",
    "phone": "(941) 554-8016",
    "address": "1924 S Osprey Ave  Sarasota, FL 34239",
    "location": "DeSoto"
  },
  {
    "dataYpid": "464211444",
    "name": "Xplode Marketing Web Design",
    "description": "Marketing Consultants",
    "phone": "(941) 585-0009",
    "address": "1972 Hillview St  Sarasota, FL 34239",
    "location": "DeSoto"
  },
  {
    "dataYpid": "464524493",
    "name": "Kempton Research & Planning",
    "description": "Market Research & Analysis",
    "phone": "(941) 365-0033",
    "address": "1825 Clematis St  Sarasota, FL 34239",
    "location": "DeSoto"
  },
  {
    "dataYpid": "553181775",
    "name": "Bafmin, LLC",
    "description": "Internet Marketing & Advertising",
    "phone": "(941) 702-4564",
    "address": "2100 S Tamiami Trail Unit 200  Sarasota, FL 34239",
    "location": "DeSoto"
  },
  {
    "dataYpid": "504018021",
    "name": "Blue Strategy & Creative International",
    "description": "Marketing Consultants",
    "phone": "(941) 462-2583",
    "address": "4254 Prairie View Dr N  Sarasota, FL 34232",
    "location": "DeSoto"
  },
  {
    "dataYpid": "8789601",
    "name": "Lifejackets Productions",
    "description": "Advertising Agencies",
    "phone": "(941) 927-6500",
    "address": "3250 Espanola Dr  Sarasota, FL 34239",
    "location": "DeSoto"
  },
  {
    "dataYpid": "508380609",
    "name": "Jesse Marketing Associates",
    "description": "Marketing Consultants",
    "phone": "(614) 792-0202",
    "address": "3137 Southgate Cir  Sarasota, FL 34239",
    "location": "DeSoto"
  },
  {
    "dataYpid": "504942442",
    "name": "EXPi- Experiential Image Search Engine",
    "description": "Internet Marketing & Advertising",
    "phone": "(941) 544-5385",
    "address": "5711 Bentgrass Dr  Sarasota, FL 34235",
    "location": "DeSoto"
  },
  {
    "dataYpid": "472849453",
    "name": "Sarasota Website Design: Aginto Business Solutions",
    "description": "Internet Marketing & Advertising",
    "phone": "(941) 315-8190",
    "address": "3230 Southgate Cir  Sarasota, FL 34239",
    "location": "DeSoto"
  },
  {
    "dataYpid": "475791342",
    "name": "Weblinkworks.com",
    "description": "Internet Marketing & Advertising",
    "phone": "(941) 586-2175",
    "address": "1379 Daryl Dr  Sarasota, FL 34232",
    "location": "DeSoto"
  },
  {
    "dataYpid": "525380449",
    "name": "Pro It Out",
    "description": "Accounting Services",
    "phone": "(941) 323-7754",
    "address": "5507 Cynthia Ln  Sarasota, FL 34235",
    "location": "DeSoto"
  },
  {
    "dataYpid": "540151586",
    "name": "Xplode Marketing",
    "description": "Marketing Consultants",
    "phone": "(941) 585-0009",
    "address": "4063 S Tamiami Trl  Sarasota, FL 34231",
    "location": "DeSoto"
  },
  {
    "dataYpid": "506005389",
    "name": "Scott Moody Digital Marketing",
    "description": "Internet Marketing & Advertising",
    "phone": "(941) 444-5999",
    "address": "2525 Robinson Ave  Sarasota, FL 34232",
    "location": "DeSoto"
  },
  {
    "dataYpid": "542514101",
    "name": "T-N-T Tops-N-Tees",
    "description": "Advertising-Promotional Products",
    "phone": "(941) 914-5096",
    "address": "2636 Bee Ridge Rd  Sarasota, FL 34239",
    "location": "DeSoto"
  },
  {
    "dataYpid": "475634018",
    "name": "Radstack Media",
    "description": "Internet Marketing & Advertising",
    "phone": "(941) 487-0133",
    "address": "3370 Spring Mill Cir  Sarasota, FL 34239",
    "location": "DeSoto"
  },
  {
    "dataYpid": "526443625",
    "name": "Stark Enterprises",
    "description": "Advertising-Promotional Products",
    "phone": "(941) 960-2868",
    "address": "4785 Maid Marian Ln  Sarasota, FL 34232",
    "location": "DeSoto"
  },
  {
    "dataYpid": "18893821",
    "name": "Innovative Agent Service",
    "description": "Internet Marketing & Advertising",
    "phone": "(941) 921-5027",
    "address": "2945 Bee Ridge Rd  Sarasota, FL 34239",
    "location": "DeSoto"
  },
  {
    "dataYpid": "15700359",
    "name": "AVNetmedia",
    "description": "Marketing Consultants",
    "phone": "(941) 706-1555",
    "address": "Po Box 51226  Sarasota, FL 34232",
    "location": "DeSoto"
  },
  {
    "dataYpid": "537065149",
    "name": "1SRQ",
    "description": "Business Coaches & Consultants",
    "phone": "(941) 549-5757",
    "address": "5168 Camus Way  Sarasota, FL 34232",
    "location": "DeSoto"
  },
  {
    "dataYpid": "456882694",
    "name": "Muzic Technologies LLC",
    "description": "Internet Marketing & Advertising",
    "phone": "(941) 921-0055",
    "address": "3235 Beneva Rd Unit 104  Sarasota, FL 34232",
    "location": "DeSoto"
  },
  {
    "dataYpid": "3977667",
    "name": "Market Insight",
    "description": "Market Research & Analysis",
    "phone": "(941) 924-5414",
    "address": "4370 S Tamiami Trl  Sarasota, FL 34231",
    "location": "DeSoto"
  },
  {
    "dataYpid": "472919938",
    "name": "E Marketing",
    "description": "Marketing Consultants",
    "phone": "(941) 822-0686",
    "address": "4370 S Tamiami Trl  Sarasota, FL 34231",
    "location": "DeSoto"
  },
  {
    "dataYpid": "7257223",
    "name": "Westat",
    "description": "Market Research & Analysis",
    "phone": "(941) 926-2922",
    "address": "3400 Bee Ridge Rd  Sarasota, FL 34239",
    "location": "DeSoto"
  },
  {
    "dataYpid": "29151688",
    "name": "Institute For International Research",
    "description": "Market Research & Analysis",
    "phone": "(941) 365-4471",
    "address": "101 Arthur Andersen Pkwy  Sarasota, FL 34232",
    "location": "DeSoto"
  },
  {
    "dataYpid": "510723905",
    "name": "Corporate Calm",
    "description": "Marketing Consultants",
    "phone": "(941) 383-6500",
    "address": "2410 Harbourside Dr Apt 131  Longboat Key, FL 34228",
    "location": "DeSoto"
  },
  {
    "dataYpid": "468508663",
    "name": "The Legal Marketing Guy",
    "description": "Internet Marketing & Advertising",
    "phone": "(866) 429-2799",
    "address": "5412 4th Street Ct E  Bradenton, FL 34203",
    "location": "DeSoto"
  },
  {
    "dataYpid": "545415159",
    "name": "Blue Box Interactive",
    "description": "Internet Marketing & Advertising",
    "phone": "(858) 790-8112",
    "address": "3903 Avenida Madera  Bradenton, FL 34210",
    "location": "DeSoto"
  },
  {
    "dataYpid": "459286479",
    "name": "Getaway Marketing Inc",
    "description": "Marketing Consultants",
    "phone": "(941) 755-3430",
    "address": "4933 17th St E  Bradenton, FL 34203",
    "location": "DeSoto"
  },
  {
    "dataYpid": "464190933",
    "name": "MSA Marketing, Inc.",
    "description": "Marketing Consultants",
    "phone": "(941) 753-0031",
    "address": "4916 26th St W  Bradenton, FL 34207",
    "location": "DeSoto"
  },
  {
    "dataYpid": "516966331",
    "name": "Images by Silhouette, LLC",
    "description": "Internet Marketing & Advertising",
    "phone": "(727) 201-1770",
    "address": "3810 5th St E  Bradenton, FL 34208",
    "location": "DeSoto"
  },
  {
    "dataYpid": "528252212",
    "name": "Grateful Brands",
    "description": "Business Coaches & Consultants",
    "phone": "(941) 962-3459",
    "address": "4008 34th St E  Bradenton, FL 34208",
    "location": "DeSoto"
  },
  {
    "dataYpid": "10251814",
    "name": "Elias Promotional Marketing",
    "description": "Marketing Consultants",
    "phone": "(941) 723-1161",
    "address": "6150 State Road 70 E  Bradenton, FL 34203",
    "location": "DeSoto"
  },
  {
    "dataYpid": "523662487",
    "name": "BRANDAIDS.CO",
    "description": "Web Site Design & Services",
    "phone": "(941) 777-4949",
    "address": "814 Oak Dr  Bradenton, FL 34210",
    "location": "DeSoto"
  },
  {
    "dataYpid": "559149997",
    "name": "Bodyshotspiercings.com",
    "description": "Internet Marketing & Advertising",
    "phone": "(941) 249-7000",
    "address": "4301 32nd St W  Bradenton, FL 34205",
    "location": "DeSoto"
  },
  {
    "dataYpid": "504733474",
    "name": "NF Creative Solutions",
    "description": "Internet Marketing & Advertising",
    "phone": "(941) 780-0702",
    "address": "3409 Cortez Rd W  Bradenton, FL 34210",
    "location": "DeSoto"
  },
  {
    "dataYpid": "1324799",
    "name": "Aker Marketing",
    "description": "Marketing Consultants",
    "phone": "(941) 552-7890",
    "address": "9040 Town Center Pkwy  Lakewood Ranch, FL 34202",
    "location": "DeSoto"
  },
  {
    "dataYpid": "468034098",
    "name": "D Boi Designs",
    "description": "Internet Marketing & Advertising",
    "phone": "(941) 565-0624",
    "address": "2208 19th St W  Bradenton, FL 34205",
    "location": "DeSoto"
  },
  {
    "dataYpid": "29114277",
    "name": "Vision PRM",
    "description": "Advertising Agencies",
    "phone": "(941) 587-9217",
    "address": "2701 Nassau St  Sarasota, FL 34231",
    "location": "DeSoto"
  },
  {
    "dataYpid": "3327114",
    "name": "Strategic Marketing Resources Inc",
    "description": "Marketing Consultants",
    "phone": "(941) 927-1449",
    "address": "1364 Landings Dr  Sarasota, FL 34231",
    "location": "DeSoto"
  },
  {
    "dataYpid": "454922584",
    "name": "Bloom Marketing International Inc",
    "description": "Marketing Consultants",
    "phone": "(941) 923-3170",
    "address": "2828 Proctor Rd  Sarasota, FL 34231",
    "location": "DeSoto"
  },
  {
    "dataYpid": "475254471",
    "name": "Grateful Pilgrim",
    "description": "Marketing Consultants",
    "phone": "(941) 225-3995",
    "address": "4411 Bee Ridge Rd  Sarasota, FL 34233",
    "location": "DeSoto"
  },
  {
    "dataYpid": "571702765",
    "name": "Customer Loyalty Agency",
    "description": "Marketing Consultants",
    "phone": "(941) 323-1402",
    "address": "341 Interstate Blvd  Sarasota, FL 34240",
    "location": "DeSoto"
  },
  {
    "dataYpid": "561407343",
    "name": "Flipswitch Creative",
    "description": "Web Site Design & Services",
    "phone": "(941) 315-5447",
    "address": "5474 Colonial Oaks Blvd  Sarasota, FL 34232",
    "location": "DeSoto"
  },
  {
    "dataYpid": "553978340",
    "name": "First Edition Design Publishing",
    "description": "Marketing Consultants",
    "phone": "(941) 921-2607",
    "address": "2875 Ashton Rd  Sarasota, FL 34276",
    "location": "DeSoto"
  },
  {
    "dataYpid": "475184817",
    "name": "Innovative Agent Services",
    "description": "Internet Marketing & Advertising",
    "phone": "(941) 921-5027",
    "address": "2301 Cattlemen Rd Unit B  Sarasota, FL 34232",
    "location": "DeSoto"
  },
  {
    "dataYpid": "3322693",
    "name": "Southern Catastrophic Management Inc",
    "description": "Market Research & Analysis",
    "phone": "(941) 923-8881",
    "address": "4820 Sawyer Rd  Sarasota, FL 34233",
    "location": "DeSoto"
  },
  {
    "dataYpid": "574578236",
    "name": "Ultrastainless.com",
    "description": "Internet Marketing & Advertising",
    "phone": "(941) 371-3380",
    "address": "1523 Edgar Pl  Sarasota, FL 34240",
    "location": "DeSoto"
  },
  {
    "dataYpid": "2961126",
    "name": "Direct Corporate Solutions, Inc.",
    "description": "Advertising Specialties",
    "phone": "(941) 377-3600",
    "address": "1850 Porter Lake Dr Ste 103  Sarasota, FL 34240",
    "location": "DeSoto"
  },
  {
    "dataYpid": "11071017",
    "name": "B P Sales & Marketing",
    "description": "Marketing Consultants",
    "phone": "(941) 923-3209",
    "address": "4152 Proctor Rd  Sarasota, FL 34233",
    "location": "DeSoto"
  },
  {
    "dataYpid": "523423922",
    "name": "Zephoria, Inc.",
    "description": "Internet Marketing & Advertising",
    "phone": "(585) 230-9565",
    "address": "4322 Reflections Pkwy  Sarasota, FL 34233",
    "location": "DeSoto"
  },
  {
    "dataYpid": "534947073",
    "name": "Web Jarvis",
    "description": "Product Design, Development & Marketing",
    "phone": "(941) 341-0438",
    "address": "1970 Barber Rd  Sarasota, FL 34240",
    "location": "DeSoto"
  },
  {
    "dataYpid": "503084565",
    "name": "Infobankmedia",
    "description": "Internet Consultants",
    "phone": "(941) 313-6614",
    "address": "4040 Longhorn Dr  Sarasota, FL 34233",
    "location": "DeSoto"
  },
  {
    "dataYpid": "473732208",
    "name": "Scarborough Research",
    "description": "Market Research & Analysis",
    "phone": "(941) 379-6500",
    "address": "6000 Cattleridge Dr  Sarasota, FL 34232",
    "location": "DeSoto"
  },
  {
    "dataYpid": "504753352",
    "name": "HD Graffix",
    "description": "Internet Marketing & Advertising",
    "phone": "(941) 780-4719",
    "address": "3013 Clark rd  Sarasota, FL 34231",
    "location": "DeSoto"
  },
  {
    "dataYpid": "456492909",
    "name": "Zpon Inc.",
    "description": "Internet Marketing & Advertising",
    "phone": "(941) 923-1703",
    "address": "2750 Stickney Point Rd  Sarasota, FL 34231",
    "location": "DeSoto"
  },
  {
    "dataYpid": "486224723",
    "name": "Parkinson Research Foundation",
    "description": "Market Research & Analysis",
    "phone": "(941) 870-4438",
    "address": "5969 Cattleridge Blvd Ste 100  Sarasota, FL 34232",
    "location": "DeSoto"
  },
  {
    "dataYpid": "11066096",
    "name": "The R Corp",
    "description": "Marketing Consultants",
    "phone": "(941) 924-2400",
    "address": "2477 Stickney Point Rd  Sarasota, FL 34231",
    "location": "DeSoto"
  },
  {
    "dataYpid": "526130501",
    "name": "Cea Marketing",
    "description": "Marketing Consultants",
    "phone": "(941) 744-6701",
    "address": "2327 Stickney Point Rd  Sarasota, FL 34231",
    "location": "DeSoto"
  },
  {
    "dataYpid": "497313380",
    "name": "Robpaul-Realtor-Srstlvng.com",
    "description": "Internet Marketing & Advertising",
    "phone": "(941) 312-1108",
    "address": "4025 Cattlemen Rd  Sarasota, FL 34233",
    "location": "DeSoto"
  },
  {
    "dataYpid": "455414280",
    "name": "Florida International Group",
    "description": "Marketing Consultants",
    "phone": "(941) 926-9330",
    "address": "5571 Marquesas Cir  Sarasota, FL 34233",
    "location": "DeSoto"
  },
  {
    "dataYpid": "569526507",
    "name": "Fingerprint Marketing",
    "description": "Marketing Consultants",
    "phone": "(425) 283-3943",
    "address": "6343 Hollywood Blvd  Sarasota, FL 34231",
    "location": "DeSoto"
  },
  {
    "dataYpid": "8872678",
    "name": "GravityFree Studios",
    "description": "Web Site Design & Services",
    "phone": "(941) 927-7674",
    "address": "1960 Stickney Point Rd Ste 210  Sarasota, FL 34231",
    "location": "DeSoto"
  },
  {
    "dataYpid": "500341725",
    "name": "Internet Marketing Sarasota",
    "description": "Internet Marketing & Advertising",
    "phone": "(941) 724-8604",
    "address": "2228 Gulf Gate Dr  Sarasota, FL 34231",
    "location": "DeSoto"
  },
  {
    "dataYpid": "466372170",
    "name": "Gulfgate.Biz Sarasota",
    "description": "Marketing Consultants",
    "phone": "(941) 724-8604",
    "address": "2228 Gulf Gate Dr  Sarasota, FL 34231",
    "location": "DeSoto"
  },
  {
    "dataYpid": "505532245",
    "name": "LBS Communications",
    "description": "Editorial & Publication Services",
    "phone": "(941) 351-6281",
    "address": "7309 Dunes Ct  Bradenton, FL 34202",
    "location": "DeSoto"
  },
  {
    "dataYpid": "545338312",
    "name": "Thinking Social, LLC",
    "description": "Internet Marketing & Advertising",
    "phone": "(941) 705-2134",
    "address": "8210 Lakewood Ranch Blvd  Lakewood Ranch, FL 34202",
    "location": "DeSoto"
  },
  {
    "dataYpid": "8712932",
    "name": "Fox Business Group",
    "description": "Marketing Consultants",
    "phone": "(941) 758-2404",
    "address": "6004 93rd Street Cir E  Bradenton, FL 34202",
    "location": "DeSoto"
  },
  {
    "dataYpid": "504955984",
    "name": "Stream",
    "description": "Internet Marketing & Advertising",
    "phone": "(941) 447-9931",
    "address": "2912 Oak Ln  Bradenton, FL 34209",
    "location": "DeSoto"
  },
  {
    "dataYpid": "469039938",
    "name": "Certificationcamps.Com",
    "description": "Internet Marketing & Advertising",
    "phone": "(941) 373-3991",
    "address": "940 Lakewood Ranch Blvd N  Lakewood Ranch, FL 34240",
    "location": "DeSoto"
  },
  {
    "dataYpid": "4068489",
    "name": "Marketing by Design",
    "description": "Marketing Consultants",
    "phone": "(941) 907-6060",
    "address": "6001 Business Blvd  Lakewood Ranch, FL 34240",
    "location": "DeSoto"
  },
  {
    "dataYpid": "14151029",
    "name": "Commercial Insurance",
    "description": "Insurance",
    "phone": "(941) 373-3888",
    "address": "7303 Merchant Ct  Lakewood Ranch, FL 34240",
    "location": "DeSoto"
  },
  {
    "dataYpid": "514996168",
    "name": "Mosiac Studios Inc",
    "description": "Advertising Agencies",
    "phone": "(941) 907-9639",
    "address": "7307 Merchant Ct  Lakewood Ranch, FL 34240",
    "location": "DeSoto"
  },
  {
    "dataYpid": "457254523",
    "name": "Kr Miklos and Company Inc",
    "description": "Marketing Consultants",
    "phone": "(941) 907-6692",
    "address": "5337 Paylor Ln Ste 100  Lakewood Ranch, FL 34240",
    "location": "DeSoto"
  },
  {
    "dataYpid": "497619719",
    "name": "RYP Marketing",
    "description": "Internet Marketing & Advertising",
    "phone": "(941) 757-3075",
    "address": "1201 6th Ave W Ste 500c  Bradenton, FL 34205",
    "location": "DeSoto"
  },
  {
    "dataYpid": "480768950",
    "name": "Griffin Marketing Services",
    "description": "Marketing Consultants",
    "phone": "(941) 312-5350",
    "address": "7357 International Pl Ste 102  Lakewood Ranch, FL 34240",
    "location": "DeSoto"
  },
  {
    "dataYpid": "567798559",
    "name": "Starwheel Websites",
    "description": "Web Site Design & Services",
    "phone": "(941) 557-7090",
    "address": "1201 6th Ave W Ste 100  Bradenton, FL 34205",
    "location": "DeSoto"
  },
  {
    "dataYpid": "475821224",
    "name": "Brand Story Experts",
    "description": "Marketing Consultants",
    "phone": "(941) 747-7777",
    "address": "1911 Manatee Ave E  Bradenton, FL 34208",
    "location": "DeSoto"
  },
  {
    "dataYpid": "3452492",
    "name": "Straight Line Services",
    "description": "Advertising Agencies",
    "phone": "(941) 746-6117",
    "address": "1505 6th Ave W  Bradenton, FL 34205",
    "location": "DeSoto"
  },
  {
    "dataYpid": "499946454",
    "name": "Myteamprints.com",
    "description": "Internet Marketing & Advertising",
    "phone": "(888) 940-9191",
    "address": "2850 Manatee Ave E  Bradenton, FL 34208",
    "location": "DeSoto"
  },
  {
    "dataYpid": "517463495",
    "name": "Certified SEO",
    "description": "Interactive Media",
    "phone": "(941) 201-3294",
    "address": "824 Manatee Ave W  Bradenton, FL 34205",
    "location": "DeSoto"
  },
  {
    "dataYpid": "550709920",
    "name": "Ignition Digital Marketing",
    "description": "Internet Marketing & Advertising",
    "phone": "(941) 500-9498",
    "address": "4507 9th Ave E  Bradenton, FL 34208",
    "location": "DeSoto"
  },
  {
    "dataYpid": "523866012",
    "name": "Growth Marketing",
    "description": "Internet Marketing & Advertising",
    "phone": "(941) 227-7000",
    "address": "1407 Morning Sky Gln  Bradenton, FL 34208",
    "location": "DeSoto"
  },
  {
    "dataYpid": "468775989",
    "name": "KRHMYFLABIZ LLC",
    "description": "Telecommunications Consultants",
    "phone": "(941) 479-6164",
    "address": "2309 Manatee Ave W Apt 1  Bradenton, FL 34205",
    "location": "DeSoto"
  },
  {
    "dataYpid": "481466023",
    "name": "Care2learn.Com",
    "description": "Internet Marketing & Advertising",
    "phone": "(941) 747-5060",
    "address": "3027 Manatee Ave W  Bradenton, FL 34205",
    "location": "DeSoto"
  },
  {
    "dataYpid": "228713",
    "name": "Devard Web Solutions",
    "description": "Internet Marketing & Advertising",
    "phone": "(941) 866-0987",
    "address": "4654 E State Road 64  Bradenton, FL 34208",
    "location": "DeSoto"
  },
  {
    "dataYpid": "506260412",
    "name": "Laura Cooper Marketing Guru",
    "description": "Internet Marketing & Advertising",
    "phone": "(978) 314-0924",
    "address": "5344 Levi Ln  Sarasota, FL 34233",
    "location": "DeSoto"
  },
  {
    "dataYpid": "567040868",
    "name": "B S & Co. LLC",
    "description": "Internet Marketing & Advertising",
    "phone": "(941) 313-3276",
    "address": "4281 Express Ln M9302  Sarasota, FL 34249",
    "location": "DeSoto"
  },
  {
    "dataYpid": "527415069",
    "name": "Beauve.com",
    "description": "Internet Marketing & Advertising",
    "phone": "(941) 538-6941",
    "address": "4283 Express Ln  Sarasota, FL 34249",
    "location": "DeSoto"
  },
  {
    "dataYpid": "528513165",
    "name": "Ezvideobizcards.com",
    "description": "Internet Marketing & Advertising",
    "phone": "(941) 400-8140",
    "address": "6547 Midnight Pass Rd  Sarasota, FL 34242",
    "location": "DeSoto"
  },
  {
    "dataYpid": "560771098",
    "name": "Steffens Media Group",
    "description": "Marketing Consultants",
    "phone": "(941) 413-6738",
    "address": "295 Londonderry Dr  Sarasota, FL 34240",
    "location": "DeSoto"
  },
  {
    "dataYpid": "2307406",
    "name": "JWM Direct Marketing",
    "description": "Market Research & Analysis",
    "phone": "(941) 321-3014",
    "address": "5020 Clark Rd  Sarasota, FL 34233",
    "location": "DeSoto"
  },
  {
    "dataYpid": "475555654",
    "name": "Sarasota Web Solutions LLC",
    "description": "Internet Marketing & Advertising",
    "phone": "(941) 451-8405",
    "address": "5020 Clark Rd # 145  Sarasota, FL 34233",
    "location": "DeSoto"
  },
  {
    "dataYpid": "490986192",
    "name": "Local SEO Me",
    "description": "Internet Marketing & Advertising",
    "phone": "(941) 726-0293",
    "address": "5020 Clark Rd  Sarasota, FL 34233",
    "location": "DeSoto"
  },
  {
    "dataYpid": "543036048",
    "name": "Strauser Marketing",
    "description": "Marketing Consultants",
    "phone": "(770) 402-4792",
    "address": "5472 New Covington Dr  Sarasota, FL 34233",
    "location": "DeSoto"
  },
  {
    "dataYpid": "514711284",
    "name": "Pdf Promotions Inc",
    "description": "Public Relations Counselors",
    "phone": "(941) 447-3126",
    "address": "40 Sarasota Center Blvd Ste 105  Sarasota, FL 34240",
    "location": "DeSoto"
  },
  {
    "dataYpid": "571176118",
    "name": "Modus Direct",
    "description": "Advertising Agencies",
    "phone": "(941) 552-6770",
    "address": "40 Sarasota Center Blvd Ste 104  Sarasota, FL 34240",
    "location": "DeSoto"
  },
  {
    "dataYpid": "551227567",
    "name": "Frank Charmley Marketing and Photography",
    "description": "Marketing Consultants",
    "phone": "(941) 567-8263",
    "address": "6829 Jarvis Rd  Sarasota, FL 34241",
    "location": "DeSoto"
  },
  {
    "dataYpid": "481783352",
    "name": "Intellix Marketing Group",
    "description": "Marketing Consultants",
    "phone": "(941) 216-1569",
    "address": "7350 S Tamiami Trl  Sarasota, FL 34231",
    "location": "DeSoto"
  },
  {
    "dataYpid": "567915010",
    "name": "Localyze Marketing",
    "description": "Marketing Consultants",
    "phone": "(941) 500-4045",
    "address": "5342 Clark Rd  Sarasota, FL 34233",
    "location": "DeSoto"
  },
  {
    "dataYpid": "1442447",
    "name": "Baratti Marketing Group SE",
    "description": "Marketing Consultants",
    "phone": "(941) 924-6400",
    "address": "6576 Palmer Park Cir  Sarasota, FL 34238",
    "location": "DeSoto"
  },
  {
    "dataYpid": "465014987",
    "name": "Deibel Laboratories Inc",
    "description": "Market Research & Analysis",
    "phone": "(941) 925-1579",
    "address": "7165 Curtiss Ave  Sarasota, FL 34231",
    "location": "DeSoto"
  },
  {
    "dataYpid": "495530173",
    "name": "Sarasota Local SEO And Web Designs",
    "description": "Internet Marketing & Advertising",
    "phone": "(941) 564-9736",
    "address": "5401 Palmer Crossing Cir  Sarasota, FL 34233",
    "location": "DeSoto"
  },
  {
    "dataYpid": "464450398",
    "name": "Virtual Support Systems",
    "description": "Internet Marketing & Advertising",
    "phone": "(941) 927-2028",
    "address": "7779 Holiday Dr  Sarasota, FL 34231",
    "location": "DeSoto"
  },
  {
    "dataYpid": "564019050",
    "name": "Rouff Corp",
    "description": "Advertising Specialties",
    "phone": "(877) 885-0133",
    "address": "6356 Mighty Eagle Way  Sarasota, FL 34241",
    "location": "DeSoto"
  },
  {
    "dataYpid": "567156204",
    "name": "PromoProducts",
    "description": "Advertising-Promotional Products",
    "phone": "(941) 909-3337",
    "address": "2971 Bravura Lake Dr  Sarasota, FL 34240",
    "location": "DeSoto"
  },
  {
    "dataYpid": "567846748",
    "name": "My Marketing Case",
    "description": "Internet Marketing & Advertising",
    "phone": "(305) 725-0860",
    "address": "8199 S Tamiami Trl #1029  Sarasota, FL 34231",
    "location": "DeSoto"
  },
  {
    "dataYpid": "532865958",
    "name": "Strategic Marketing Enterprise",
    "description": "Marketing Consultants",
    "phone": "(941) 921-8176",
    "address": "8037 Via Fiore  Sarasota, FL 34238",
    "location": "DeSoto"
  },
  {
    "dataYpid": "13437286",
    "name": "Florida Industrial Networks",
    "description": "Marketing Consultants",
    "phone": "(941) 927-1111",
    "address": "6340 Yellow Wood Pl  Sarasota, FL 34241",
    "location": "DeSoto"
  },
  {
    "dataYpid": "545628358",
    "name": "Sph Marketing",
    "description": "Marketing Consultants",
    "phone": "(941) 966-3636",
    "address": "8302 S Tamiami Trl  Sarasota, FL 34238",
    "location": "DeSoto"
  },
  {
    "dataYpid": "548272234",
    "name": "Think Donson",
    "description": "Internet Marketing & Advertising",
    "phone": "(941) 216-7696",
    "address": "8350 Bee Ridge Rd # 325  Sarasota, FL 34241",
    "location": "DeSoto"
  },
  {
    "dataYpid": "538303483",
    "name": "WebSearchFX",
    "description": "Internet Marketing & Advertising",
    "phone": "(941) 877-0205",
    "address": "12715 Nightshade Pl  Bradenton, FL 34202",
    "location": "DeSoto"
  },
  {
    "dataYpid": "464482493",
    "name": "Murnet Technologies Inc",
    "description": "Internet Marketing & Advertising",
    "phone": "(941) 751-4300",
    "address": "1767 Lakewood Ranch Blvd # 204  Bradenton, FL 34211",
    "location": "DeSoto"
  },
  {
    "dataYpid": "452206702",
    "name": "Ten Digit Publishing",
    "description": "Internet Marketing & Advertising",
    "phone": "(941) 531-9600",
    "address": "1180 8th Ave W Ste 318  Palmetto, FL 34221",
    "location": "DeSoto"
  },
  {
    "dataYpid": "534060011",
    "name": "Sunbay Marketing",
    "description": "Marketing Consultants",
    "phone": "(941) 448-0116",
    "address": "13343 Swallowtail Dr  Lakewood Ranch, FL 34202",
    "location": "DeSoto"
  },
  {
    "dataYpid": "515532276",
    "name": "Redletterbaskets.com",
    "description": "Internet Marketing & Advertising",
    "phone": "(941) 224-0108",
    "address": "7812 Portosueno Ave  Bradenton, FL 34209",
    "location": "DeSoto"
  },
  {
    "dataYpid": "19559851",
    "name": "ProspectsPLUS!",
    "description": "Direct Mail Advertising",
    "phone": "(941) 723-2400",
    "address": "10510 Portal Crossing Ste 107, Lakewood Ranch Commerce Park  Bradenton, FL 34211",
    "location": "DeSoto"
  },
  {
    "dataYpid": "519732519",
    "name": "Jsi Worldwide Inc",
    "description": "Marketing Consultants",
    "phone": "(941) 749-5883",
    "address": "7754 Camden Harbour Dr  Bradenton, FL 34212",
    "location": "DeSoto"
  },
  {
    "dataYpid": "12850655",
    "name": "Bitech Computers",
    "description": "Internet Marketing & Advertising",
    "phone": "(941) 746-8069",
    "address": "1767 Lakewood Ranch Blvd  Bradenton, FL 34211",
    "location": "DeSoto"
  },
  {
    "dataYpid": "526857875",
    "name": "5 For Fighting",
    "description": "Internet Marketing & Advertising",
    "phone": "(941) 744-7599",
    "address": "8205 Haven Harbour Way  Bradenton, FL 34212",
    "location": "DeSoto"
  },
  {
    "dataYpid": "546740384",
    "name": "OPK Solutions",
    "description": "Web Site Design & Services",
    "phone": "(941) 243-0414",
    "address": "10320 Spoonbill Road West  Bradenton, FL 34209",
    "location": "DeSoto"
  },
  {
    "dataYpid": "464611379",
    "name": "Blue Wave Multi Media Advertising",
    "description": "Internet Consultants",
    "phone": "(800) 253-1272",
    "address": "11523 Saw Palm Creek Trl  Bradenton, FL 34211",
    "location": "DeSoto"
  },
  {
    "dataYpid": "464499684",
    "name": "Markets Beyond",
    "description": "Marketing Consultants",
    "phone": "(941) 704-6835",
    "address": "11006 4th Ave E  Bradenton, FL 34212",
    "location": "DeSoto"
  },
  {
    "dataYpid": "520272737",
    "name": "Bitner-Poff & Co",
    "description": "Advertising Specialties",
    "phone": "(941) 924-0337",
    "address": "5352 Eliseo St  Sarasota, FL 34238",
    "location": "DeSoto"
  },
  {
    "dataYpid": "13968375",
    "name": "XL411 Inc.",
    "description": "Internet Directories",
    "phone": "(941) 893-3260",
    "address": "8586 Potter Park Dr  Sarasota, FL 34238",
    "location": "DeSoto"
  },
  {
    "dataYpid": "529582888",
    "name": "Jerry Laesser",
    "description": "Marketing Consultants",
    "phone": "(941) 467-4750",
    "address": "6277 Aventura Dr  Sarasota, FL 34241",
    "location": "DeSoto"
  },
  {
    "dataYpid": "464211132",
    "name": "Pring Research",
    "description": "Market Research & Analysis",
    "phone": "(941) 926-9664",
    "address": "4830 Sweetmeadow Cir  Sarasota, FL 34238",
    "location": "DeSoto"
  },
  {
    "dataYpid": "483330424",
    "name": "Robert L Howard Enterprises",
    "description": "Internet Marketing & Advertising",
    "phone": "(941) 952-3621",
    "address": "8816 Enclave Ct  Sarasota, FL 34238",
    "location": "DeSoto"
  },
  {
    "dataYpid": "528597766",
    "name": "Suncoast Web Marketing",
    "description": "Web Site Design & Services",
    "phone": "(941) 302-2604",
    "address": "15368 Fruitville Rd  Sarasota, FL 34240",
    "location": "DeSoto"
  },
  {
    "dataYpid": "503108758",
    "name": "Zora Creative Web Design",
    "description": "Internet Marketing & Advertising",
    "phone": "(941) 807-7001",
    "address": "10915 Bristol Bay Dr  Bradenton, FL 34209",
    "location": "DeSoto"
  },
  {
    "dataYpid": "560715067",
    "name": "Printavizion",
    "description": "Advertising Agencies",
    "phone": "(813) 803-5200",
    "address": "4524 Marlin Ln  Palmetto, FL 34221",
    "location": "DeSoto"
  },
  {
    "dataYpid": "541083142",
    "name": "Dynamic Marketing Consultants",
    "description": "Marketing Consultants",
    "phone": "(813) 579-9540",
    "address": "4524 Marlin Ln  Palmetto, FL 34221",
    "location": "DeSoto"
  },
  {
    "dataYpid": "14237504",
    "name": "Phil Balducci & Associates",
    "description": "Market Research & Analysis",
    "phone": "(941) 748-5053",
    "address": "918 River Basin Ct  Bradenton, FL 34212",
    "location": "DeSoto"
  },
  {
    "dataYpid": "526051151",
    "name": "Beach Lion Studios",
    "description": "Internet Marketing & Advertising",
    "phone": "(727) 207-1108",
    "address": "Po Box 416  Ellenton, FL 34222",
    "location": "DeSoto"
  },
  {
    "dataYpid": "570740022",
    "name": "FranchiseResales.com",
    "description": "Internet Marketing & Advertising",
    "phone": "(941) 269-2010",
    "address": "2414 Avenue A  Bradenton Beach, FL 34217",
    "location": "DeSoto"
  },
  {
    "dataYpid": "505145866",
    "name": "Kelly Direct Consulting",
    "description": "Medical Practice Consultants",
    "phone": "(813) 500-2256",
    "address": "517 Bayview Dr  Holmes Beach, FL 34217",
    "location": "DeSoto"
  },
  {
    "dataYpid": "29107475",
    "name": "Dock29 Marketing",
    "description": "Internet Marketing & Advertising",
    "phone": "(941) 776-1925",
    "address": "3823 91st Ave E  Parrish, FL 34219",
    "location": "DeSoto"
  },
  {
    "dataYpid": "466659789",
    "name": "Regional Insurance Marketing Inc",
    "description": "Insurance",
    "phone": "(941) 966-9285",
    "address": "603 E Bay St  Osprey, FL 34229",
    "location": "DeSoto"
  },
  {
    "dataYpid": "503600872",
    "name": "Nuestar Mobile Marketing",
    "description": "Advertising Agencies",
    "phone": "(727) 560-9698",
    "address": "5207 72nd St E  Palmetto, FL 34221",
    "location": "DeSoto"
  },
  {
    "dataYpid": "533818271",
    "name": "Sph Marketing Inc",
    "description": "Marketing Consultants",
    "phone": "(941) 918-1819",
    "address": "674 S Tamiami Trl  Osprey, FL 34229",
    "location": "DeSoto"
  },
  {
    "dataYpid": "533444241",
    "name": "Oelker Chelsea",
    "description": "Internet Marketing & Advertising",
    "phone": "(941) 251-5267",
    "address": "517 72nd St  Holmes Beach, FL 34217",
    "location": "DeSoto"
  },
  {
    "dataYpid": "469030429",
    "name": "Create Marketing Group",
    "description": "Marketing Consultants",
    "phone": "(941) 479-4919",
    "address": "1568 Hickory View Cir  Parrish, FL 34219",
    "location": "DeSoto"
  },
  {
    "dataYpid": "564524976",
    "name": "Ad America SEO & Web Design",
    "description": "Internet Marketing & Advertising",
    "phone": "(941) 203-3100",
    "address": "8306 Curlew Ct.  Bradenton, FL 34202",
    "location": "DeSoto"
  },
  {
    "dataYpid": "574310601",
    "name": "Fully Promoted Sarasota, FL",
    "description": "Advertising-Promotional Products",
    "phone": "(941) 966-2339",
    "address": "2504 Tamiami Trl N  Nokomis, FL 34275",
    "location": "DeSoto"
  },
  {
    "dataYpid": "538964315",
    "name": "Jazzy Dogs Publishing",
    "description": "Advertising Agencies",
    "phone": "(941) 726-0344",
    "address": "204 Millet Pl  Nokomis, FL 34275",
    "location": "DeSoto"
  },
  {
    "dataYpid": "474075449",
    "name": "Parrish Marketing and Design",
    "description": "Graphic Designers",
    "phone": "(941) 504-5518",
    "address": "17619 Howling Wolf Run  Parrish, FL 34219",
    "location": "DeSoto"
  }
]