[
  {
    "name": "Creative Printing & Publishing",
    "description": "Marketing Programs & Services",
    "phone": "(407) 302-9147",
    "address": "2300 Old Lake Mary Rd  Sanford, FL 32771",
    "location": "Dixie"
  },
  {
    "name": "Artndisplays",
    "description": "Marketing Programs & Services",
    "phone": "(407) 732-4893",
    "address": "2451 Old Lake Mary Rd  Sanford, FL 32771",
    "location": "Dixie"
  },
  {
    "name": "Ring Marketing Group Inc",
    "description": "Marketing Programs & Services",
    "phone": "(888) 435-3199",
    "address": "1642 W Airport Blvd  Sanford, FL 32773",
    "location": "Dixie"
  },
  {
    "name": "Chingding",
    "description": "Marketing Programs & Services",
    "phone": "(407) 592-9356",
    "address": "414 Editha Cir  Sanford, FL 32771",
    "location": "Dixie"
  },
  {
    "name": "Sealane Marketing",
    "description": "Marketing Programs & Services",
    "phone": "(407) 831-4003",
    "address": "130 Maritime Dr  Sanford, FL 32771",
    "location": "Dixie"
  },
  {
    "name": "Artisan Internet Marketing",
    "description": "Marketing Programs & Services",
    "phone": "(352) 729-1042",
    "address": "110 W 1st St  Sanford, FL 32771",
    "location": "Dixie"
  },
  {
    "name": "L A Marketing Co",
    "description": "Marketing Programs & Services",
    "phone": "(321) 363-4043",
    "address": "203 E 3rd St  Sanford, FL 32771",
    "location": "Dixie"
  },
  {
    "name": "Innovative Apps",
    "description": "Marketing Programs & Services",
    "phone": "(407) 942-3246",
    "address": "305 E 4th St unit 101  Sanford, FL 32771",
    "location": "Dixie"
  },
  {
    "name": "Carma Green Marketing",
    "description": "Marketing Programs & Services",
    "phone": "(407) 732-4194",
    "address": "2913 S Orlando Dr  Sanford, FL 32773",
    "location": "Dixie"
  },
  {
    "name": "Turner Marketing",
    "description": "Marketing Programs & Services",
    "phone": "(407) 708-1060",
    "address": "522 W Lake Mary Blvd  Sanford, FL 32773",
    "location": "Dixie"
  },
  {
    "name": "Showap Media",
    "description": "Marketing Programs & Services",
    "phone": "(407) 416-0784",
    "address": "6202 Wyndham Crest Blvd  Sanford, FL 32773",
    "location": "Dixie"
  },
  {
    "name": "Quantum Solutions Inc",
    "description": "Marketing Programs & Services",
    "phone": "(407) 323-7533",
    "address": "1101 Cornwall Rd  Sanford, FL 32773",
    "location": "Dixie"
  },
  {
    "name": "Progressive Marketing Service",
    "description": "Marketing Programs & Services",
    "phone": "(407) 291-9749",
    "address": "1470 Kastner Pl Ste 100  Sanford, FL 32771",
    "location": "Dixie"
  },
  {
    "name": "XCel Media Group",
    "description": "Marketing Programs & Services",
    "phone": "(866) 712-5990",
    "address": "5739 Byron Anthony Pl  Sanford, FL 32771",
    "location": "Dixie"
  },
  {
    "name": "Pro Elite Marketing & Sales",
    "description": "Marketing Programs & Services",
    "phone": "(407) 324-0675",
    "address": "5341 Fawn Woods Ct  Sanford, FL 32771",
    "location": "Dixie"
  },
  {
    "name": "Montalvo Marketing",
    "description": "Marketing Programs & Services",
    "phone": "(407) 838-3030",
    "address": "1406 Ashdown Ct  Sanford, FL 32771",
    "location": "Dixie"
  },
  {
    "name": "Palm Coast Technologies, LLC",
    "description": "Marketing Programs & Services",
    "phone": "(407) 674-2686",
    "address": "5224 W State Road 46 Ste 230  Sanford, FL 32771",
    "location": "Dixie"
  },
  {
    "name": "A&G Marketing Group by Proforma",
    "description": "Marketing Programs & Services",
    "phone": "(888) 391-5449",
    "address": "142 W Lakeview Ave Ste 1030  Lake Mary, FL 32746",
    "location": "Dixie"
  },
  {
    "name": "Meridian Marketing Group",
    "description": "Marketing Programs & Services",
    "phone": "(407) 444-0320",
    "address": "600 Rinehart Rd  Lake Mary, FL 32746",
    "location": "Dixie"
  },
  {
    "name": "Crank Communications",
    "description": "Marketing Programs & Services",
    "phone": "(407) 830-7312",
    "address": "1135 Townpark Ave Ste 2125  Lake Mary, FL 32746",
    "location": "Dixie"
  },
  {
    "name": "Relationship Marketing Group",
    "description": "Marketing Programs & Services",
    "phone": "(407) 324-9113",
    "address": "575 Lake Bingham Rd  Lake Mary, FL 32746",
    "location": "Dixie"
  },
  {
    "name": "Health Edeals",
    "description": "Marketing Programs & Services",
    "phone": "(407) 499-4069",
    "address": "1000 Primera Blvd  Lake Mary, FL 32746",
    "location": "Dixie"
  },
  {
    "name": "AddSolutions",
    "description": "Marketing Programs & Services",
    "phone": "(407) 562-1705",
    "address": "801 International Pkwy Ste 500  Lake Mary, FL 32746",
    "location": "Dixie"
  },
  {
    "name": "I & J Auto Market Inc",
    "description": "Marketing Programs & Services",
    "phone": "(407) 302-3316",
    "address": "4044 W Lake Mary Blvd  Lake Mary, FL 32746",
    "location": "Dixie"
  },
  {
    "name": "Maria F Sapkovski Marketing",
    "description": "Marketing Programs & Services",
    "phone": "(917) 733-0387",
    "address": "1125 Pointe Cv  Lake Mary, FL 32746",
    "location": "Dixie"
  },
  {
    "name": "Magennis Marketing",
    "description": "Marketing Programs & Services",
    "phone": "(407) 302-2068",
    "address": "470 Whittingham Pl  Lake Mary, FL 32746",
    "location": "Dixie"
  },
  {
    "name": "Maverick Marketing & Pr",
    "description": "Marketing Programs & Services",
    "phone": "(407) 324-8689",
    "address": "725 Silverwood Dr  Lake Mary, FL 32746",
    "location": "Dixie"
  },
  {
    "name": "Dme Studios",
    "description": "Marketing Programs & Services",
    "phone": "(407) 271-3218",
    "address": "1091 Greenwood Blvd  Lake Mary, FL 32746",
    "location": "Dixie"
  },
  {
    "name": "Direct Marketing Resources",
    "description": "Marketing Programs & Services",
    "phone": "(407) 804-2700",
    "address": "550 Technology Park  Lake Mary, FL 32746",
    "location": "Dixie"
  },
  {
    "name": "Nationwide Marketing",
    "description": "Marketing Programs & Services",
    "phone": "(800) 783-5615",
    "address": "52 Spring Vista Dr  Debary, FL 32713",
    "location": "Dixie"
  },
  {
    "name": "Legacy Marketing Group",
    "description": "Marketing Programs & Services",
    "phone": "(386) 668-9613",
    "address": "269 Palmetto Springs St  Debary, FL 32713",
    "location": "Dixie"
  },
  {
    "name": "Direct Market C Oncepts",
    "description": "Marketing Programs & Services",
    "phone": "(386) 259-4793",
    "address": "667 Deltona Blvd Ste 100  Deltona, FL 32725",
    "location": "Dixie"
  },
  {
    "name": "JJC Marketing Solutions",
    "description": "Marketing Programs & Services",
    "phone": "(321) 765-7710",
    "address": "639 Marni Dr  Winter Springs, FL 32708",
    "location": "Dixie"
  },
  {
    "name": "Esp Associates",
    "description": "Marketing Programs & Services",
    "phone": "(407) 796-5013",
    "address": "711 Seneca Meadows Rd  Winter Springs, FL 32708",
    "location": "Dixie"
  },
  {
    "name": "Forte Marketing Inc",
    "description": "Marketing Programs & Services",
    "phone": "(407) 324-4091",
    "address": "8392 Rambling River Dr  Sanford, FL 32771",
    "location": "Dixie"
  },
  {
    "name": "Distrx Inc",
    "description": "Marketing Programs & Services",
    "phone": "(407) 618-1223",
    "address": "2463 River Tree Cir  Sanford, FL 32771",
    "location": "Dixie"
  },
  {
    "name": "Johnson Marketing",
    "description": "Marketing Programs & Services",
    "phone": "(386) 320-0672",
    "address": "301 N Pine Meadow Dr  Debary, FL 32713",
    "location": "Dixie"
  },
  {
    "name": "Gravis Marketing, Inc.",
    "description": "Marketing Programs & Services",
    "phone": "(407) 454-8600",
    "address": "910 Belle Ave Ste 1042  winter springs, FL 32708",
    "location": "Dixie"
  },
  {
    "name": "Yorkshore Sales and Marketing",
    "description": "Marketing Programs & Services",
    "phone": "(321) 207-0157",
    "address": "777 Bennett Dr  Longwood, FL 32750",
    "location": "Dixie"
  },
  {
    "name": "MoneyMagnetEvite",
    "description": "Marketing Programs & Services",
    "phone": "(407) 421-0701",
    "address": "404 Timberglen Ct  Winter Springs, FL 32708",
    "location": "Dixie"
  },
  {
    "name": "Washeen SEO",
    "description": "Marketing Programs & Services",
    "phone": "(407) 446-2602",
    "address": "2441 Casselberry Fl - 32707  Casselberry, FL 32707",
    "location": "Dixie"
  },
  {
    "name": "Mastermind Web Video Marketing",
    "description": "Marketing Programs & Services",
    "phone": "(386) 747-2161",
    "address": "944 Regatta Bay Dr  Orange City, FL 32763",
    "location": "Dixie"
  },
  {
    "name": "Big Shark Marketing",
    "description": "Marketing Programs & Services",
    "phone": "(407) 613-2254",
    "address": "729 Sailfish Rd  Winter Springs, FL 32708",
    "location": "Dixie"
  },
  {
    "name": "Arcane Marketing",
    "description": "Marketing Programs & Services",
    "phone": "(208) 938-5988",
    "address": "240 E Palmetto Ave Ste 100  Longwood, FL 32750",
    "location": "Dixie"
  },
  {
    "name": "Trusun Media Inc",
    "description": "Marketing Programs & Services",
    "phone": "(407) 388-1001",
    "address": "240 E Palmetto Ave Ste 100  Longwood, FL 32750",
    "location": "Dixie"
  },
  {
    "name": "Source 1 Specialty Services",
    "description": "Marketing Programs & Services",
    "phone": "(407) 331-0606",
    "address": "920 Belle Ave Ste 1320  Winter Springs, FL 32708",
    "location": "Dixie"
  },
  {
    "name": "Total Marketing Solutions",
    "description": "Marketing Programs & Services",
    "phone": "(407) 331-2892",
    "address": "692 S Us Highway 17 92  Longwood, FL 32750",
    "location": "Dixie"
  },
  {
    "name": "B2B Dollars",
    "description": "Marketing Programs & Services",
    "phone": "(407) 986-8222",
    "address": "300 N Ronald Reagan Blvd #100  Longwood, FL 32750",
    "location": "Dixie"
  },
  {
    "name": "Meridian Marketing Group Inc",
    "description": "Marketing Programs & Services",
    "phone": "(407) 831-7996",
    "address": "250 S Ronald Reagan Blvd  Longwood, FL 32750",
    "location": "Dixie"
  },
  {
    "name": "Product Review Labs",
    "description": "Marketing Programs & Services",
    "phone": "(352) 559-0001",
    "address": "2578 Enterprise Rd # 104  Orange City, FL 32763",
    "location": "Dixie"
  },
  {
    "name": "Jeg Global Solutions",
    "description": "Marketing Programs & Services",
    "phone": "(386) 259-4671",
    "address": "2495 E Tipton Dr  Deltona, FL 32738",
    "location": "Dixie"
  },
  {
    "name": "985 West Volusia",
    "description": "Marketing Programs & Services",
    "phone": "(386) 775-2469",
    "address": "937 Harley Strickland Blvd  Orange City, FL 32763",
    "location": "Dixie"
  },
  {
    "name": "Hunter Tammy",
    "description": "Marketing Programs & Services",
    "phone": "(407) 331-2815",
    "address": "525 S Ronald Reagan Blvd  Longwood, FL 32750",
    "location": "Dixie"
  },
  {
    "name": "imediaReachÂ®",
    "description": "Marketing Programs & Services",
    "phone": "(855) 825-4114",
    "address": "1511 E State Road 434 Ste 2001  Winter Springs, FL 32708",
    "location": "Dixie"
  },
  {
    "name": "Now Marketing Group Inc",
    "description": "Marketing Programs & Services",
    "phone": "(321) 972-8045",
    "address": "1060 W State Road 434  Longwood, FL 32750",
    "location": "Dixie"
  },
  {
    "name": "Spirit Marketing Corp",
    "description": "Marketing Programs & Services",
    "phone": "(407) 257-5650",
    "address": "1531 Tallapoosa Dr  Geneva, FL 32732",
    "location": "Dixie"
  },
  {
    "name": "OMG | Options Marketing Group, LLC",
    "description": "Marketing Programs & Services",
    "phone": "(321) 251-1920",
    "address": "489 State Road 436 Ste 117  Casselberry, FL 32707",
    "location": "Dixie"
  },
  {
    "name": "Sharks Success Marketing Enterprise",
    "description": "Marketing Programs & Services",
    "phone": "(407) 260-9535",
    "address": "1355 Bennett Dr  Longwood, FL 32750",
    "location": "Dixie"
  },
  {
    "name": "Hung Up Media, Inc.",
    "description": "Marketing Programs & Services",
    "phone": "(407) 984-5633",
    "address": "709 Windwillow Cir  Winter Springs, FL 32708",
    "location": "Dixie"
  },
  {
    "name": "Outsource Initiatives",
    "description": "Marketing Programs & Services",
    "phone": "(407) 279-7373",
    "address": "522 W Fern Dr  Orange City, FL 32763",
    "location": "Dixie"
  },
  {
    "name": "Best Direct Marketing Group",
    "description": "Marketing Programs & Services",
    "phone": "(386) 775-1307",
    "address": "1750 S Volusia Ave Ste 2  Orange City, FL 32763",
    "location": "Dixie"
  },
  {
    "name": "Your Image Marketing",
    "description": "Marketing Programs & Services",
    "phone": "(386) 742-0424",
    "address": "2773 Thornberry Ct  Deltona, FL 32738",
    "location": "Dixie"
  },
  {
    "name": "Exclusive Marketing Concepts",
    "description": "Marketing Programs & Services",
    "phone": "(407) 489-6860",
    "address": "1912 Boothe Cir  Longwood, FL 32750",
    "location": "Dixie"
  },
  {
    "name": "Skyblue Solutions",
    "description": "Marketing Programs & Services",
    "phone": "(407) 628-9221",
    "address": "927 Fern St  Altamonte Springs, FL 32701",
    "location": "Dixie"
  },
  {
    "name": "Unitel Marketin G",
    "description": "Marketing Programs & Services",
    "phone": "(321) 422-0772",
    "address": "927 Fern St  Altamonte Springs, FL 32701",
    "location": "Dixie"
  },
  {
    "name": "Imediareach",
    "description": "Marketing Programs & Services",
    "phone": "(855) 825-4114",
    "address": "2200 Winter Springs Blvd  Oviedo, FL 32765",
    "location": "Dixie"
  },
  {
    "name": "Sunshine Reservations Inc",
    "description": "Marketing Programs & Services",
    "phone": "(407) 831-2084",
    "address": "271 Live Oaks Blvd  Casselberry, FL 32707",
    "location": "Dixie"
  },
  {
    "name": "Branding by Jo",
    "description": "Marketing Programs & Services",
    "phone": "(321) 348-7082",
    "address": "83 Geneva Dr Unit 620805  Oviedo, FL 32762",
    "location": "Dixie"
  },
  {
    "name": "My Oviedo Marketing",
    "description": "Marketing Programs & Services",
    "phone": "(407) 402-1662",
    "address": "50 Smith St  Oviedo, FL 32765",
    "location": "Dixie"
  },
  {
    "name": "Wyche & Associates Inc.",
    "description": "Marketing Programs & Services",
    "phone": "(407) 278-3296",
    "address": "2920 Lowell Ct  Casselberry, FL 32707",
    "location": "Dixie"
  },
  {
    "name": "Protegrity Services Inc",
    "description": "Marketing Programs & Services",
    "phone": "(407) 788-1717",
    "address": "260 Wekiva Springs Rd  Longwood, FL 32779",
    "location": "Dixie"
  },
  {
    "name": "Susan Rades Marketing",
    "description": "Marketing Programs & Services",
    "phone": "(407) 579-4393",
    "address": "1150 Woodchuck Ct  Orange City, FL 32763",
    "location": "Dixie"
  },
  {
    "name": "Orangesquare",
    "description": "Marketing Programs & Services",
    "phone": "(407) 494-4022",
    "address": "815 Orienta Ave  Altamonte Springs, FL 32701",
    "location": "Dixie"
  },
  {
    "name": "JAF Marketing",
    "description": "Marketing Programs & Services",
    "phone": "(407) 774-5555",
    "address": "2460 W State Road 434  Longwood, FL 32779",
    "location": "Dixie"
  },
  {
    "name": "C3 Research",
    "description": "Marketing Programs & Services",
    "phone": "(407) 542-7751",
    "address": "7560 Red Bug Lake Rd  Oviedo, FL 32765",
    "location": "Dixie"
  },
  {
    "name": "Higgins Marketing Group, Inc.",
    "description": "Marketing Programs & Services",
    "phone": "(407) 680-3735",
    "address": "219 Duncan Trl  Longwood, FL 32779",
    "location": "Dixie"
  },
  {
    "name": "Sunologi, Inc.",
    "description": "Marketing Programs & Services",
    "phone": "(877) 709-7873",
    "address": "465 S Orlando Ave Suite 410  Maitland, FL 32751",
    "location": "Dixie"
  },
  {
    "name": "K2J Digital Marketing",
    "description": "Marketing Programs & Services",
    "phone": "(407) 494-1791",
    "address": "478 E Altamonte Dr  Altamonte Springs, FL 32701",
    "location": "Dixie"
  },
  {
    "name": "Cruises-N-More",
    "description": "Marketing Programs & Services",
    "phone": "(407) 771-4454",
    "address": "370 Centerpointe Cir  Altamonte Springs, FL 32701",
    "location": "Dixie"
  },
  {
    "name": "Resource Marketing Solutions",
    "description": "Marketing Programs & Services",
    "phone": "(407) 734-7624",
    "address": "283 Cranes Roost Blvd  Altamonte Springs, FL 32701",
    "location": "Dixie"
  },
  {
    "name": "Jato",
    "description": "Marketing Programs & Services",
    "phone": "(321) 445-1800",
    "address": "518 Douglas Ave Ste 1216  Altamonte Springs, FL 32714",
    "location": "Dixie"
  },
  {
    "name": "TrueBlue Designs",
    "description": "Marketing Programs & Services",
    "phone": "(407) 326-6800",
    "address": "Fox Valley Dr  Longwood, FL 32779",
    "location": "Dixie"
  },
  {
    "name": "Step 2 Vance Marketing Service",
    "description": "Marketing Programs & Services",
    "phone": "(407) 521-7970",
    "address": "155 Cranes Roost Blvd  Altamonte Springs, FL 32701",
    "location": "Dixie"
  },
  {
    "name": "Think Agency Inc",
    "description": "Marketing Programs & Services",
    "phone": "(407) 875-1999",
    "address": "217 N Westmonte Dr Ste 3019  Altamonte Springs, FL 32714",
    "location": "Dixie"
  },
  {
    "name": "E the Center of Marketing",
    "description": "Marketing Programs & Services",
    "phone": "(407) 768-3999",
    "address": "217 N Westmonte Dr  Altamonte Springs, FL 32714",
    "location": "Dixie"
  },
  {
    "name": "Light String Marketing",
    "description": "Marketing Programs & Services",
    "phone": "(844) 478-0436",
    "address": "3740 Hawthorne Ln  Winter Park, FL 32792",
    "location": "Dixie"
  },
  {
    "name": "R Squared",
    "description": "Marketing Programs & Services",
    "phone": "(407) 809-1848",
    "address": "613 Newport Ave  Altamonte Springs, FL 32701",
    "location": "Dixie"
  },
  {
    "name": "Trust Guard",
    "description": "Marketing Programs & Services",
    "phone": "(407) 636-7299",
    "address": "718 Northlake Blvd  Altamonte Springs, FL 32701",
    "location": "Dixie"
  },
  {
    "name": "Digital Space Marketing",
    "description": "Marketing Programs & Services",
    "phone": "(855) 611-0577",
    "address": "240 Lookout Pl  Maitland, FL 32751",
    "location": "Dixie"
  },
  {
    "name": "Liquid Line Designs Inc",
    "description": "Marketing Programs & Services",
    "phone": "(407) 331-5477",
    "address": "450 Plumhollow Ln  Maitland, FL 32751",
    "location": "Dixie"
  },
  {
    "name": "Marketing Solutions USA Inc",
    "description": "Marketing Programs & Services",
    "phone": "(407) 492-7492",
    "address": "804 W State Road 436  Altamonte Springs, FL 32714",
    "location": "Dixie"
  },
  {
    "name": "Costa Communications Group",
    "description": "Marketing Programs & Services",
    "phone": "(407) 657-4818",
    "address": "7719 Fox Knoll Pl  Winter Park, FL 32792",
    "location": "Dixie"
  },
  {
    "name": "CSR Promotions",
    "description": "Marketing Programs & Services",
    "phone": "(954) 817-6055",
    "address": "100 E Sybelia Ave Ste 305  Maitland, FL 32751",
    "location": "Dixie"
  },
  {
    "name": "Six Degrees Marketing Insights & Creative Inc",
    "description": "Marketing Programs & Services",
    "phone": "(407) 644-1596",
    "address": "630 Maitland  Maitland, FL 32751",
    "location": "Dixie"
  },
  {
    "name": "Southwind Marketing Corp",
    "description": "Marketing Programs & Services",
    "phone": "(407) 862-2875",
    "address": "3272 Sunset Valley Ct  Longwood, FL 32779",
    "location": "Dixie"
  },
  {
    "name": "Discovery Marketing-Altamonte",
    "description": "Marketing Programs & Services",
    "phone": "(407) 862-0471",
    "address": "1000 Sunshine Ln  Altamonte Springs, FL 32714",
    "location": "Dixie"
  },
  {
    "name": "Global Marketing",
    "description": "Marketing Programs & Services",
    "phone": "(407) 951-7862",
    "address": "PO Box 2044  Goldenrod, FL 32733",
    "location": "Dixie"
  },
  {
    "name": "SIMMCOR Business Solutions",
    "description": "Marketing Programs & Services",
    "phone": "(321) 961-6561",
    "address": "7501 Citrus Ave Unit 934  Goldenrod, FL 32733",
    "location": "Dixie"
  },
  {
    "name": "Florida Fruit & Vegetable Association",
    "description": "Marketing Programs & Services",
    "phone": "(321) 214-5200",
    "address": "800 Trafalgar Ct  Maitland, FL 32751",
    "location": "Dixie"
  },
  {
    "name": "J P Marketing",
    "description": "Marketing Programs & Services",
    "phone": "(407) 657-7440",
    "address": "7523 Aloma Ave  Winter Park, FL 32792",
    "location": "Dixie"
  },
  {
    "name": "US Marketing Group Inc",
    "description": "Marketing Programs & Services",
    "phone": "(407) 335-4903",
    "address": "7523 Aloma Ave  Winter Park, FL 32792",
    "location": "Dixie"
  },
  {
    "name": "Patterson Bach Communications",
    "description": "Marketing Programs & Services",
    "phone": "(407) 645-1880",
    "address": "2600 Maitland Center Pkwy Ste 360  Maitland, FL 32751",
    "location": "Dixie"
  },
  {
    "name": "PSI Marketing, Inc.",
    "description": "Marketing Programs & Services",
    "phone": "(407) 494-1791",
    "address": "1800 Pembrook Dr  Orlando, FL 32810",
    "location": "Dixie"
  },
  {
    "name": "Promo Point Marketing",
    "description": "Marketing Programs & Services",
    "phone": "(407) 919-1340",
    "address": "1800 Pembrook Dr  Orlando, FL 32810",
    "location": "Dixie"
  },
  {
    "name": "MarketLauncher, Inc.",
    "description": "Marketing Programs & Services",
    "phone": "(800) 901-3803",
    "address": "1800 Pembrook Dr Ste 300  Orlando, FL 32810",
    "location": "Dixie"
  },
  {
    "name": "Central Florida's Best",
    "description": "Marketing Programs & Services",
    "phone": "(407) 678-7700",
    "address": "4146 Forsyth Rd  Winter Park, FL 32792",
    "location": "Dixie"
  },
  {
    "name": "Alan Byrd",
    "description": "Marketing Programs & Services",
    "phone": "(407) 415-8470",
    "address": "2144 Hidden Pine Ln  Apopka, FL 32712",
    "location": "Dixie"
  },
  {
    "name": "Schlesinger Associates",
    "description": "Marketing Programs & Services",
    "phone": "(407) 660-1808",
    "address": "2290 Lucien Way  Maitland, FL 32751",
    "location": "Dixie"
  },
  {
    "name": "Sundrop Mobile",
    "description": "Marketing Programs & Services",
    "phone": "(407) 965-3210",
    "address": "2301 Lucien Way Ste 425  Maitland, FL 32751",
    "location": "Dixie"
  },
  {
    "name": "Insight Marketing",
    "description": "Marketing Programs & Services",
    "phone": "(407) 667-4727",
    "address": "101 Southhall Ln  Maitland, FL 32751",
    "location": "Dixie"
  },
  {
    "name": "Graham Leak Branding",
    "description": "Marketing Programs & Services",
    "phone": "(407) 790-4068",
    "address": "2431 Aloma Ave  Winter Park, FL 32792",
    "location": "Dixie"
  },
  {
    "name": "Mmgy Global",
    "description": "Marketing Programs & Services",
    "phone": "(407) 875-1111",
    "address": "423 S Keller Rd Ste 100  Orlando, FL 32810",
    "location": "Dixie"
  },
  {
    "name": "LMS Internet Corporation",
    "description": "Marketing Programs & Services",
    "phone": "(386) 490-4025",
    "address": "1609 S State Road 15a Ste 6  Deland, FL 32720",
    "location": "Dixie"
  },
  {
    "name": "SCD Marketing Inc",
    "description": "Marketing Programs & Services",
    "phone": "(407) 830-8651",
    "address": "271 Oaks Blvd  Winter Park, FL 32789",
    "location": "Dixie"
  },
  {
    "name": "Water Solutions Marketing",
    "description": "Marketing Programs & Services",
    "phone": "(407) 679-7044",
    "address": "1128 Solana Ave  Winter Park, FL 32789",
    "location": "Dixie"
  },
  {
    "name": "Marketing Zeus",
    "description": "Marketing Programs & Services",
    "phone": "(407) 772-8549",
    "address": "3300 University Blvd  Winter Park, FL 32792",
    "location": "Dixie"
  },
  {
    "name": "Simply Social Inc.",
    "description": "Marketing Programs & Services",
    "phone": "(321) 945-6280",
    "address": "10010 Bear Lake Rd  Apopka, FL 32703",
    "location": "Dixie"
  },
  {
    "name": "Graphic Marketing",
    "description": "Marketing Programs & Services",
    "phone": "(407) 647-8999",
    "address": "941 N Pennsylvania Ave  Winter Park, FL 32789",
    "location": "Dixie"
  },
  {
    "name": "Tws Marketing G Roup Inc",
    "description": "Marketing Programs & Services",
    "phone": "(407) 960-6887",
    "address": "601 N New York Ave  Winter Park, FL 32789",
    "location": "Dixie"
  },
  {
    "name": "COSMarketing Agency",
    "description": "Marketing Programs & Services",
    "phone": "(407) 334-9378",
    "address": "3008 Antique Oaks Cir  Winter Park, FL 32792",
    "location": "Dixie"
  },
  {
    "name": "Ovia Ministry Marketing",
    "description": "Marketing Programs & Services",
    "phone": "(407) 221-0057",
    "address": "1883 Lee Rd  Winter Park, FL 32789",
    "location": "Dixie"
  },
  {
    "name": "Self employed Affiliate",
    "description": "Marketing Programs & Services",
    "phone": "(407) 953-0581",
    "address": "3327 Royal St  Winter Park, FL 32792",
    "location": "Dixie"
  },
  {
    "name": "Celebrity Branding Agency",
    "description": "Marketing Programs & Services",
    "phone": "(800) 980-1626",
    "address": "520 N Orlando Ave #2  Winter Park, FL 32789",
    "location": "Dixie"
  },
  {
    "name": "OMG Marketing",
    "description": "Marketing Programs & Services",
    "phone": "(407) 690-6690",
    "address": "520 N Orlando Ave Ste 205  Winter Park, FL 32789",
    "location": "Dixie"
  },
  {
    "name": "JRP Global Enterprises",
    "description": "Marketing Programs & Services",
    "phone": "(321) 422-0039",
    "address": "1950 Lee Rd  Winter Park, FL 32789",
    "location": "Dixie"
  },
  {
    "name": "Provision Marketing Service",
    "description": "Marketing Programs & Services",
    "phone": "(407) 571-9855",
    "address": "2211 Lee Rd Ste 110  Winter Park, FL 32789",
    "location": "Dixie"
  },
  {
    "name": "Coastal Media Company I",
    "description": "Marketing Programs & Services",
    "phone": "(888) 411-2280",
    "address": "126 S Park Ave Ste C  Winter Park, FL 32789",
    "location": "Dixie"
  },
  {
    "name": "Precision Marketing",
    "description": "Marketing Programs & Services",
    "phone": "(407) 629-6774",
    "address": "174 Comstock  Winter Park, FL 32789",
    "location": "Dixie"
  },
  {
    "name": "Evolve Design Group",
    "description": "Marketing Programs & Services",
    "phone": "(407) 420-1234",
    "address": "444 W New England Ave Ste 114  Winter Park, FL 32789",
    "location": "Dixie"
  },
  {
    "name": "Corporate Relations Group Inc",
    "description": "Marketing Programs & Services",
    "phone": "(407) 628-5700",
    "address": "1085 W Morse Blvd  Winter Park, FL 32789",
    "location": "Dixie"
  },
  {
    "name": "Mitigation Marketing",
    "description": "Marketing Programs & Services",
    "phone": "(407) 481-0677",
    "address": "1091 W Morse Blvd  Winter Park, FL 32789",
    "location": "Dixie"
  },
  {
    "name": "Soul Centre Inc.",
    "description": "Marketing Programs & Services",
    "phone": "(407) 961-6213",
    "address": "119 N Orlando Ave  Winter Park, FL 32789",
    "location": "Dixie"
  },
  {
    "name": "Anson Stoner",
    "description": "Marketing Programs & Services",
    "phone": "(407) 629-9484",
    "address": "111 E Fairbanks Ave  Winter Park, FL 32789",
    "location": "Dixie"
  },
  {
    "name": "DEI Marketing",
    "description": "Marketing Programs & Services",
    "phone": "(407) 776-8996",
    "address": "6173 Linneal Beach Dr  Apopka, FL 32703",
    "location": "Dixie"
  },
  {
    "name": "Integrated Marketing Solutions",
    "description": "Marketing Programs & Services",
    "phone": "(407) 636-7200",
    "address": "641 W Fairbanks Ave Ste 220  Winter Park, FL 32789",
    "location": "Dixie"
  },
  {
    "name": "Marketing Square",
    "description": "Marketing Programs & Services",
    "phone": "(407) 434-9328",
    "address": "999 Aragon Ave  Winter Park, FL 32789",
    "location": "Dixie"
  },
  {
    "name": "Eyenamic Designs",
    "description": "Marketing Programs & Services",
    "phone": "(321) 262-2504",
    "address": "Central Florida Blvd.  Orlando, FL 32817",
    "location": "Dixie"
  },
  {
    "name": "Eagle Xp Marketing",
    "description": "Marketing Programs & Services",
    "phone": "(407) 677-9400",
    "address": "6812 Hanging Moss Rd  Orlando, FL 32807",
    "location": "Dixie"
  },
  {
    "name": "Southern Marketing Associates",
    "description": "Marketing Programs & Services",
    "phone": "(407) 682-7317",
    "address": "6120 Hanging Moss Rd  Orlando, FL 32807",
    "location": "Dixie"
  },
  {
    "name": "Findsome & Winmore, Inc.",
    "description": "Marketing Programs & Services",
    "phone": "(407) 722-7830",
    "address": "1550 S Lakemont Ave  Winter Park, FL 32792",
    "location": "Dixie"
  },
  {
    "name": "Discovery Marke ting Distr",
    "description": "Marketing Programs & Services",
    "phone": "(407) 296-8297",
    "address": "6505 Edgewater Dr  Orlando, FL 32810",
    "location": "Dixie"
  },
  {
    "name": "TDC Marketing",
    "description": "Marketing Programs & Services",
    "phone": "(352) 735-8064",
    "address": "25514 High Hampton Cir  Sorrento, FL 32776",
    "location": "Dixie"
  },
  {
    "name": "Brilliant Brands Media",
    "description": "Marketing Programs & Services",
    "phone": "(407) 461-9443",
    "address": "184 Bay St  Apopka, FL 32712",
    "location": "Dixie"
  },
  {
    "name": "Bro Sports Marketing",
    "description": "Marketing Programs & Services",
    "phone": "(561) 413-7055",
    "address": "2260 Gator Dr  Orlando, FL 32807",
    "location": "Dixie"
  },
  {
    "name": "Rob June Marketing & Consultants",
    "description": "Marketing Programs & Services",
    "phone": "(407) 947-7069",
    "address": "581 N Park Ave  Apopka, FL 32704",
    "location": "Dixie"
  },
  {
    "name": "Wat's Real TV",
    "description": "Marketing Programs & Services",
    "phone": "(407) 745-5500",
    "address": "581 N Park Ave Unit 435  Apopka, FL 32704",
    "location": "Dixie"
  },
  {
    "name": "One Empire Marketing Inc",
    "description": "Marketing Programs & Services",
    "phone": "(407) 299-7328",
    "address": "5764 N Orange Blossom Trl  Orlando, FL 32810",
    "location": "Dixie"
  },
  {
    "name": "Light Bulb Productions",
    "description": "Marketing Programs & Services",
    "phone": "(407) 340-1138",
    "address": "2203 Fosgate Dr  Winter Park, FL 32789",
    "location": "Dixie"
  },
  {
    "name": "JHT Inc",
    "description": "Marketing Programs & Services",
    "phone": "(407) 381-7797",
    "address": "12501 Research Pkwy  Orlando, FL 32826",
    "location": "Dixie"
  },
  {
    "name": "Redzel",
    "description": "Marketing Programs & Services",
    "phone": "(407) 435-9439",
    "address": "4740 Drummond Ln  Orlando, FL 32810",
    "location": "Dixie"
  },
  {
    "name": "Massey Communications",
    "description": "Marketing Programs & Services",
    "phone": "(407) 581-4222",
    "address": "3100 Clay Ave Ste 220  Orlando, FL 32804",
    "location": "Dixie"
  },
  {
    "name": "Grey Marketing Business",
    "description": "Marketing Programs & Services",
    "phone": "(407) 868-2972",
    "address": "1801 N Econlockhatchee Trl  Orlando, FL 32867",
    "location": "Dixie"
  },
  {
    "name": "Gravitational Marketing",
    "description": "Marketing Programs & Services",
    "phone": "(407) 275-8667",
    "address": "12802 Science Dr  Orlando, FL 32826",
    "location": "Dixie"
  },
  {
    "name": "Terry Pappy Creative Service",
    "description": "Marketing Programs & Services",
    "phone": "(407) 896-4088",
    "address": "1751 Firehouse Ln  Orlando, FL 32814",
    "location": "Dixie"
  },
  {
    "name": "Gator Sports Marketing",
    "description": "Marketing Programs & Services",
    "phone": "(407) 245-2525",
    "address": "4798 New Broad St  Orlando, FL 32814",
    "location": "Dixie"
  },
  {
    "name": "Creative Why",
    "description": "Marketing Programs & Services",
    "phone": "(407) 601-3358",
    "address": "4767 New Broad St  Orlando, FL 32814",
    "location": "Dixie"
  },
  {
    "name": "ETC Simulation",
    "description": "Marketing Programs & Services",
    "phone": "(407) 282-3378",
    "address": "2100 N Alafaya Trl  Orlando, FL 32826",
    "location": "Dixie"
  },
  {
    "name": "Loyalty App's",
    "description": "Marketing Programs & Services",
    "phone": "(407) 255-5257",
    "address": "2104 Fraternity Ct  Orlando, FL 32826",
    "location": "Dixie"
  },
  {
    "name": "Proforma Denali Marketing",
    "description": "Marketing Programs & Services",
    "phone": "(888) 681-7153",
    "address": "1316 Westmeath Ct  Apopka, FL 32703",
    "location": "Dixie"
  },
  {
    "name": "RGI Marketing Group",
    "description": "Marketing Programs & Services",
    "phone": "(407) 339-7111",
    "address": "2900 Orange Ave Ste 100  Apopka, FL 32703",
    "location": "Dixie"
  },
  {
    "name": "L A Indl Marketing Inc",
    "description": "Marketing Programs & Services",
    "phone": "(305) 677-9433",
    "address": "2093 Cascades Cove Dr  Orlando, FL 32820",
    "location": "Dixie"
  },
  {
    "name": "Get Found By Design",
    "description": "Marketing Programs & Services",
    "phone": "(407) 494-4823",
    "address": "815 S French Ave  Sanford, FL 32771",
    "location": "Dixie"
  },
  {
    "name": "Adams Marketing Group",
    "description": "Marketing Programs & Services",
    "phone": "(407) 320-0987",
    "address": "3842 Caboose Pl  Sanford, FL 32771",
    "location": "Dixie"
  },
  {
    "name": "Maus Media Group",
    "description": "Marketing Programs & Services",
    "phone": "(407) 302-5880",
    "address": "1160 Rinehart Rd  Sanford, FL 32771",
    "location": "Dixie"
  },
  {
    "name": "Relentless Media",
    "description": "Marketing Programs & Services",
    "phone": "(407) 252-3980",
    "address": "1429 Dolgner Pl  Sanford, FL 32771",
    "location": "Dixie"
  },
  {
    "name": "Dealer Funnel",
    "description": "Marketing Programs & Services",
    "phone": "(800) 675-4522",
    "address": "5739 Byron Anthony Pl  Sanford, FL 32771",
    "location": "Dixie"
  },
  {
    "name": "Online Tactix, LLC",
    "description": "Marketing Programs & Services",
    "phone": "(888) 541-4447",
    "address": "5224 W State Road 46 # 131  Sanford, FL 32771",
    "location": "Dixie"
  },
  {
    "name": "One Source Branding & Media",
    "description": "Marketing Programs & Services",
    "phone": "(321) 441-3160",
    "address": "187 E Crystal Lake Ave Unit 1005  Lake Mary, FL 32746",
    "location": "Dixie"
  },
  {
    "name": "Evok Advertising",
    "description": "Marketing Programs & Services",
    "phone": "(407) 302-4416",
    "address": "152 N 4th St  Lake Mary, FL 32746",
    "location": "Dixie"
  },
  {
    "name": "American Made Digital, LLC",
    "description": "Marketing Programs & Services",
    "phone": "(407) 717-6025",
    "address": "PO Box 950843  Lake Mary, FL 32795",
    "location": "Dixie"
  },
  {
    "name": "Multi Marketing Research Co",
    "description": "Marketing Programs & Services",
    "phone": "(321) 275-0370",
    "address": "125 Middle St  Lake Mary, FL 32746",
    "location": "Dixie"
  },
  {
    "name": "Axel & Associates",
    "description": "Marketing Programs & Services",
    "phone": "(866) 328-4329",
    "address": "175 Middle St Unit 1201  Lake Mary, FL 32746",
    "location": "Dixie"
  },
  {
    "name": "Pyramid Life Insurance Co",
    "description": "Marketing Programs & Services",
    "phone": "(407) 628-1776",
    "address": "1001 Heathrow Park Ln  Lake Mary, FL 32746",
    "location": "Dixie"
  },
  {
    "name": "Levitation Studio Inc.",
    "description": "Marketing Programs & Services",
    "phone": "(888) 514-8814",
    "address": "1540 International Pkwy  Lake Mary, FL 32746",
    "location": "Dixie"
  },
  {
    "name": "Finastra",
    "description": "Marketing Programs & Services",
    "phone": "(407) 333-0209",
    "address": "744 Primera Blvd  Lake Mary, FL 32746",
    "location": "Dixie"
  },
  {
    "name": "Marchand & Company - Marketing Media",
    "description": "Marketing Programs & Services",
    "phone": "(407) 444-2090",
    "address": "4300 W Lake Mary Blvd  Lake Mary, FL 32746",
    "location": "Dixie"
  },
  {
    "name": "Here To Help Marketing",
    "description": "Marketing Programs & Services",
    "phone": "(407) 391-5422",
    "address": "255 Primera Blvd Suite 160  Lake Mary, FL 32746",
    "location": "Dixie"
  },
  {
    "name": "Intersect Media Solutions",
    "description": "Marketing Programs & Services",
    "phone": "(321) 283-5255",
    "address": "610 Crescent Executive Ct Ste 112  Lake Mary, FL 32746",
    "location": "Dixie"
  },
  {
    "name": "Pentagon Consulting Associates Inc",
    "description": "Marketing Programs & Services",
    "phone": "(407) 417-5060",
    "address": "1512 Cherry Ridge Dr  Lake Mary, FL 32746",
    "location": "Dixie"
  },
  {
    "name": "Invent Help",
    "description": "Marketing Programs & Services",
    "phone": "(407) 942-1393",
    "address": "160 International Pkwy Ste 276  Heathrow, FL 32746",
    "location": "Dixie"
  },
  {
    "name": "Precisionplay Media",
    "description": "Marketing Programs & Services",
    "phone": "(407) 805-8800",
    "address": "160 International Pkwy  Lake Mary, FL 32746",
    "location": "Dixie"
  },
  {
    "name": "Minuteman Press Longwood | Orlando Printing, Design, Mailing, & Signs",
    "description": "Marketing Programs & Services",
    "phone": "(407) 260-0116",
    "address": "800 Waterway Pl  Longwood, FL 32750",
    "location": "Dixie"
  },
  {
    "name": "Fast Lane Promotions",
    "description": "Marketing Programs & Services",
    "phone": "(407) 328-7653",
    "address": "1828 Bridgewater Dr  Lake Mary, FL 32746",
    "location": "Dixie"
  },
  {
    "name": "Tru-Sun Media",
    "description": "Marketing Programs & Services",
    "phone": "(407) 388-1001",
    "address": "1255 Belle Ave  Winter Springs, FL 32708",
    "location": "Dixie"
  },
  {
    "name": "78 Madison",
    "description": "Marketing Programs & Services",
    "phone": "(407) 788-7070",
    "address": "1401 Town Plaza Ct  Winter Springs, FL 32708",
    "location": "Dixie"
  },
  {
    "name": "Direct Sales Marketing of Florida, Inc.",
    "description": "Marketing Programs & Services",
    "phone": "(386) 228-0458",
    "address": "1477 S Leavitt Ave  Orange City, FL 32763",
    "location": "Dixie"
  },
  {
    "name": "Cruz.MCA",
    "description": "Marketing Programs & Services",
    "phone": "(386) 232-0158",
    "address": "2781 Lafoy ct  Deltona, FL 32738",
    "location": "Dixie"
  },
  {
    "name": "Carina Marketing",
    "description": "Marketing Programs & Services",
    "phone": "(407) 474-2571",
    "address": "1985 Saffron Ct  Oviedo, FL 32765",
    "location": "Dixie"
  },
  {
    "name": "Dequattro Enterprises Inc",
    "description": "Marketing Programs & Services",
    "phone": "(407) 862-9132",
    "address": "2170 W State Road 434 Ste 170  Longwood, FL 32779",
    "location": "Dixie"
  },
  {
    "name": "International Telemarketing",
    "description": "Marketing Programs & Services",
    "phone": "(386) 218-6930",
    "address": "243 W Graves Ave  Orange City, FL 32763",
    "location": "Dixie"
  },
  {
    "name": "Jade A. Marketing & Consulting",
    "description": "Marketing Programs & Services",
    "phone": "(407) 832-0386",
    "address": "123 Wekiva Springs Rd  Longwood, FL 32779",
    "location": "Dixie"
  },
  {
    "name": "Affiliate Biz Solutions",
    "description": "Marketing Programs & Services",
    "phone": "(407) 219-2797",
    "address": "669 Fellowship Dr  Fern Park, FL 32730",
    "location": "Dixie"
  },
  {
    "name": "Nationwide Small Business Resources",
    "description": "Marketing Programs & Services",
    "phone": "(386) 516-3550",
    "address": "2048 Howland Blvd  Deltona, FL 32738",
    "location": "Dixie"
  },
  {
    "name": "The Razzi Group",
    "description": "Marketing Programs & Services",
    "phone": "(407) 636-0069",
    "address": "203 Briar Cliff Dr  Longwood, FL 32779",
    "location": "Dixie"
  },
  {
    "name": "Roar! Internet Marketing",
    "description": "Marketing Programs & Services",
    "phone": "(407) 786-7330",
    "address": "307 Cranes Roost Blvd Ste 2020  Altamonte Springs, FL 32701",
    "location": "Dixie"
  },
  {
    "name": "BCV Deals",
    "description": "Marketing Programs & Services",
    "phone": "(407) 571-2980",
    "address": "260 Maitland Ave  Altamonte Springs, FL 32701",
    "location": "Dixie"
  },
  {
    "name": "Medtech Momentum",
    "description": "Marketing Programs & Services",
    "phone": "(407) 960-2994",
    "address": "377 Maitland Ave  Altamonte Springs, FL 32701",
    "location": "Dixie"
  },
  {
    "name": "M77 Media",
    "description": "Marketing Programs & Services",
    "phone": "(833) 992-1313",
    "address": "217 N Westmonte Dr  Altamonte Springs, FL 32714",
    "location": "Dixie"
  },
  {
    "name": "Biz Buzz",
    "description": "Marketing Programs & Services",
    "phone": "(407) 988-2899",
    "address": "1645 Slash Pine Pl  Oviedo, FL 32765",
    "location": "Dixie"
  },
  {
    "name": "FusionTech Media",
    "description": "Marketing Programs & Services",
    "phone": "(407) 512-0424",
    "address": "237 S Westmonte Dr Ste 100-B  Altamonte Springs, FL 32714",
    "location": "Dixie"
  },
  {
    "name": "Volusia Contractor Directory",
    "description": "Marketing Programs & Services",
    "phone": "(386) 753-4647",
    "address": "2825 Derby Dr  Deltona, FL 32738",
    "location": "Dixie"
  },
  {
    "name": "P3D Creations",
    "description": "Marketing Programs & Services",
    "phone": "(407) 785-4119",
    "address": "Altamonte Springs FL 32714  Altamonte Springs, FL 32714",
    "location": "Dixie"
  },
  {
    "name": "RipCurrent Content Marketing Services",
    "description": "Marketing Programs & Services",
    "phone": "(321) 312-0161",
    "address": "414 Majorca Ave  Altamonte Springs, FL 32714",
    "location": "Dixie"
  },
  {
    "name": "No Limit Marketing and Advertising",
    "description": "Marketing Programs & Services",
    "phone": "(321) 400-6116",
    "address": "2789 Wrights Rd Ste 1009  Oviedo, FL 32765",
    "location": "Dixie"
  },
  {
    "name": "Action Products International Inc",
    "description": "Marketing Programs & Services",
    "phone": "(407) 660-7200",
    "address": "1101 N Keller Rd  Orlando, FL 32810",
    "location": "Dixie"
  },
  {
    "name": "Winning Formula Marketing LLC",
    "description": "Marketing Programs & Services",
    "phone": "(407) 928-9173",
    "address": "555 Winderley Pl  Maitland, FL 32751",
    "location": "Dixie"
  },
  {
    "name": "Minuteman Press",
    "description": "Marketing Programs & Services",
    "phone": "(407) 657-9090",
    "address": "6974 Aloma Ave  Winter Park, FL 32792",
    "location": "Dixie"
  },
  {
    "name": "Rock Your Business Incorporated",
    "description": "Marketing Programs & Services",
    "phone": "(407) 869-7625",
    "address": "660 Executive Park Ct Ste 1100  Apopka, FL 32703",
    "location": "Dixie"
  },
  {
    "name": "Royalty SEO Orlando",
    "description": "Marketing Programs & Services",
    "phone": "(954) 290-8285",
    "address": "3675 Oakdale Cir  Oviedo, FL 32765",
    "location": "Dixie"
  },
  {
    "name": "Success Landscape Marketing",
    "description": "Marketing Programs & Services",
    "phone": "(407) 571-9508",
    "address": "1133 Louisiana Ave Ste 100  Winter Park, FL 32789",
    "location": "Dixie"
  },
  {
    "name": "Response Marketing Llp",
    "description": "Marketing Programs & Services",
    "phone": "(407) 740-4190",
    "address": "222 W Comstock Ave St 121  Winter Park, FL 32789",
    "location": "Dixie"
  },
  {
    "name": "KRE8 Media Inc.",
    "description": "Marketing Programs & Services",
    "phone": "(407) 629-5454",
    "address": "200 E New England Ave Ste 300  Winter Park, FL 32789",
    "location": "Dixie"
  },
  {
    "name": "Omicron Media, Inc",
    "description": "Marketing Programs & Services",
    "phone": "(407) 410-8830",
    "address": "807 W Morse Blvd  Winter Park, FL 32789",
    "location": "Dixie"
  },
  {
    "name": "Marketing Consultants of Orlando, Inc.",
    "description": "Marketing Programs & Services",
    "phone": "(407) 403-6688",
    "address": "3361 Rouse Rd Ste 140  Orlando, FL 32817",
    "location": "Dixie"
  },
  {
    "name": "Buzz UR Brand",
    "description": "Marketing Programs & Services",
    "phone": "(407) 906-2899",
    "address": "200 Scottsdale Sq  Winter Park, FL 32792",
    "location": "Dixie"
  },
  {
    "name": "RSVP Orlando",
    "description": "Marketing Programs & Services",
    "phone": "(407) 868-1741",
    "address": "641 W Fairbanks Ave  Winter Park, FL 32789",
    "location": "Dixie"
  },
  {
    "name": "Mainline Marketing, Inc.",
    "description": "Marketing Programs & Services",
    "phone": "(321) 253-2030",
    "address": "925 S Semoran Blvd Ste 100  Winter Park, FL 32792",
    "location": "Dixie"
  },
  {
    "name": "Ph3 Agency + Brewery",
    "description": "Marketing Programs & Services",
    "phone": "(321) 206-8771",
    "address": "6140 Edgewater Dr Ste C  Orlando, FL 32810",
    "location": "Dixie"
  },
  {
    "name": "AnalyticsBox",
    "description": "Marketing Programs & Services",
    "phone": "(514) 918-9472",
    "address": "PO box 547324  Orlando, FL 32854",
    "location": "Dixie"
  },
  {
    "name": "Holbrook Consulting Group",
    "description": "Marketing Programs & Services",
    "phone": "(800) 448-1241",
    "address": "2797 Stanfield Ave  Orlando, FL 32814",
    "location": "Dixie"
  },
  {
    "name": "Simplify Marketing Group",
    "description": "Marketing Programs & Services",
    "phone": "(407) 340-8296",
    "address": "150 E Reading Way  Winter Park, FL 32789",
    "location": "Dixie"
  },
  {
    "name": "RTP Medical Solution",
    "description": "Marketing Programs & Services",
    "phone": "(407) 901-7588",
    "address": "7037 Rose Ave  Orlando, FL 32810",
    "location": "Dixie"
  },
  {
    "name": "Takeout Waiter",
    "description": "Marketing Programs & Services",
    "phone": "(270) 215-5141",
    "address": "4161 Knott Dr  Apopka, FL 32712",
    "location": "Dixie"
  },
  {
    "name": "3Sixty6 Media",
    "description": "Marketing Programs & Services",
    "phone": "(321) 430-6348",
    "address": "7318 E Colonial Dr  Orlando, FL 32807",
    "location": "Dixie"
  },
  {
    "name": "Mobile Ad Co., Inc.",
    "description": "Marketing Programs & Services",
    "phone": "(407) 641-4999",
    "address": "4767 New Broad St  Orlando, FL 32814",
    "location": "Dixie"
  },
  {
    "name": "DMA Consulting",
    "description": "Marketing Programs & Services",
    "phone": "(321) 235-5700",
    "address": "4644 Chuluota Rd  Orlando, FL 32820",
    "location": "Dixie"
  },
  {
    "name": "Nationwide Marketing and Advertising",
    "description": "Marketing Programs & Services",
    "phone": "(407) 814-3929",
    "address": "1077 W Orange Blossom Trl  Apopka, FL 32712",
    "location": "Dixie"
  },
  {
    "name": "Magnetic Lead Solutions",
    "description": "Marketing Programs & Services",
    "phone": "(321) 236-0698",
    "address": "13144 E Colonial Dr  Orlando, FL 32826",
    "location": "Dixie"
  },
  {
    "name": "Logogram Inc",
    "description": "Marketing Consultants",
    "phone": "(407) 320-1117",
    "address": "123 Commerce Way  Sanford, FL 32771",
    "location": "Dixie"
  },
  {
    "name": "Cyber Marketing & Research",
    "description": "Marketing Consultants",
    "phone": "(407) 324-2700",
    "address": "2451 Old Lake Mary Rd # 101  Sanford, FL 32771",
    "location": "Dixie"
  },
  {
    "name": "Cyber Marketing",
    "description": "Marketing Consultants",
    "phone": "(407) 324-9100",
    "address": "2380 W 25th St  Sanford, FL 32771",
    "location": "Dixie"
  },
  {
    "name": "Internet Marketing Directory",
    "description": "Marketing Consultants",
    "phone": "(407) 330-0443",
    "address": "329 Kays Landing Dr  Sanford, FL 32771",
    "location": "Dixie"
  },
  {
    "name": "Total Marketing Concepts, Inc.",
    "description": "Telemarketing Services",
    "phone": "(407) 562-3201",
    "address": "1043 Upsala Rd Ste 1053  Sanford, FL 32771",
    "location": "Dixie"
  },
  {
    "name": "Hadley's Market ing",
    "description": "Marketing Consultants",
    "phone": "(407) 878-7779",
    "address": "1013 Windridge Cir  Sanford, FL 32773",
    "location": "Dixie"
  },
  {
    "name": "Sanitizersubscription.com",
    "description": "Internet Marketing & Advertising",
    "phone": "(407) 943-4909",
    "address": "201 N Maple Ave  Sanford, FL 32771",
    "location": "Dixie"
  },
  {
    "name": "L A Marketing Company",
    "description": "Marketing Consultants",
    "phone": "(407) 732-4704",
    "address": "114 W 1st St  Sanford, FL 32771",
    "location": "Dixie"
  },
  {
    "name": "Dealzkingzdepot.com",
    "description": "Internet Marketing & Advertising",
    "phone": "(386) 244-9500",
    "address": "401 E 1st St  Sanford, FL 32771",
    "location": "Dixie"
  },
  {
    "name": "Devsyntech, Inc.",
    "description": "Internet Marketing & Advertising",
    "phone": "(321) 444-7737",
    "address": "1405 S Locust Ave  Sanford, FL 32771",
    "location": "Dixie"
  },
  {
    "name": "Total Marketing Concepts",
    "description": "Marketing Consultants",
    "phone": "(407) 302-3511",
    "address": "109 Bellagio Cir  Sanford, FL 32771",
    "location": "Dixie"
  },
  {
    "name": "P5 Systems",
    "description": "Internet Marketing & Advertising",
    "phone": "(407) 362-1933",
    "address": "223 Brightview Dr  Lake Mary, FL 32746",
    "location": "Dixie"
  },
  {
    "name": "Webolistic",
    "description": "Web Site Hosting",
    "phone": "(321) 285-6224",
    "address": "7025 County Road 46A  Lake Mary, FL 32746",
    "location": "Dixie"
  },
  {
    "name": "Mychildwins.com",
    "description": "Internet Marketing & Advertising",
    "phone": "(386) 628-0295",
    "address": "1264 Upsala Rd  Sanford, FL 32771",
    "location": "Dixie"
  },
  {
    "name": "Dare to Dream A Gain",
    "description": "Marketing Consultants",
    "phone": "(407) 878-7669",
    "address": "209 San Carlos Ave  Sanford, FL 32771",
    "location": "Dixie"
  },
  {
    "name": "Sandara Saints",
    "description": "Internet Marketing & Advertising",
    "phone": "(407) 878-1695",
    "address": "103 Lindsey Way  Sanford, FL 32771",
    "location": "Dixie"
  },
  {
    "name": "Dream Catchers Marketing and Consulting, LLC",
    "description": "Marketing Consultants",
    "phone": "(407) 490-2605",
    "address": "2330 Trillium Park Ln  Sanford, FL 32773",
    "location": "Dixie"
  },
  {
    "name": "Country Wide Enterprises",
    "description": "Internet Marketing & Advertising",
    "phone": "(407) 302-1777",
    "address": "707 E Airport Blvd  Sanford, FL 32773",
    "location": "Dixie"
  },
  {
    "name": "Divine Imaging",
    "description": "Web Site Hosting",
    "phone": "(407) 314-4469",
    "address": "126 Lake Ada Cir  Sanford, FL 32773",
    "location": "Dixie"
  },
  {
    "name": "Apache Commander",
    "description": "Internet Marketing & Advertising",
    "phone": "(321) 262-6891",
    "address": "2341 Church St  Sanford, FL 32771",
    "location": "Dixie"
  },
  {
    "name": "SearchOutsidethebox.com Inc",
    "description": "Web Site Design & Services",
    "phone": "(407) 562-6143",
    "address": "1521 Little Gem Loop  Sanford, FL 32773",
    "location": "Dixie"
  },
  {
    "name": "SearchOutsidethebox",
    "description": "Web Site Hosting",
    "phone": "(407) 562-6143",
    "address": "905 Pine Way  Sanford, FL 32773",
    "location": "Dixie"
  },
  {
    "name": "Schwab Associates David",
    "description": "Marketing Consultants",
    "phone": "(407) 324-1333",
    "address": "4835 Shoreline Cir  Sanford, FL 32771",
    "location": "Dixie"
  },
  {
    "name": "Danna J Consulting",
    "description": "Marketing Consultants",
    "phone": "(407) 928-4883",
    "address": "147 N High St  Lake Mary, FL 32746",
    "location": "Dixie"
  },
  {
    "name": "Ithrive Development",
    "description": "Marketing Consultants",
    "phone": "(407) 257-1717",
    "address": "600 Rinehart Rd  Lake Mary, FL 32746",
    "location": "Dixie"
  },
  {
    "name": "DME Digital",
    "description": "Marketing Consultants",
    "phone": "(407) 406-4741",
    "address": "600 Rinehart Rd  Lake Mary, FL 32746",
    "location": "Dixie"
  },
  {
    "name": "Alliance Sales & Marketing NC Inc",
    "description": "Marketing Consultants",
    "phone": "(704) 752-1919",
    "address": "400 Colonial Center Pkwy  Lake Mary, FL 32746",
    "location": "Dixie"
  },
  {
    "name": "Virtual Stacks Systems",
    "description": "Web Site Design & Services",
    "phone": "(407) 544-3201",
    "address": "650 Technology Park  Lake Mary, FL 32746",
    "location": "Dixie"
  },
  {
    "name": "Tonic Enterprises",
    "description": "Web Site Design & Services",
    "phone": "(407) 917-7211",
    "address": "1540 International Pkwy Ste 2000  Lake Mary, FL 32746",
    "location": "Dixie"
  },
  {
    "name": "Checkout Locals",
    "description": "Advertising Agencies",
    "phone": "(407) 777-4506",
    "address": "1540 International Pkwy Suite 2000  Lake Mary, FL 32746",
    "location": "Dixie"
  },
  {
    "name": "Collect-Us.com",
    "description": "Internet Marketing & Advertising",
    "phone": "(407) 328-7669",
    "address": "559 S Country Club Rd  Lake Mary, FL 32746",
    "location": "Dixie"
  },
  {
    "name": "Tws Marketing Group Inc",
    "description": "Marketing Consultants",
    "phone": "(407) 333-1023",
    "address": "801 International Pkwy  Lake Mary, FL 32746",
    "location": "Dixie"
  },
  {
    "name": "Marketing LP",
    "description": "Marketing Consultants",
    "phone": "(407) 878-3158",
    "address": "287 Bald Eagle Run  Lake Mary, FL 32746",
    "location": "Dixie"
  },
  {
    "name": "JLS Automotive Marketing Inc.",
    "description": "Internet Marketing & Advertising",
    "phone": "(321) 363-0624",
    "address": "799 Sherbourne Cir  Lake Mary, FL 32746",
    "location": "Dixie"
  },
  {
    "name": "Proforma A&G Marketing Group",
    "description": "Advertising Agencies",
    "phone": "(386) 626-9200",
    "address": "255 Primera Blvd Ste 160  Lake Mary, FL 32746",
    "location": "Dixie"
  },
  {
    "name": "Certnutri.com",
    "description": "Internet Marketing & Advertising",
    "phone": "(407) 781-8069",
    "address": "255 Primera Blvd  Lake Mary, FL 32746",
    "location": "Dixie"
  },
  {
    "name": "Stephenson & Associates",
    "description": "Internet Marketing & Advertising",
    "phone": "(407) 833-3728",
    "address": "255 Primera Blvd Ste 160  Lake Mary, FL 32746",
    "location": "Dixie"
  },
  {
    "name": "Wide Fusion",
    "description": "Internet Marketing & Advertising",
    "phone": "(407) 536-0142",
    "address": "255 Primera Blvd Ste 160  Lake Mary, FL 32746",
    "location": "Dixie"
  },
  {
    "name": "Corporate World Consultants",
    "description": "Marketing Consultants",
    "phone": "(407) 585-2060",
    "address": "605 Crescent Executive Ct  Lake Mary, FL 32746",
    "location": "Dixie"
  },
  {
    "name": "Design Studio Vega",
    "description": "Internet Marketing & Advertising",
    "phone": "(321) 578-9277",
    "address": "1275 Glencrest Dr  Lake MAry, FL 32746",
    "location": "Dixie"
  },
  {
    "name": "Voipterminator Incorporated",
    "description": "Marketing Consultants",
    "phone": "(321) 363-3087",
    "address": "250 International Pkwy  Lake Mary, FL 32746",
    "location": "Dixie"
  },
  {
    "name": "Food and Beverage Ingredients Inc",
    "description": "Marketing Consultants",
    "phone": "(407) 829-7375",
    "address": "187 Promenade Cir  Lake Mary, FL 32746",
    "location": "Dixie"
  },
  {
    "name": "Emulous Media Inc",
    "description": "Marketing Consultants",
    "phone": "(689) 255-6327",
    "address": "1325 S International Pkwy Ste 2221  Lake Mary, FL 32746",
    "location": "Dixie"
  },
  {
    "name": "Alliance Sales & Marketing",
    "description": "Marketing Consultants",
    "phone": "(321) 257-0470",
    "address": "1064 Greenwood Blvd Ste 112  Lake Mary, FL 32746",
    "location": "Dixie"
  },
  {
    "name": "Marketing General",
    "description": "Marketing Consultants",
    "phone": "(407) 804-2705",
    "address": "1001 Sand Pond Rd  Lake Mary, FL 32746",
    "location": "Dixie"
  },
  {
    "name": "Bbjcloud.com",
    "description": "Internet Marketing & Advertising",
    "phone": "(407) 574-6986",
    "address": "111 Commerce St  Lake Mary, FL 32746",
    "location": "Dixie"
  },
  {
    "name": "Ameritek Medical Solutions Inc",
    "description": "Marketing Consultants",
    "phone": "(407) 285-9564",
    "address": "30 Skyline Dr  Lake Mary, FL 32746",
    "location": "Dixie"
  },
  {
    "name": "Cma",
    "description": "Marketing Consultants",
    "phone": "(386) 668-4616",
    "address": "80 Spring Vista Dr Ste 100  Debary, FL 32713",
    "location": "Dixie"
  },
  {
    "name": "Imagination Marketing Solitions Inc",
    "description": "Marketing Consultants",
    "phone": "(407) 260-5700",
    "address": "1973 Longwood Lake Mary Rd  Longwood, FL 32750",
    "location": "Dixie"
  },
  {
    "name": "Shoppers' Critique International",
    "description": "Market Research & Analysis",
    "phone": "(407) 834-3337",
    "address": "1969 Corporate Sq  Longwood, FL 32750",
    "location": "Dixie"
  },
  {
    "name": "Total Convenience Marketing",
    "description": "Food Products-Wholesale",
    "phone": "(407) 260-6727",
    "address": "1987 Corporate Sq  Longwood, FL 32750",
    "location": "Dixie"
  },
  {
    "name": "SEO Marketing Engine",
    "description": "Internet Marketing & Advertising",
    "phone": "(321) 282-2306",
    "address": "2290 N Ronald Reagan Blvd Ste 120  Longwood, FL 32750",
    "location": "Dixie"
  },
  {
    "name": "J Squared Marketing Inc",
    "description": "Marketing Consultants",
    "phone": "(407) 339-0715",
    "address": "2280 N Ronald Reagan Blvd  Longwood, FL 32750",
    "location": "Dixie"
  },
  {
    "name": "Amp",
    "description": "Business Coaches & Consultants",
    "phone": "(386) 320-0416",
    "address": "87 S Charles Richard Beall Blvd  Debary, FL 32713",
    "location": "Dixie"
  },
  {
    "name": "We Print Everything",
    "description": "Advertising-Promotional Products",
    "phone": "(407) 339-3410",
    "address": "2100 N Ronald Reagan Blvd  Longwood, FL 32750",
    "location": "Dixie"
  },
  {
    "name": "Berg Solutions",
    "description": "Marketing Consultants",
    "phone": "(407) 671-8633",
    "address": "688 Fortrose Dr  Winter Springs, FL 32708",
    "location": "Dixie"
  },
  {
    "name": "Mainstreet Marketing",
    "description": "Marketing Consultants",
    "phone": "(407) 790-4973",
    "address": "1687 Timocuan Way  Longwood, FL 32750",
    "location": "Dixie"
  },
  {
    "name": "AGIL Enterprises",
    "description": "Internet Marketing & Advertising",
    "phone": "(407) 233-5083",
    "address": "745 W State Road 434  Longwood, FL 32750",
    "location": "Dixie"
  },
  {
    "name": "Ezyield.Com Inc",
    "description": "Internet Marketing & Advertising",
    "phone": "(407) 629-0900",
    "address": "209 N Moss Rd  Winter Springs, FL 32708",
    "location": "Dixie"
  },
  {
    "name": "Internet Performance Group",
    "description": "Internet Marketing & Advertising",
    "phone": "(877) 474-9997",
    "address": "107 14th Ave  Longwood, FL 32750",
    "location": "Dixie"
  },
  {
    "name": "Clarity Creative Group",
    "description": "Web Site Design & Services",
    "phone": "(407) 233-4464",
    "address": "925 W State Road 434 Ste 102  Winter Springs, FL 32708",
    "location": "Dixie"
  },
  {
    "name": "Gilbert Manjura Marketing and Advertising",
    "description": "Advertising Agencies",
    "phone": "(407) 261-5739",
    "address": "346 Freeman St  Longwood, FL 32750",
    "location": "Dixie"
  },
  {
    "name": "Peeeple",
    "description": "Marketing Consultants",
    "phone": "(407) 265-8003",
    "address": "250 W Church Ave  Longwood, FL 32750",
    "location": "Dixie"
  },
  {
    "name": "Alps Did IT",
    "description": "Marketing Consultants",
    "phone": "(386) 301-0157",
    "address": "741 Saxon Blvd  Orange City, FL 32763",
    "location": "Dixie"
  },
  {
    "name": "The Redwood Agency, LLC",
    "description": "Internet Marketing & Advertising",
    "phone": "(407) 476-6136",
    "address": "100 Sandy Oaks PL  Longwood, FL 32779",
    "location": "Dixie"
  },
  {
    "name": "Computers for Marketing Corp",
    "description": "Market Research & Analysis",
    "phone": "(386) 774-1191",
    "address": "485 Quail Hill Dr  Debary, FL 32713",
    "location": "Dixie"
  },
  {
    "name": "The Modern Feminine",
    "description": "Marketing Consultants",
    "phone": "(407) 934-0517",
    "address": "5840 Red Bug Lake Rd 1611  Winter Springs, FL 32708",
    "location": "Dixie"
  },
  {
    "name": "Pr Marketing",
    "description": "Marketing Consultants",
    "phone": "(407) 834-0677",
    "address": "190 S Ronald Reagan Blvd  Longwood, FL 32750",
    "location": "Dixie"
  },
  {
    "name": "Summit Marketing - Timeshare Rental & Sales",
    "description": "Internet Marketing & Advertising",
    "phone": "(855) 602-7991",
    "address": "416 Commerce Way Ste 140  Longwood, FL 32750",
    "location": "Dixie"
  },
  {
    "name": "Strategic Marketing Management",
    "description": "Marketing Consultants",
    "phone": "(407) 314-6996",
    "address": "416 Commerce Way  Longwood, FL 32750",
    "location": "Dixie"
  },
  {
    "name": "Innovations Marketing Corp",
    "description": "Marketing Consultants",
    "phone": "(407) 830-1950",
    "address": "760 Florida Central Pkwy Ste 224  Longwood, FL 32750",
    "location": "Dixie"
  },
  {
    "name": "Wireless Direct Marketing",
    "description": "Marketing Consultants",
    "phone": "(407) 332-0574",
    "address": "780 Florida Central Pkwy  Longwood, FL 32750",
    "location": "Dixie"
  },
  {
    "name": "Simplicity Solutions Group",
    "description": "Computer Software Publishers & Developers",
    "phone": "(407) 801-7100",
    "address": "2435 S Volusia Ave Ste D1  Orange City, FL 32763",
    "location": "Dixie"
  },
  {
    "name": "Match-Up Promotions",
    "description": "Advertising-Promotional Products",
    "phone": "(800) 815-3093",
    "address": "975 Florida Central Pkwy Ste 1900  Longwood, FL 32750",
    "location": "Dixie"
  },
  {
    "name": "Mr. Checkout Distributors",
    "description": "Product Design, Development & Marketing",
    "phone": "(407) 603-6557",
    "address": "381 S Central Ave  Oviedo, FL 32765",
    "location": "Dixie"
  },
  {
    "name": "Sum Marketing & Entertainment Group",
    "description": "Marketing Consultants",
    "phone": "(321) 207-7166",
    "address": "1225 Bennett Dr Unit 105  Longwood, FL 32750",
    "location": "Dixie"
  },
  {
    "name": "M & O International Marketing",
    "description": "Marketing Consultants",
    "phone": "(407) 830-4207",
    "address": "215 Pineda St  Longwood, FL 32750",
    "location": "Dixie"
  },
  {
    "name": "Empower Network",
    "description": "Internet Marketing & Advertising",
    "phone": "(407) 620-5585",
    "address": "Po Box 390874  Deltona, FL 32739",
    "location": "Dixie"
  },
  {
    "name": "K2 Evolution",
    "description": "Web Site Design & Services",
    "phone": "(321) 972-5915",
    "address": "1355 Bennett Dr Unit 177  Longwood, FL 32750",
    "location": "Dixie"
  },
  {
    "name": "Andytolbert.com",
    "description": "Internet Marketing & Advertising",
    "phone": "(407) 328-0970",
    "address": "1499 W State Road 434  Longwood, FL 32750",
    "location": "Dixie"
  },
  {
    "name": "Bennett & Company Marketing",
    "description": "Marketing Consultants",
    "phone": "(407) 478-4040",
    "address": "543 Estates Pl  Longwood, FL 32779",
    "location": "Dixie"
  },
  {
    "name": "Rgi Marketing Group Inc",
    "description": "Marketing Consultants",
    "phone": "(407) 339-7111",
    "address": "959 Explorer Cv  Altamonte Springs, FL 32701",
    "location": "Dixie"
  },
  {
    "name": "Air Power Marketing Inc",
    "description": "Marketing Consultants",
    "phone": "(386) 775-3130",
    "address": "1477 S Leavitt Ave  Orange City, FL 32763",
    "location": "Dixie"
  },
  {
    "name": "Devitt & Associates",
    "description": "Business Coaches & Consultants",
    "phone": "(407) 332-9692",
    "address": "141 Concord Dr  Casselberry, FL 32707",
    "location": "Dixie"
  },
  {
    "name": "Best Marketing Inc",
    "description": "Marketing Consultants",
    "phone": "(407) 331-9400",
    "address": "352 W Melody Ln  Casselberry, FL 32707",
    "location": "Dixie"
  },
  {
    "name": "Magsafe Marketing",
    "description": "Marketing Consultants",
    "phone": "(407) 834-9966",
    "address": "4700 S Us Highway 17/92  Casselberry, FL 32707",
    "location": "Dixie"
  },
  {
    "name": "Blueberry Mora Group",
    "description": "Marketing Consultants",
    "phone": "(407) 536-1623",
    "address": "100 Blue Heron Ln  Casselberry, FL 32707",
    "location": "Dixie"
  },
  {
    "name": "AFES, LLC",
    "description": "Business Plans Development",
    "phone": "(407) 347-4669",
    "address": "123 N Industrial Dr Ste D  Orange City, FL 32763",
    "location": "Dixie"
  },
  {
    "name": "T Squared Marketing",
    "description": "Marketing Consultants",
    "phone": "(407) 699-9992",
    "address": "1114 Howell Creek Dr  Winter Springs, FL 32708",
    "location": "Dixie"
  },
  {
    "name": "RJB Marketing Group Inc",
    "description": "Marketing Consultants",
    "phone": "(321) 282-6131",
    "address": "927 Fern St  Altamonte Springs, FL 32701",
    "location": "Dixie"
  },
  {
    "name": "Results Marketing",
    "description": "Advertising Agencies",
    "phone": "(407) 786-5660",
    "address": "609 N Longview Pl  Longwood, FL 32779",
    "location": "Dixie"
  },
  {
    "name": "InFocus Media Group, Inc.",
    "description": "Print Advertising",
    "phone": "(386) 243-9327",
    "address": "683 Williams Ave  Orange City, FL 32763",
    "location": "Dixie"
  },
  {
    "name": "Service Corp",
    "description": "Marketing Consultants",
    "phone": "(407) 834-9424",
    "address": "130 Live Oaks Blvd  Casselberry, FL 32707",
    "location": "Dixie"
  },
  {
    "name": "Sowers Web Technologies",
    "description": "Web Site Design & Services",
    "phone": "(407) 900-5069",
    "address": "450 Ridgewood St  Altamonte Springs, FL 32701",
    "location": "Dixie"
  },
  {
    "name": "Dream Network Academy",
    "description": "Direct Marketing Services",
    "phone": "(386) 473-6623",
    "address": "2569 Delbarton Ave  Deltona, FL 32725",
    "location": "Dixie"
  },
  {
    "name": "Webstuff LLC",
    "description": "Web Site Design & Services",
    "phone": "(716) 759-4636",
    "address": "519 Sabal Trail Cir  Longwood, FL 32779",
    "location": "Dixie"
  },
  {
    "name": "The Zetta Merchandising Group",
    "description": "Marketing Consultants",
    "phone": "(407) 331-5020",
    "address": "611 Ivanhoe Way  Casselberry, FL 32707",
    "location": "Dixie"
  },
  {
    "name": "Three Sixteen Digital Marketing",
    "description": "Internet Marketing & Advertising",
    "phone": "(407) 490-4106",
    "address": "301 Cypress Landing Dr  Longwood, FL 32779",
    "location": "Dixie"
  },
  {
    "name": "Now Marketing Group Inc.",
    "description": "Marketing Consultants",
    "phone": "(321) 972-8045",
    "address": "2101 W State Road 434  Longwood, FL 32779",
    "location": "Dixie"
  },
  {
    "name": "Market Launcher",
    "description": "Marketing Consultants",
    "phone": "(407) 774-0444",
    "address": "145 Wisteria Dr  Longwood, FL 32779",
    "location": "Dixie"
  },
  {
    "name": "Thehomethatyouwant.com",
    "description": "Internet Marketing & Advertising",
    "phone": "(407) 314-8919",
    "address": "1150 Douglas Ave  Altamonte Springs, FL 32714",
    "location": "Dixie"
  },
  {
    "name": "Sun Country Marketing Inc",
    "description": "Marketing Consultants",
    "phone": "(407) 788-9133",
    "address": "2658 Bent Hickory Cir  Longwood, FL 32779",
    "location": "Dixie"
  },
  {
    "name": "Zoomania1",
    "description": "Internet Marketing & Advertising",
    "phone": "(407) 451-2880",
    "address": "433 E Highland St  Altamonte Springs, FL 32701",
    "location": "Dixie"
  },
  {
    "name": "Little Bell Hospitality Market",
    "description": "Marketing Consultants",
    "phone": "(386) 456-0797",
    "address": "440 Crystal Springs Ct  Orange City, FL 32763",
    "location": "Dixie"
  },
  {
    "name": "Flitehaus Inc",
    "description": "Web Site Design & Services",
    "phone": "(407) 971-2244",
    "address": "3000 Dovera Dr Ste 140  Oviedo, FL 32765",
    "location": "Dixie"
  },
  {
    "name": "Practice Made Perfect Inc",
    "description": "Marketing Consultants",
    "phone": "(407) 682-3512",
    "address": "241 Springside Rd  Longwood, FL 32779",
    "location": "Dixie"
  },
  {
    "name": "Product Marketing Group",
    "description": "Advertising Agencies",
    "phone": "(407) 774-6363",
    "address": "978 Douglas Ave  Altamonte Springs, FL 32714",
    "location": "Dixie"
  },
  {
    "name": "Sales & Marketing Technologies",
    "description": "Marketing Consultants",
    "phone": "(407) 682-2222",
    "address": "2170 W State Road 434 Ste 496  Longwood, FL 32779",
    "location": "Dixie"
  },
  {
    "name": "Mall Media Services, Inc.",
    "description": "Advertising Agencies",
    "phone": "(407) 443-2369",
    "address": "412 E Citrus St  Altamonte Springs, FL 32701",
    "location": "Dixie"
  },
  {
    "name": "My Website Spot - Casselberry Web Design & SEO",
    "description": "Web Site Design & Services",
    "phone": "(407) 499-4008",
    "address": "513 Elm Dr  Casselberry, FL 32707",
    "location": "Dixie"
  },
  {
    "name": "Robin Marketing Inc",
    "description": "Marketing Consultants",
    "phone": "(407) 862-9116",
    "address": "124 Robin Rd  Altamonte Springs, FL 32701",
    "location": "Dixie"
  },
  {
    "name": "Marketing Consu Ltation So",
    "description": "Marketing Consultants",
    "phone": "(407) 951-7121",
    "address": "983 E Altamonte Dr  Altamonte Springs, FL 32701",
    "location": "Dixie"
  },
  {
    "name": "The Quest Marketing Group",
    "description": "Marketing Consultants",
    "phone": "(407) 278-5650",
    "address": "1511 W Broadway St  Oviedo, FL 32765",
    "location": "Dixie"
  },
  {
    "name": "Management AFA",
    "description": "Marketing Consultants",
    "phone": "(321) 972-8884",
    "address": "400 State Road 436  Casselberry, FL 32707",
    "location": "Dixie"
  },
  {
    "name": "Chance AD",
    "description": "Internet Marketing & Advertising",
    "phone": "(407) 788-0028",
    "address": "2484 Sr. 434 Studio 208  Longwood, FL 32779",
    "location": "Dixie"
  },
  {
    "name": "Wws Marketing Group II",
    "description": "Marketing Consultants",
    "phone": "(407) 478-7175",
    "address": "500 State Road 436  Casselberry, FL 32707",
    "location": "Dixie"
  },
  {
    "name": "Consumer Financial Savings Inc",
    "description": "Marketing Consultants",
    "phone": "(407) 788-2260",
    "address": "210 Crown Point Cir  Longwood, FL 32779",
    "location": "Dixie"
  },
  {
    "name": "Drmohasaoji.com",
    "description": "Internet Marketing & Advertising",
    "phone": "(407) 432-1056",
    "address": "290 Hibiscus Rd  Casselberry, FL 32707",
    "location": "Dixie"
  },
  {
    "name": "Digital Marketing Agency Design",
    "description": "Marketing Consultants",
    "phone": "(689) 263-0194",
    "address": "908 Red Fox Rd  Altamonte Springs, FL 32714",
    "location": "Dixie"
  },
  {
    "name": "Lift Off Marketing",
    "description": "Marketing Consultants",
    "phone": "(321) 972-5298",
    "address": "2601 Wells Ave  Fern Park, FL 32730",
    "location": "Dixie"
  },
  {
    "name": "Maplestreetinc.com",
    "description": "Internet Marketing & Advertising",
    "phone": "(321) 214-1776",
    "address": "280 Wekiva Springs Rd  Longwood, FL 32779",
    "location": "Dixie"
  },
  {
    "name": "Gsm",
    "description": "Marketing Consultants",
    "phone": "(407) 786-5075",
    "address": "407 Wekiva Springs Rd  Longwood, FL 32779",
    "location": "Dixie"
  },
  {
    "name": "Amp Marketing Partners",
    "description": "Management Training",
    "phone": "(407) 401-9661",
    "address": "407 Wekiva Springs Rd  Longwood, FL 32779",
    "location": "Dixie"
  },
  {
    "name": "Product Insights",
    "description": "Market Research & Analysis",
    "phone": "(407) 774-6165",
    "address": "365 Wekiva Springs Rd Ste 201  Longwood, FL 32779",
    "location": "Dixie"
  },
  {
    "name": "Push Button Productions",
    "description": "Advertising Agencies",
    "phone": "(888) 494-7874",
    "address": "815 Orienta Ave Ste 1060  Altamonte Springs, FL 32701",
    "location": "Dixie"
  },
  {
    "name": "Azir Spares, Inc.",
    "description": "Directory & Guide Advertising",
    "phone": "(844) 267-2235",
    "address": "1070 Montgomery Rd PMB 509  Altamonte Springs, FL 32714",
    "location": "Dixie"
  },
  {
    "name": "Copy Cat Copy Centers",
    "description": "Internet Marketing & Advertising",
    "phone": "(386) 218-6878",
    "address": "475 N Volusia Ave  Orange City, FL 32763",
    "location": "Dixie"
  },
  {
    "name": "Consulting By Summit L.L.C.",
    "description": "Marketing Consultants",
    "phone": "(855) 503-1031",
    "address": "5840 Red Bug Lake Rd  Winter Springs, FL 32708",
    "location": "Dixie"
  },
  {
    "name": "Adsrate Marketing Services",
    "description": "Internet Marketing & Advertising",
    "phone": "(407) 960-5953",
    "address": "1070 Montgomery Rd #2021  Altamonte Springs, FL 32714",
    "location": "Dixie"
  },
  {
    "name": "A Proseo Web Marketing Solutions of Orlando",
    "description": "Marketing Consultants",
    "phone": "(407) 909-0300",
    "address": "5703 Red Bug Lake Rd  Winter Springs, FL 32708",
    "location": "Dixie"
  },
  {
    "name": "Content and Concepts",
    "description": "Internet Marketing & Advertising",
    "phone": "(954) 471-8432",
    "address": "6 Winding Ridge Rd  Casselberry, FL 32707",
    "location": "Dixie"
  },
  {
    "name": "Yuppify",
    "description": "Web Site Hosting",
    "phone": "(407) 761-6952",
    "address": "814 Agnes Dr  Altamonte Springs, FL 32701",
    "location": "Dixie"
  },
  {
    "name": "LKW Consulting",
    "description": "Business Coaches & Consultants",
    "phone": "(321) 972-3932",
    "address": "658 Douglas Ave  Altamonte Springs, FL 32714",
    "location": "Dixie"
  },
  {
    "name": "LWG Social Media Marketing",
    "description": "Marketing Consultants",
    "phone": "(321) 972-3932",
    "address": "658 Douglas Ave  Altamonte Springs, FL 32714",
    "location": "Dixie"
  },
  {
    "name": "Media Marketing",
    "description": "Marketing Consultants",
    "phone": "(407) 831-7602",
    "address": "200 Maitland Ave  Altamonte Springs, FL 32701",
    "location": "Dixie"
  },
  {
    "name": "Hit Or Click Marketing",
    "description": "Internet Marketing & Advertising",
    "phone": "(407) 326-8188",
    "address": "3190 Howard Ave  Oviedo, FL 32765",
    "location": "Dixie"
  },
  {
    "name": "Jade Marketing Inc",
    "description": "Marketing Consultants",
    "phone": "(407) 682-6900",
    "address": "223 Altamonte Commerce Blvd Ste 1310  Altamonte Springs, FL 32714",
    "location": "Dixie"
  },
  {
    "name": "Rolcc.net",
    "description": "Internet Marketing & Advertising",
    "phone": "(408) 260-0257",
    "address": "1498 Palomino Way  Oviedo, FL 32765",
    "location": "Dixie"
  },
  {
    "name": "Moog Marketing",
    "description": "Marketing Consultants",
    "phone": "(407) 324-3313",
    "address": "1515 Saddle Run Dr  Osteen, FL 32764",
    "location": "Dixie"
  },
  {
    "name": "Magnet Minds, LLC",
    "description": "Internet Consultants",
    "phone": "(407) 583-6463",
    "address": "5200 Lazy Oaks Dr  Winter Park, FL 32792",
    "location": "Dixie"
  },
  {
    "name": "XeoDev",
    "description": "Computer Software Publishers & Developers",
    "phone": "(407) 547-2684",
    "address": "3505 Lake Lynda Dr #200  Orlando, FL 32817",
    "location": "Dixie"
  },
  {
    "name": "MP advertising.com",
    "description": "Advertising Agencies",
    "phone": "(407) 324-3255",
    "address": "PO Box 3052 E. Jefferson Street  Orlando, FL 32802",
    "location": "Dixie"
  },
  {
    "name": "Cutco Cutlery",
    "description": "Cutlery",
    "phone": "(407) 250-5112",
    "address": "10244 E Colonial Dr Ste 210  Orlando, FL 32817",
    "location": "Dixie"
  },
  {
    "name": "Harbot Promotional Solutions",
    "description": "Advertising-Promotional Products",
    "phone": "(407) 252-7796",
    "address": "406 South St  Fern Park, FL 32730",
    "location": "Dixie"
  },
  {
    "name": "Hatchet Design",
    "description": "Marketing Consultants",
    "phone": "(407) 339-2917",
    "address": "251 Maitland Ave  Altamonte Springs, FL 32701",
    "location": "Dixie"
  },
  {
    "name": "Marketing Configurations",
    "description": "Marketing Consultants",
    "phone": "(407) 788-7538",
    "address": "640 Douglas Ave  Altamonte Springs, FL 32714",
    "location": "Dixie"
  },
  {
    "name": "Allegra Marketing Print Mail",
    "description": "Direct Mail Advertising",
    "phone": "(407) 869-9955",
    "address": "620 Douglas Ave Ste 1308  Altamonte Springs, FL 32714",
    "location": "Dixie"
  },
  {
    "name": "Global Consumer Direct",
    "description": "Marketing Consultants",
    "phone": "(407) 388-0775",
    "address": "1073 Willa Springs Dr  Winter Springs, FL 32708",
    "location": "Dixie"
  },
  {
    "name": "Marketing and Professional Services",
    "description": "Marketing Consultants",
    "phone": "(386) 774-4518",
    "address": "550 Foothill Farms Rd  Orange City, FL 32763",
    "location": "Dixie"
  },
  {
    "name": "Jigwiz Media",
    "description": "Internet Marketing & Advertising",
    "phone": "(800) 961-8330",
    "address": "260 Maitland Ave Ste 2500  Altamonte Springs, FL 32701",
    "location": "Dixie"
  },
  {
    "name": "Affordable Display Products, Inc.",
    "description": "Advertising Specialties",
    "phone": "(866) 550-0656",
    "address": "285 W Central Parkway Suite 1726  Altamonte Springs, FL 32714",
    "location": "Dixie"
  },
  {
    "name": "Atlantic Services Group",
    "description": "Marketing Consultants",
    "phone": "(407) 814-7178",
    "address": "1033 State Road 436 Ste 233  Casselberry, FL 32707",
    "location": "Dixie"
  },
  {
    "name": "KOBALT MEDIA",
    "description": "Internet Directories",
    "phone": "(407) 579-5095",
    "address": "285 Uptown Blvd  Altamonte Springs, FL 32701",
    "location": "Dixie"
  },
  {
    "name": "Response Media Products",
    "description": "Marketing Consultants",
    "phone": "(407) 862-3500",
    "address": "455 Douglas Ave  Altamonte Springs, FL 32714",
    "location": "Dixie"
  },
  {
    "name": "Zebra Marketing",
    "description": "Marketing Consultants",
    "phone": "(407) 786-5652",
    "address": "445 Douglas Ave Ste 200519  Altamonte Springs, FL 32714",
    "location": "Dixie"
  },
  {
    "name": "Go Digital Advertising",
    "description": "Internet Marketing & Advertising",
    "phone": "(407) 497-7198",
    "address": "2735 W State Road 434  Longwood, FL 32779",
    "location": "Dixie"
  },
  {
    "name": "Paradysz",
    "description": "Marketing Consultants",
    "phone": "(800) 557-6782",
    "address": "385 Douglas Ave Ste 2050  Altamonte Springs, FL 32714",
    "location": "Dixie"
  },
  {
    "name": "Priority Sales Co",
    "description": "Marketing Consultants",
    "phone": "(407) 869-9466",
    "address": "2925 W State Road 434  Longwood, FL 32779",
    "location": "Dixie"
  },
  {
    "name": "Web Resource Management",
    "description": "Web Site Design & Services",
    "phone": "(407) 389-4300",
    "address": "2957 W State Road 434 Ste 100  Longwood, FL 32779",
    "location": "Dixie"
  },
  {
    "name": "Digital Marketing",
    "description": "Computer Software Publishers & Developers",
    "phone": "(407) 478-3221",
    "address": "1909 Hibiscus Ln  Maitland, FL 32751",
    "location": "Dixie"
  },
  {
    "name": "Pg Solutions",
    "description": "Advertising-Promotional Products",
    "phone": "(407) 677-1107",
    "address": "682 Youngstown Pkwy  Altamonte Springs, FL 32714",
    "location": "Dixie"
  },
  {
    "name": "ETC Marketing",
    "description": "Marketing Consultants",
    "phone": "(877) 992-1313",
    "address": "217 N Westmonte Dr Ste 2014  Altamonte Springs, FL 32714",
    "location": "Dixie"
  },
  {
    "name": "Five Fold Media",
    "description": "Marketing Consultants",
    "phone": "(407) 341-3717",
    "address": "1280 Manchester Rd  Maitland, FL 32751",
    "location": "Dixie"
  },
  {
    "name": "Rd Marketing Group Inc",
    "description": "Marketing Consultants",
    "phone": "(407) 332-4748",
    "address": "1211 State Road 436  Casselberry, FL 32707",
    "location": "Dixie"
  },
  {
    "name": "Prestige Solutions, Inc",
    "description": "Marketing Consultants",
    "phone": "(407) 478-3232",
    "address": "1211 State Road 436 Ste 115  Casselberry, FL 32707",
    "location": "Dixie"
  },
  {
    "name": "American Marketing Development",
    "description": "Marketing Consultants",
    "phone": "(407) 998-5350",
    "address": "150 N Westmonte Dr  Altamonte Springs, FL 32714",
    "location": "Dixie"
  },
  {
    "name": "SkyDrone1, Inc.",
    "description": "Aerial Photographers",
    "phone": "(407) 978-5000",
    "address": "Douglas Ave.  Altamonte Springs, FL 32714",
    "location": "Dixie"
  },
  {
    "name": "Diversified Exposure Inc",
    "description": "Marketing Consultants",
    "phone": "(407) 788-3006",
    "address": "101 Wymore Rd  Altamonte Springs, FL 32714",
    "location": "Dixie"
  },
  {
    "name": "Brands That Last",
    "description": "Internet Marketing & Advertising",
    "phone": "(407) 353-0632",
    "address": "524 Springcreek Dr  Longwood, FL 32779",
    "location": "Dixie"
  },
  {
    "name": "Cannon Virtual Assistants",
    "description": "Internet Marketing & Advertising",
    "phone": "(386) 463-0700",
    "address": "1452 9th ST  Orange City, FL 32763",
    "location": "Dixie"
  },
  {
    "name": "Ali Rand Websites",
    "description": "Web Site Design & Services",
    "phone": "(786) 294-2633",
    "address": "410 Augustine Ct  Oviedo, FL 32765",
    "location": "Dixie"
  },
  {
    "name": "Orlando SEO Expert | Washeen, FL",
    "description": "Internet Marketing & Advertising",
    "phone": "(407) 205-9083",
    "address": "2441 Lake Vista Ct  Casselberry, FL 32707",
    "location": "Dixie"
  },
  {
    "name": "University of Phoenix Florida",
    "description": "Market Research & Analysis",
    "phone": "(407) 667-0555",
    "address": "2600 Lake Howell Ln  Winter Park, FL 32792",
    "location": "Dixie"
  },
  {
    "name": "Clickable Impact, Inc.",
    "description": "Internet Marketing & Advertising",
    "phone": "(407) 399-9811",
    "address": "250 Lake Seminary Cir  Maitland, FL 32751",
    "location": "Dixie"
  },
  {
    "name": "Consumer Connections Corp",
    "description": "Market Research & Analysis",
    "phone": "(407) 862-1174",
    "address": "718 Northlake Blvd  Altamonte Springs, FL 32701",
    "location": "Dixie"
  },
  {
    "name": "The Kitchens Group",
    "description": "Market Research & Analysis",
    "phone": "(407) 622-0210",
    "address": "260 Lookout Pl Ste 106  Maitland, FL 32751",
    "location": "Dixie"
  },
  {
    "name": "Timeshares By Owner Of Orlando",
    "description": "Internet Marketing & Advertising",
    "phone": "(407) 671-9001",
    "address": "1454 State Road 436  Casselberry, FL 32707",
    "location": "Dixie"
  },
  {
    "name": "Www.appsmartinc.com",
    "description": "Internet Marketing & Advertising",
    "phone": "(407) 617-8090",
    "address": "407 Lake Howell Rd  Maitland, FL 32751",
    "location": "Dixie"
  },
  {
    "name": "Resort Equity Marketing",
    "description": "Marketing Consultants",
    "phone": "(407) 682-3142",
    "address": "801 W State Road 436  Altamonte Springs, FL 32714",
    "location": "Dixie"
  },
  {
    "name": "H & R Marketing",
    "description": "Marketing Consultants",
    "phone": "(407) 332-4422",
    "address": "801 W State Road 436  Altamonte Springs, FL 32714",
    "location": "Dixie"
  },
  {
    "name": "Rhema Consulting & Associates",
    "description": "Business Coaches & Consultants",
    "phone": "(407) 865-6286",
    "address": "465 Citadel Dr  Altamonte Springs, FL 32714",
    "location": "Dixie"
  },
  {
    "name": "Data Development Corp",
    "description": "Market Research & Analysis",
    "phone": "(407) 645-3611",
    "address": "533 Versailles Dr Ste 200  Maitland, FL 32751",
    "location": "Dixie"
  },
  {
    "name": "Nostressbuyersforyourhouse.com",
    "description": "Internet Marketing & Advertising",
    "phone": "(386) 855-8740",
    "address": "3150 Tiburon Ln  Deltona, FL 32738",
    "location": "Dixie"
  },
  {
    "name": "RVR Business Management",
    "description": "Business Coaches & Consultants",
    "phone": "(407) 677-0400",
    "address": "1964 Howell Branch Rd  Winter Park, FL 32792",
    "location": "Dixie"
  },
  {
    "name": "Research Marketing",
    "description": "Marketing Consultants",
    "phone": "(321) 397-2310",
    "address": "1954 Howell Branch Rd  Winter Park, FL 32792",
    "location": "Dixie"
  },
  {
    "name": "Buying and Selling Orlando",
    "description": "Real Estate Referral & Information Service",
    "phone": "(404) 937-6283",
    "address": "2600 Barbados  Winter Park, FL 32792",
    "location": "Dixie"
  },
  {
    "name": "Stevens Associates",
    "description": "Advertising Specialties",
    "phone": "(407) 774-9991",
    "address": "400 Beech Tree Ln  Longwood, FL 32779",
    "location": "Dixie"
  },
  {
    "name": "Cristol Marketing Co",
    "description": "Marketing Consultants",
    "phone": "(407) 774-2515",
    "address": "237 N Hunt Club Blvd  Longwood, FL 32779",
    "location": "Dixie"
  },
  {
    "name": "Costa DeVault a wordwise company",
    "description": "Editorial & Publication Services",
    "phone": "(407) 657-4818",
    "address": "7719 Fox Knoll Pl  Winter Park, FL 32792",
    "location": "Dixie"
  },
  {
    "name": "Lnb Marketing",
    "description": "Marketing Consultants",
    "phone": "(321) 397-9049",
    "address": "1900 Howell Branch Rd  Winter Park, FL 32792",
    "location": "Dixie"
  },
  {
    "name": "Affiliate Summit Inc",
    "description": "Marketing Consultants",
    "phone": "(407) 636-7023",
    "address": "501 Sweetwater Club Cir  Longwood, FL 32779",
    "location": "Dixie"
  },
  {
    "name": "R.T.P Marketing - Rock The Pavement Marketing",
    "description": "Internet Marketing & Advertising",
    "phone": "(386) 400-3986",
    "address": "3072 Courtland Blvd  Deltona, FL 32738",
    "location": "Dixie"
  },
  {
    "name": "Bravo Select Marketing",
    "description": "Marketing Consultants",
    "phone": "(407) 674-5597",
    "address": "5535 Canteen Ct  Oviedo, FL 32765",
    "location": "Dixie"
  },
  {
    "name": "ClearView Research- Orlando",
    "description": "Market Research & Analysis",
    "phone": "(407) 671-3344",
    "address": "5450 Lake Howell Rd  Winter Park, FL 32792",
    "location": "Dixie"
  },
  {
    "name": "Gsi Commerce",
    "description": "Marketing Consultants",
    "phone": "(407) 681-4078",
    "address": "2761 Chaddsford Cir  Oviedo, FL 32765",
    "location": "Dixie"
  },
  {
    "name": "I3 Media Group",
    "description": "Marketing Consultants",
    "phone": "(407) 865-6421",
    "address": "1101 N Lake Destiny Rd  Maitland, FL 32751",
    "location": "Dixie"
  },
  {
    "name": "Blackwood Indus Tries Inc",
    "description": "Marketing Consultants",
    "phone": "(321) 972-6852",
    "address": "1101 N Lake Destiny Rd  Maitland, FL 32751",
    "location": "Dixie"
  },
  {
    "name": "All In One Branding",
    "description": "Web Site Design & Services",
    "phone": "(407) 903-6005",
    "address": "2789 Wrights Rd Ste 1025  Oviedo, FL 32765",
    "location": "Dixie"
  },
  {
    "name": "TCreative, Inc.",
    "description": "Desktop Publishing Service",
    "phone": "(407) 628-1772",
    "address": "2789 Wrights Rd STE 1021  Oviedo, FL 32765",
    "location": "Dixie"
  },
  {
    "name": "BFG Communication",
    "description": "Marketing Consultants",
    "phone": "(407) 772-8143",
    "address": "225 S Swoope Ave  Maitland, FL 32751",
    "location": "Dixie"
  },
  {
    "name": "LaBeau Media",
    "description": "Internet Marketing & Advertising",
    "phone": "(561) 440-3839",
    "address": "PO Box 947762  Maitland, FL 32794",
    "location": "Dixie"
  },
  {
    "name": "International Promotional",
    "description": "Advertising-Promotional Products",
    "phone": "(407) 786-4233",
    "address": "925 Sunshine Ln  Altamonte Springs, FL 32714",
    "location": "Dixie"
  },
  {
    "name": "Anchor Promotional Merchandise",
    "description": "Advertising-Promotional Products",
    "phone": "(407) 831-4233",
    "address": "925 Sunshine Ln Ste 1040  Altamonte Springs, FL 32714",
    "location": "Dixie"
  },
  {
    "name": "Travel Media Group",
    "description": "Marketing Consultants",
    "phone": "(407) 673-6123",
    "address": "851 Trafalgar Ct Ste 400e  Maitland, FL 32751",
    "location": "Dixie"
  },
  {
    "name": "PM Global Marketing Inc",
    "description": "Marketing Consultants",
    "phone": "(800) 245-4493",
    "address": "1060 Maitland Center Commons Blvd  Maitland, FL 32751",
    "location": "Dixie"
  },
  {
    "name": "Schlesinger Associates South Inc",
    "description": "Market Research & Analysis",
    "phone": "(407) 660-1808",
    "address": "1065 Maitland Center Commons Blvd  Maitland, FL 32751",
    "location": "Dixie"
  },
  {
    "name": "Innovate Writing",
    "description": "Copy Writers",
    "phone": "(407) 268-1269",
    "address": "PO Box 1702  Goldenrod, FL 32733",
    "location": "Dixie"
  },
  {
    "name": "USA Direct Marketing",
    "description": "Marketing Consultants",
    "phone": "(407) 678-7750",
    "address": "7601 Citrus Ave  Winter Park, FL 32792",
    "location": "Dixie"
  },
  {
    "name": "Six Degrees Marketing Insights and Creative Inc",
    "description": "Marketing Consultants",
    "phone": "(407) 644-1596",
    "address": "630 S Maitland Ave  Maitland, FL 32751",
    "location": "Dixie"
  },
  {
    "name": "Brand Comet",
    "description": "Marketing Consultants",
    "phone": "(407) 622-1993",
    "address": "1691 Chestnut Ave  Winter Park, FL 32789",
    "location": "Dixie"
  },
  {
    "name": "X Studios Inc.",
    "description": "Internet Marketing & Advertising",
    "phone": "(321) 281-1708",
    "address": "2700 Westhall Ln Ste 225  Maitland, FL 32751",
    "location": "Dixie"
  },
  {
    "name": "Bacon Digital",
    "description": "Internet Marketing & Advertising",
    "phone": "(321) 226-8396",
    "address": "924 Bishop Park Ct  Winter Park, FL 32792",
    "location": "Dixie"
  },
  {
    "name": "Kaboom Marketing Inc",
    "description": "Marketing Consultants",
    "phone": "(407) 741-8555",
    "address": "1551 Sandspur Rd  Maitland, FL 32751",
    "location": "Dixie"
  },
  {
    "name": "iHeartMedia",
    "description": "Advertising Agencies",
    "phone": "(407) 916-7800",
    "address": "2500 Maitland Center Pkwy  Maitland, FL 32751",
    "location": "Dixie"
  },
  {
    "name": "A Fox Promotions",
    "description": "Advertising-Promotional Products",
    "phone": "(407) 539-1969",
    "address": "1131 Willa Vista Trl  Maitland, FL 32751",
    "location": "Dixie"
  },
  {
    "name": "Southern Cross Media LLC",
    "description": "Internet Marketing & Advertising",
    "phone": "(321) 356-5350",
    "address": "903 lake Lily Dr. A 322  Maitland, FL 32751",
    "location": "Dixie"
  },
  {
    "name": "ActivEngage, Inc.",
    "description": "Computer Software Publishers & Developers",
    "phone": "(321) 441-7722",
    "address": "2701 Maitland Center Pkwy  Maitland, FL 32751",
    "location": "Dixie"
  },
  {
    "name": "Flip.to",
    "description": "Marketing Consultants",
    "phone": "(407) 287-6122",
    "address": "2600 Maitland Center Pkwy Ste 100  Maitland, FL 32751",
    "location": "Dixie"
  },
  {
    "name": "All Out Digital Media",
    "description": "Internet Marketing & Advertising",
    "phone": "(407) 267-9463",
    "address": "**********************  Winter Park, FL 32792",
    "location": "Dixie"
  },
  {
    "name": "Tezz",
    "description": "Marketing Consultants",
    "phone": "(407) 603-6477",
    "address": "1717 Pine Ave  Winter Park, FL 32789",
    "location": "Dixie"
  },
  {
    "name": "Web Design Deland",
    "description": "Web Site Design & Services",
    "phone": "(386) 690-5581",
    "address": "2170 Deerfoot Trl  Deland, FL 32720",
    "location": "Dixie"
  },
  {
    "name": "Dex",
    "description": "Publishers-Directory & Guide",
    "phone": "(407) 875-6000",
    "address": "500 Winderley Pl Ste 300  Maitland, FL 32751",
    "location": "Dixie"
  },
  {
    "name": "Six Degrees Marketing Sites & CRTV",
    "description": "Marketing Consultants",
    "phone": "(407) 644-1596",
    "address": "1951 Palmer Ave  Winter Park, FL 32792",
    "location": "Dixie"
  },
  {
    "name": "Sterling Marketing Group",
    "description": "Marketing Consultants",
    "phone": "(407) 677-0215",
    "address": "7319 Sandscove Ct Ste 7  Winter Park, FL 32792",
    "location": "Dixie"
  },
  {
    "name": "AnswerSearch",
    "description": "Market Research & Analysis",
    "phone": "(407) 677-5939",
    "address": "10057 Chesham Dr  Orlando, FL 32817",
    "location": "Dixie"
  },
  {
    "name": "Caribbean Finder",
    "description": "Marketing Consultants",
    "phone": "(407) 310-0058",
    "address": "522 S Hunt Club Blvd  Apopka, FL 32703",
    "location": "Dixie"
  },
  {
    "name": "Reach Local",
    "description": "Marketing Consultants",
    "phone": "(321) 422-6628",
    "address": "1900 Summit Tower Blvd Ste 240  Orlando, FL 32810",
    "location": "Dixie"
  },
  {
    "name": "Amdahl Corp",
    "description": "Market Research & Analysis",
    "phone": "(407) 661-1600",
    "address": "1900 Summit Tower Blvd  Orlando, FL 32810",
    "location": "Dixie"
  },
  {
    "name": "YP Marketing Solutions",
    "description": "Directory & Guide Advertising",
    "phone": "(407) 896-7325",
    "address": "258 Southhall Ln Ste 106  Maitland, FL 32751",
    "location": "Dixie"
  },
  {
    "name": "Consumer Connections Corporation",
    "description": "Market Research & Analysis",
    "phone": "(407) 862-1174",
    "address": "3101 E Semoran Blvd  Apopka, FL 32703",
    "location": "Dixie"
  },
  {
    "name": "The SoundHQ",
    "description": "Internet Marketing & Advertising",
    "phone": "(407) 451-1702",
    "address": "3040 Aloma Ave Apt H7  Winter Park, FL 32792",
    "location": "Dixie"
  },
  {
    "name": "Jobing.Com",
    "description": "Internet Marketing & Advertising",
    "phone": "(407) 367-4039",
    "address": "2290 Lucien Way  Maitland, FL 32751",
    "location": "Dixie"
  },
  {
    "name": "State of Florida Marketing & Development Division",
    "description": "Marketing Consultants",
    "phone": "(407) 648-6013",
    "address": "2290 Lucien Way Ste 300  Maitland, FL 32751",
    "location": "Dixie"
  },
  {
    "name": "Vertical Marketing Inc",
    "description": "Marketing Consultants",
    "phone": "(407) 667-4742",
    "address": "101 Southhall Ln  Maitland, FL 32751",
    "location": "Dixie"
  },
  {
    "name": "Deal N Sum",
    "description": "Internet Marketing & Advertising",
    "phone": "(407) 463-6310",
    "address": "483 N Semoran Blvd Ste 205  Winter Park, FL 32792",
    "location": "Dixie"
  },
  {
    "name": "Brwncald.com",
    "description": "Internet Marketing & Advertising",
    "phone": "(407) 661-9500",
    "address": "2301 Lucien Way  Maitland, FL 32751",
    "location": "Dixie"
  },
  {
    "name": "R4Digital",
    "description": "Web Site Hosting",
    "phone": "(321) 946-0666",
    "address": "803 Trailwood Dr  Apopka, FL 32712",
    "location": "Dixie"
  },
  {
    "name": "Digitalad Ventures",
    "description": "Marketing Consultants",
    "phone": "(407) 205-2755",
    "address": "721 Jamestown Dr  Winter Park, FL 32792",
    "location": "Dixie"
  },
  {
    "name": "Fishpunt Design Studio",
    "description": "Internet Marketing & Advertising",
    "phone": "(407) 310-6433",
    "address": "2431 Aloma Ave Suite 219  Winter Park, FL 32792",
    "location": "Dixie"
  },
  {
    "name": "LocalListing Inc",
    "description": "Internet Marketing & Advertising",
    "phone": "(407) 478-5325",
    "address": "2431 Aloma Ave  Winter Park, FL 32792",
    "location": "Dixie"
  },
  {
    "name": "Trinity Marketing Inc",
    "description": "Marketing Consultants",
    "phone": "(407) 671-9600",
    "address": "2431 Aloma Ave  Winter Park, FL 32792",
    "location": "Dixie"
  },
  {
    "name": "Quality-Face-Mask.com",
    "description": "Internet Marketing & Advertising",
    "phone": "(234) 805-1407",
    "address": "4046 N Goldenrod Rd  Winter Park, FL 32792",
    "location": "Dixie"
  },
  {
    "name": "Catch 5 Direct",
    "description": "Marketing Consultants",
    "phone": "(407) 501-5327",
    "address": "4250 Alafaya Trl Ste 212-248  Oviedo, FL 32765",
    "location": "Dixie"
  },
  {
    "name": "Four Step Marketing Consultants",
    "description": "Marketing Consultants",
    "phone": "(386) 490-4025",
    "address": "1609 S State Road 15a Ste 6  Deland, FL 32720",
    "location": "Dixie"
  },
  {
    "name": "Riza Marketing",
    "description": "Internet Marketing & Advertising",
    "phone": "(407) 420-0366",
    "address": "8007 Plunkett Ave  Orlando, FL 32810",
    "location": "Dixie"
  },
  {
    "name": "Falk Research Associates",
    "description": "Marketing Consultants",
    "phone": "(407) 647-3333",
    "address": "1177 Louisiana Ave  Winter Park, FL 32789",
    "location": "Dixie"
  },
  {
    "name": "Austin Marketing",
    "description": "Marketing Consultants",
    "phone": "(407) 673-2520",
    "address": "7085 University Blvd  Winter Park, FL 32792",
    "location": "Dixie"
  },
  {
    "name": "Bombora Local",
    "description": "Video Production Services",
    "phone": "(321) 206-9977",
    "address": "7055 University Blvd  Winter Park, FL 32792",
    "location": "Dixie"
  },
  {
    "name": "Omnistar Interactive",
    "description": "Marketing Consultants",
    "phone": "(407) 358-7198",
    "address": "2421 Coolbrook Ct  Oviedo, FL 32766",
    "location": "Dixie"
  },
  {
    "name": "Touchpoll Inc",
    "description": "Market Research & Analysis",
    "phone": "(407) 647-7655",
    "address": "1870 Aloma Ave  Winter Park, FL 32789",
    "location": "Dixie"
  },
  {
    "name": "Boatdockstuff.com",
    "description": "Internet Marketing & Advertising",
    "phone": "(407) 679-2217",
    "address": "6450 University Blvd  Winter Park, FL 32792",
    "location": "Dixie"
  },
  {
    "name": "Patricia's Social",
    "description": "Marketing Consultants",
    "phone": "(407) 761-9297",
    "address": "1578 Carillon Park Dr  Oviedo, FL 32765",
    "location": "Dixie"
  },
  {
    "name": "Answersearch Inc",
    "description": "Market Research & Analysis",
    "phone": "(407) 677-5939",
    "address": "8745 Belter Dr  Orlando, FL 32817",
    "location": "Dixie"
  },
  {
    "name": "Www.unkldadi.com",
    "description": "Internet Marketing & Advertising",
    "phone": "(304) 216-7893",
    "address": "3017 U K Cir  Winter Park, FL 32792",
    "location": "Dixie"
  },
  {
    "name": "Image Proz",
    "description": "Internet Marketing & Advertising",
    "phone": "(407) 547-8005",
    "address": "1545 Hunters Stand Run  Oviedo, FL 32765",
    "location": "Dixie"
  },
  {
    "name": "Nubian Creations Marketing and Distributing Co",
    "description": "Marketing Consultants",
    "phone": "(407) 886-6637",
    "address": "514 Cheetah Trl  Apopka, FL 32712",
    "location": "Dixie"
  },
  {
    "name": "American Cancer Society",
    "description": "Market Research & Analysis",
    "phone": "(407) 423-2383",
    "address": "507 N New York Ave Ste 100  Winter Park, FL 32789",
    "location": "Dixie"
  },
  {
    "name": "Standardcall Inc",
    "description": "Market Research & Analysis",
    "phone": "(407) 678-2759",
    "address": "507 N New York Ave  Winter Park, FL 32789",
    "location": "Dixie"
  },
  {
    "name": "Lije' Management Industries",
    "description": "Product Design, Development & Marketing",
    "phone": "(407) 880-1925",
    "address": "466 Lake Bridge Ln  Apopka, FL 32703",
    "location": "Dixie"
  },
  {
    "name": "Marketing Sales Dynamics Inc",
    "description": "Marketing Consultants",
    "phone": "(321) 203-4728",
    "address": "629 Ellen Dr  Winter Park, FL 32789",
    "location": "Dixie"
  },
  {
    "name": "Keeping Tabs Inc",
    "description": "Market Research & Analysis",
    "phone": "(407) 571-1475",
    "address": "280 W Canton Ave  Winter Park, FL 32789",
    "location": "Dixie"
  },
  {
    "name": "Mystery Guest Inc",
    "description": "Market Research & Analysis",
    "phone": "(407) 599-5251",
    "address": "280 W Canton Ave  Winter Park, FL 32789",
    "location": "Dixie"
  },
  {
    "name": "Thepersonalinjurychampion.com",
    "description": "Internet Marketing & Advertising",
    "phone": "(407) 647-4010",
    "address": "1801 Lee Rd  Winter Park, FL 32789",
    "location": "Dixie"
  },
  {
    "name": "Qyhvzb.com",
    "description": "Internet Marketing & Advertising",
    "phone": "(203) 679-9499",
    "address": "300 N New York Ave  Winter Park, FL 32790",
    "location": "Dixie"
  },
  {
    "name": "K & O Marketing Inc",
    "description": "Marketing Consultants",
    "phone": "(407) 218-2647",
    "address": "7510 Park Promenade Dr  Winter Park, FL 32792",
    "location": "Dixie"
  },
  {
    "name": "RGC Marketing",
    "description": "Marketing Consultants",
    "phone": "(407) 758-3029",
    "address": "2809 Bower Rd  Winter Park, FL 32792",
    "location": "Dixie"
  },
  {
    "name": "Outside the Box Marketing",
    "description": "Marketing Consultants",
    "phone": "(407) 900-6421",
    "address": "3505 Lake Lynda Dr Ste 200  Orlando, FL 32817",
    "location": "Dixie"
  },
  {
    "name": "MARSH8",
    "description": "Internet Marketing & Advertising",
    "phone": "(407) 255-2064",
    "address": "2221 Lee Rd Ste 22  Winter Park, FL 32789",
    "location": "Dixie"
  },
  {
    "name": "Bayhill Partners",
    "description": "Marketing Consultants",
    "phone": "(407) 644-0878",
    "address": "2221 Lee Rd Ste 27  Winter Park, FL 32789",
    "location": "Dixie"
  },
  {
    "name": "Solstice Marketing Concepts",
    "description": "Marketing Consultants",
    "phone": "(407) 647-4509",
    "address": "102 S Park Ave  Winter Park, FL 32789",
    "location": "Dixie"
  },
  {
    "name": "Node Internet Marketing",
    "description": "Internet Marketing & Advertising",
    "phone": "(813) 438-0288",
    "address": "4266 West Plaza Drive, #661315  Orlando, FL 32816",
    "location": "Dixie"
  },
  {
    "name": "Candace Crowe Design",
    "description": "Advertising Agencies",
    "phone": "(407) 384-7676",
    "address": "3452 Lake Lynda Dr  Orlando, FL 32817",
    "location": "Dixie"
  },
  {
    "name": "Infinite Labs Digital",
    "description": "Business Coaches & Consultants",
    "phone": "(407) 287-6687",
    "address": "131 S New York Ave Ste 131  Winter Park, FL 32789",
    "location": "Dixie"
  },
  {
    "name": "Stevens Elizabet",
    "description": "Marketing Consultants",
    "phone": "(239) 331-7632",
    "address": "151 S New York Ave  Winter Park, FL 32789",
    "location": "Dixie"
  },
  {
    "name": "Tttyrt.com",
    "description": "Internet Marketing & Advertising",
    "phone": "(662) 350-0579",
    "address": "3655 Lomond Ct  Apopka, FL 32712",
    "location": "Dixie"
  },
  {
    "name": "Bolt Signs and Marketing",
    "description": "Marketing Consultants",
    "phone": "(407) 865-7446",
    "address": "151 Semoran Commerce Pl Ste A  Apopka, FL 32703",
    "location": "Dixie"
  },
  {
    "name": "Image Graphics of Florida Inc",
    "description": "Graphic Designers",
    "phone": "(407) 679-8900",
    "address": "7006 Stapoint Ct  Winter Park, FL 32792",
    "location": "Dixie"
  },
  {
    "name": "Try Foods International Inc",
    "description": "Marketing Consultants",
    "phone": "(407) 884-8011",
    "address": "207 Semoran Commerce Pl  Apopka, FL 32703",
    "location": "Dixie"
  },
  {
    "name": "Homebasedbusinessdoc.com",
    "description": "Internet Marketing & Advertising",
    "phone": "(407) 961-2806",
    "address": "2500 Lee Rd  Winter Park, FL 32789",
    "location": "Dixie"
  },
  {
    "name": "Ballynacourty Group Inc",
    "description": "Market Research & Analysis",
    "phone": "(407) 644-0260",
    "address": "402 W Welbourne Ave  Winter Park, FL 32789",
    "location": "Dixie"
  },
  {
    "name": "Reputation Savior Inc",
    "description": "Advertising Agencies",
    "phone": "(800) 826-1372",
    "address": "1706 E Semoran Blvd Ste 112  Apopka, FL 32703",
    "location": "Dixie"
  },
  {
    "name": "Renterperks",
    "description": "Marketing Consultants",
    "phone": "(407) 442-0318",
    "address": "941 W Morse Blvd Ste 201  Winter Park, FL 32789",
    "location": "Dixie"
  },
  {
    "name": "Falk Research Associates, Inc.",
    "description": "Market Research & Analysis",
    "phone": "(407) 647-3333",
    "address": "941 W Morse Blvd  Winter Park, FL 32789",
    "location": "Dixie"
  },
  {
    "name": "Liu Laura W",
    "description": "Marketing Consultants",
    "phone": "(321) 277-6888",
    "address": "418 Pomona Dr  Apopka, FL 32712",
    "location": "Dixie"
  },
  {
    "name": "Jackson Hole Interprizes Inc",
    "description": "Marketing Consultants",
    "phone": "(407) 889-2244",
    "address": "392 Kentucky Blue Cir  Apopka, FL 32712",
    "location": "Dixie"
  },
  {
    "name": "BA Solutions",
    "description": "Market Research & Analysis",
    "phone": "(407) 286-2533",
    "address": "3340 Lake Jean Dr  Orlando, FL 32817",
    "location": "Dixie"
  },
  {
    "name": "Social Rock Fish",
    "description": "Marketing Consultants",
    "phone": "(407) 464-0955",
    "address": "620 Robin E Ln  Apopka, FL 32712",
    "location": "Dixie"
  },
  {
    "name": "Amland Marketing",
    "description": "Marketing Consultants",
    "phone": "(407) 215-2080",
    "address": "501 N Wymore Rd  Winter Park, FL 32789",
    "location": "Dixie"
  },
  {
    "name": "web printing signs .com",
    "description": "Internet Marketing & Advertising",
    "phone": "(407) 255-8878",
    "address": "2716 N Forsyth Rd Unit 102  Winter Park, FL 32792",
    "location": "Dixie"
  },
  {
    "name": "Com Marketing",
    "description": "Internet Marketing & Advertising",
    "phone": "(407) 774-4606",
    "address": "400 N Wymore Rd  Winter Park, FL 32789",
    "location": "Dixie"
  },
  {
    "name": "Leader Enterprises Inc",
    "description": "Business Coaches & Consultants",
    "phone": "(407) 645-4900",
    "address": "1101 N Kentucky Ave  Winter Park, FL 32789",
    "location": "Dixie"
  },
  {
    "name": "Premium Success Ventures",
    "description": "Marketing Consultants",
    "phone": "(800) 303-5676",
    "address": "1631 Rock Springs Rd Unit 153  Apopka, FL 32712",
    "location": "Dixie"
  },
  {
    "name": "Complete the Pair",
    "description": "Market Research & Analysis",
    "phone": "(407) 622-6007",
    "address": "1400 W Fairbanks Ave  Winter Park, FL 32789",
    "location": "Dixie"
  },
  {
    "name": "Asa Inc",
    "description": "Marketing Consultants",
    "phone": "(407) 629-6734",
    "address": "1041 Aragon Ave  Winter Park, FL 32789",
    "location": "Dixie"
  },
  {
    "name": "assurity for life",
    "description": "Annuities & Retirement Insurance Plans",
    "phone": "(800) 443-2059",
    "address": "9743 Winder Trl Ste A  Orlando, FL 32817",
    "location": "Dixie"
  },
  {
    "name": "Mobile Atom Media",
    "description": "Communication Consultants",
    "phone": "(407) 801-9640",
    "address": "943 Bungalow Ave  Winter Park, FL 32789",
    "location": "Dixie"
  },
  {
    "name": "Marketing Configurations Inc",
    "description": "Display Designers & Producers",
    "phone": "(407) 788-3070",
    "address": "2072 Sprint Blvd  Apopka, FL 32703",
    "location": "Dixie"
  },
  {
    "name": "Tiger Listing",
    "description": "Marketing Consultants",
    "phone": "(407) 517-8858",
    "address": "PO Box 551074  Orlando, FL 32855",
    "location": "Dixie"
  },
  {
    "name": "Millennium Sales & Marketing",
    "description": "Marketing Consultants",
    "phone": "(407) 478-2795",
    "address": "2020 W Fairbanks Ave  Winter Park, FL 32789",
    "location": "Dixie"
  },
  {
    "name": "Telachieve",
    "description": "Marketing Consultants",
    "phone": "(407) 644-6234",
    "address": "1121 Illinois St  Winter Park, FL 32789",
    "location": "Dixie"
  },
  {
    "name": "Afteractive LLC",
    "description": "Web Site Design & Services",
    "phone": "(407) 965-2115",
    "address": "12001 Research Pkwy Ste 236  Orlando, FL 32826",
    "location": "Dixie"
  },
  {
    "name": "Waterdamageorlandoflorida.com",
    "description": "Internet Marketing & Advertising",
    "phone": "(407) 501-8687",
    "address": "12001 Research Pkwy  Orlando, FL 32826",
    "location": "Dixie"
  },
  {
    "name": "Product Share Inc",
    "description": "Internet Marketing & Advertising",
    "phone": "(407) 632-0900",
    "address": "12001 Research Pkwy Ste 236  Orlando, FL 32826",
    "location": "Dixie"
  },
  {
    "name": "Blueprint Marketing",
    "description": "Marketing Consultants",
    "phone": "(407) 290-0044",
    "address": "3740 All American Blvd  Orlando, FL 32810",
    "location": "Dixie"
  },
  {
    "name": "Higherlife Development Services Inc",
    "description": "Marketing Consultants",
    "phone": "(407) 563-4806",
    "address": "3740 All American Blvd  Orlando, FL 32810",
    "location": "Dixie"
  },
  {
    "name": "Sciperio Inc",
    "description": "Market Research & Analysis",
    "phone": "(407) 275-4755",
    "address": "12151 Research Pkwy  Orlando, FL 32826",
    "location": "Dixie"
  },
  {
    "name": "Mydea Technologies Corp",
    "description": "Product Design, Development & Marketing",
    "phone": "(407) 737-1991",
    "address": "3251 Progress Dr  Orlando, FL 32826",
    "location": "Dixie"
  },
  {
    "name": "Picture Perfect 360",
    "description": "Internet Marketing & Advertising",
    "phone": "(407) 256-2980",
    "address": "5672 Century 21 Blvd Apt 38  Orlando, FL 32807",
    "location": "Dixie"
  },
  {
    "name": "Central Florida Media Solutions",
    "description": "Internet Marketing & Advertising",
    "phone": "(407) 614-7636",
    "address": "2538 Woods Edge Cir  Orlando, FL 32817",
    "location": "Dixie"
  },
  {
    "name": "7th Dynasty",
    "description": "Marketing Consultants",
    "phone": "(407) 520-3744",
    "address": "11640 Baltic St  Orlando, FL 32817",
    "location": "Dixie"
  },
  {
    "name": "Strong Point Research",
    "description": "Market Research & Analysis",
    "phone": "(407) 992-8582",
    "address": "12424 Research Pkwy Ste 135  Orlando, FL 32826",
    "location": "Dixie"
  },
  {
    "name": "High Energy Media Solutions",
    "description": "Web Site Hosting",
    "phone": "(407) 269-2035",
    "address": "1233 Ayrshire St  Orlando, FL 32803",
    "location": "Dixie"
  },
  {
    "name": "Omega Research Consultant",
    "description": "Research Services",
    "phone": "(407) 271-8030",
    "address": "324 E Par St  Orlando, FL 32804",
    "location": "Dixie"
  },
  {
    "name": "OptiView 360 Online Marketing & Entertainment",
    "description": "Internet Marketing & Advertising",
    "phone": "(407) 731-0767",
    "address": "7309 E Colonial Dr Suite 601  Orlando, FL 32807",
    "location": "Dixie"
  },
  {
    "name": "Own Social Media",
    "description": "Web Site Hosting",
    "phone": "(407) 346-3130",
    "address": "3320 deep water ct  orlando, FL 32826",
    "location": "Dixie"
  },
  {
    "name": "Marketing Concepts Unlimited",
    "description": "Marketing Consultants",
    "phone": "(407) 880-5090",
    "address": "2086 Cranberry Isles Way  Apopka, FL 32712",
    "location": "Dixie"
  },
  {
    "name": "Rich Dealers",
    "description": "Advertising Agencies",
    "phone": "(407) 275-8667",
    "address": "12802 Science Dr  Orlando, FL 32826",
    "location": "Dixie"
  },
  {
    "name": "Cascade Avenue",
    "description": "Business Coaches & Consultants",
    "phone": "(321) 236-0979",
    "address": "1701 Meeting Pl  orlando, FL 32814",
    "location": "Dixie"
  },
  {
    "name": "Shorty Produkshins",
    "description": "Interactive Media",
    "phone": "(407) 683-4141",
    "address": "2745 Hunt Club Ln  Orlando, FL 32826",
    "location": "Dixie"
  },
  {
    "name": "Texting Base, Inc.",
    "description": "Internet Marketing & Advertising",
    "phone": "(813) 464-0945",
    "address": "4767 New Broad St  Orlando, FL 32814",
    "location": "Dixie"
  },
  {
    "name": "McO Orlando",
    "description": "Marketing Consultants",
    "phone": "(407) 634-0882",
    "address": "4767 New Broad St  Orlando, FL 32814",
    "location": "Dixie"
  },
  {
    "name": "Web Science",
    "description": "Internet Marketing & Advertising",
    "phone": "(407) 473-4039",
    "address": "509 S Park Ave  Apopka, FL 32703",
    "location": "Dixie"
  },
  {
    "name": "Emedsolpvtltdiglobalcare.Com",
    "description": "Internet Marketing & Advertising",
    "phone": "(321) 206-8820",
    "address": "1360 Lake Baldwin Ln  Orlando, FL 32814",
    "location": "Dixie"
  },
  {
    "name": "Kr2h Marketing & Media",
    "description": "Marketing Consultants",
    "phone": "(407) 880-4488",
    "address": "PO Box 1070  Apopka, FL 32704",
    "location": "Dixie"
  },
  {
    "name": "LOOKLIVELUXE Group",
    "description": "Consultants Referral Service",
    "phone": "(407) 205-8545",
    "address": "51 E Orlando St Fl 32802  Orlando, FL 32804",
    "location": "Dixie"
  },
  {
    "name": "2MG Web Solutions",
    "description": "Internet Consultants",
    "phone": "(407) 766-5952",
    "address": "615 Hiawatha Overlook Dr  Apopka, FL 32712",
    "location": "Dixie"
  },
  {
    "name": "Wealth Funnel System",
    "description": "Internet Marketing & Advertising",
    "phone": "(407) 557-6912",
    "address": "1451 Falcon Dr  Orlando, FL 32803",
    "location": "Dixie"
  },
  {
    "name": "Cloud Platforms, Inc",
    "description": "Internet Consultants",
    "phone": "(407) 955-4880",
    "address": "1802 N Alafaya Trl # 229  Orlando, FL 32826",
    "location": "Dixie"
  },
  {
    "name": "Sprout Marketing Group",
    "description": "Internet Marketing & Advertising",
    "phone": "(407) 734-3533",
    "address": "1802 N Alafaya Trl  Orlando, FL 32826",
    "location": "Dixie"
  },
  {
    "name": "Igi Marketing Inc",
    "description": "Marketing Consultants",
    "phone": "(352) 735-2378",
    "address": "30050 County Road 437  Sorrento, FL 32776",
    "location": "Dixie"
  },
  {
    "name": "Precision Marketing & Consulting Services",
    "description": "Marketing Consultants",
    "phone": "(407) 889-8468",
    "address": "6919 Plymouth Sorrento Rd  Apopka, FL 32712",
    "location": "Dixie"
  },
  {
    "name": "Watauga Group",
    "description": "Internet Marketing & Advertising",
    "phone": "(407) 982-2696",
    "address": "1600 N Orange Ave Ste 13  Orlando, FL 32804",
    "location": "Dixie"
  },
  {
    "name": "On Tour Presents",
    "description": "Marketing Consultants",
    "phone": "(407) 843-1600",
    "address": "321 NE Ivanhoe Blvd  Orlando, FL 32804",
    "location": "Dixie"
  },
  {
    "name": "A & D Marketing",
    "description": "Marketing Consultants",
    "phone": "(407) 814-1918",
    "address": "319 Apopka Hills Cir  Apopka, FL 32703",
    "location": "Dixie"
  },
  {
    "name": "Free Online Advertising",
    "description": "Internet Marketing & Advertising",
    "phone": "(866) 238-5791",
    "address": "1875 Knight Ave  Orlando, FL 32826",
    "location": "Dixie"
  },
  {
    "name": "web printing signs",
    "description": "Internet Marketing & Advertising",
    "phone": "(407) 255-8878",
    "address": "13781 E Colonial Dr  Orlando, FL 32826",
    "location": "Dixie"
  },
  {
    "name": "Asi",
    "description": "Marketing Consultants",
    "phone": "(407) 889-7053",
    "address": "531 Drage Dr  Apopka, FL 32703",
    "location": "Dixie"
  },
  {
    "name": "Wright Digital",
    "description": "Internet Marketing & Advertising",
    "phone": "(407) 607-0222",
    "address": "14662 Lady Victoria Blvd  Orlando, FL 32826",
    "location": "Dixie"
  },
  {
    "name": "Visibility Pros",
    "description": "Internet Consultants",
    "phone": "(877) 781-2990",
    "address": "17154 Long Boat Ln  Orlando, FL 32820",
    "location": "Dixie"
  }
]
