[
  {
    "name": "Comergent Acquisition Group",
    "description": "Web Site Design & Services",
    "phone": "(904) 329-4003",
    "address": "13453 N Main St  Jacksonville, FL 32218",
    "location": "Duval"
  },
  {
    "name": "SD3 Marketing",
    "description": "Marketing Programs & Services",
    "phone": "(904) 437-6944",
    "address": "731 Duval Station Rd  Jacksonville, FL 32218",
    "location": "Duval"
  },
  {
    "name": "Protech Armored Products",
    "description": "Marketing Programs & Services",
    "phone": "(904) 741-5400",
    "address": "13386 International Pkwy  Jacksonville, FL 32218",
    "location": "Duval"
  },
  {
    "name": "Fidnatis",
    "description": "Marketing Programs & Services",
    "phone": "(904) 741-4548",
    "address": "14601 Whirlwind Ave  Jacksonville, FL 32218",
    "location": "Duval"
  },
  {
    "name": "Showers Financial Services",
    "description": "Marketing Programs & Services",
    "phone": "(904) 330-4051",
    "address": "11365 Blossom Ridge Dr  Jacksonville, FL 32218",
    "location": "Duval"
  },
  {
    "name": "CTI Marketing",
    "description": "Marketing Programs & Services",
    "phone": "(904) 329-7240",
    "address": "2255 Dunn Ave  Jacksonville, FL 32218",
    "location": "Duval"
  },
  {
    "name": "Success.Strategies.Digital Marketing",
    "description": "Marketing Programs & Services",
    "phone": "(404) 798-5728",
    "address": "12270 Crossfield Drive  Jacksonville, FL 32219",
    "location": "Duval"
  },
  {
    "name": "The Dempsey Foundation for Life",
    "description": "Marketing Programs & Services",
    "phone": "(904) 418-9096",
    "address": "2500 N Laura St  Jacksonville, FL 32206",
    "location": "Duval"
  },
  {
    "name": "Sun Media Group",
    "description": "Marketing Programs & Services",
    "phone": "(904) 595-7910",
    "address": "Po Box 3093  Jacksonville, FL 32206",
    "location": "Duval"
  },
  {
    "name": "Cross Media Marketing",
    "description": "Marketing Programs & Services",
    "phone": "(904) 735-4789",
    "address": "1915 Silver St  Jacksonville, FL 32206",
    "location": "Duval"
  },
  {
    "name": "Point Taken Communications",
    "description": "Marketing Programs & Services",
    "phone": "(904) 419-9216",
    "address": "1616 N Market St  Jacksonville, FL 32206",
    "location": "Duval"
  },
  {
    "name": "Mad Men Marketing",
    "description": "Marketing Programs & Services",
    "phone": "(904) 355-1766",
    "address": "301 E Bay St  Jacksonville, FL 32202",
    "location": "Duval"
  },
  {
    "name": "Daily Billboard",
    "description": "Marketing Programs & Services",
    "phone": "(904) 281-0000",
    "address": "221 Osceola St  Jacksonville, FL 32204",
    "location": "Duval"
  },
  {
    "name": "Genlee Marketing, Inc",
    "description": "Marketing Programs & Services",
    "phone": "(904) 745-1151",
    "address": "1305 Rogero Rd  Jacksonville, FL 32211",
    "location": "Duval"
  },
  {
    "name": "Anchor Digital Marketing",
    "description": "Marketing Programs & Services",
    "phone": "(904) 428-0500",
    "address": "6726 Arlington Expy  Jacksonville, FL 32211",
    "location": "Duval"
  },
  {
    "name": "Ingenuity Orthodontic Marketing",
    "description": "Marketing Programs & Services",
    "phone": "(904) 572-4462",
    "address": "220 E Forsyth St  Jacksonville, FL 32202",
    "location": "Duval"
  },
  {
    "name": "C 2C Innovative Solutions Inc",
    "description": "Marketing Programs & Services",
    "phone": "(904) 354-0762",
    "address": "301 W Bay St  Jacksonville, FL 32202",
    "location": "Duval"
  },
  {
    "name": "Vista Marketing Solutions",
    "description": "Marketing Programs & Services",
    "phone": "(904) 900-2244",
    "address": "301 W Bay St  Jacksonville, FL 32202",
    "location": "Duval"
  },
  {
    "name": "On Ideas Inc",
    "description": "Marketing Programs & Services",
    "phone": "(904) 354-2600",
    "address": "245 Riverside Ave  Jacksonville, FL 32202",
    "location": "Duval"
  },
  {
    "name": "Robin Shepherd Group Ths",
    "description": "Marketing Programs & Services",
    "phone": "(904) 359-0981",
    "address": "1301 Riverplace Blvd  Jacksonville, FL 32207",
    "location": "Duval"
  },
  {
    "name": "Ascension Marketing Services",
    "description": "Marketing Programs & Services",
    "phone": "(855) 965-3109",
    "address": "1301 Riverplace Blvd  Jacksonville, FL 32207",
    "location": "Duval"
  },
  {
    "name": "R & K Marketing Inc",
    "description": "Marketing Programs & Services",
    "phone": "(904) 745-0022",
    "address": "10539 Craig Industrial Dr  Jacksonville, FL 32225",
    "location": "Duval"
  },
  {
    "name": "Smith and Surrency",
    "description": "Marketing Programs & Services",
    "phone": "(904) 982-4915",
    "address": "1035 Kings Ave  Jacksonville, FL 32207",
    "location": "Duval"
  },
  {
    "name": "Thrive Internet Marketing Agency",
    "description": "Marketing Programs & Services",
    "phone": "(904) 337-6989",
    "address": "841 Prudential Dr 12th Fl  Jacksonville, FL 32207",
    "location": "Duval"
  },
  {
    "name": "Triad Marketing Corp",
    "description": "Marketing Programs & Services",
    "phone": "(904) 354-7425",
    "address": "620 Chelsea St  Jacksonville, FL 32204",
    "location": "Duval"
  },
  {
    "name": "Daco Worldwide Marketing Corp",
    "description": "Marketing Programs & Services",
    "phone": "(904) 642-8338",
    "address": "29 Monument Rd  Jacksonville, FL 32225",
    "location": "Duval"
  },
  {
    "name": "Marketing Genius",
    "description": "Marketing Programs & Services",
    "phone": "(866) 644-3327",
    "address": "9951 Atlantic Blvd  Jacksonville, FL 32225",
    "location": "Duval"
  },
  {
    "name": "Archer Marketing Group Inc",
    "description": "Marketing Programs & Services",
    "phone": "(904) 619-7613",
    "address": "101 Century 21 Dr  Jacksonville, FL 32216",
    "location": "Duval"
  },
  {
    "name": "Gross Strategic Marketing",
    "description": "Marketing Programs & Services",
    "phone": "(904) 565-2959",
    "address": "12220 Nettlecreek Dr  Jacksonville, FL 32225",
    "location": "Duval"
  },
  {
    "name": "Total Take Over",
    "description": "Marketing Programs & Services",
    "phone": "(904) 554-8415",
    "address": "3021 Belden St  Jacksonville, FL 32207",
    "location": "Duval"
  },
  {
    "name": "My People Social Media",
    "description": "Marketing Programs & Services",
    "phone": "(904) 853-1023",
    "address": "2216 Oak St # 2  Jacksonville, FL 32204",
    "location": "Duval"
  },
  {
    "name": "Think One Thing Strategic Marketing",
    "description": "Marketing Programs & Services",
    "phone": "(904) 515-2021",
    "address": "3674 Beach Blvd  Jacksonville, FL 32207",
    "location": "Duval"
  },
  {
    "name": "M Scott Marketing",
    "description": "Marketing Programs & Services",
    "phone": "(904) 374-6814",
    "address": "2120 Corporate Square Blvd  Jacksonville, FL 32216",
    "location": "Duval"
  },
  {
    "name": "Rayonier Inc",
    "description": "Marketing Programs & Services",
    "phone": "(904) 357-9100",
    "address": "1 Rayonier Way  Yulee, FL 32097",
    "location": "Duval"
  },
  {
    "name": "Thomas J Haas And Associates Inc",
    "description": "Marketing Programs & Services",
    "phone": "(904) 321-0751",
    "address": "4924 First Coast Hwy  Fernandina Beach, FL 32034",
    "location": "Duval"
  },
  {
    "name": "Americas Call Center",
    "description": "Marketing Programs & Services",
    "phone": "(844) 364-8923",
    "address": "7901 Baymeadows Way  Jacksonville, FL 32256",
    "location": "Duval"
  },
  {
    "name": "C B Marketing",
    "description": "Marketing Programs & Services",
    "phone": "(904) 619-8031",
    "address": "5525 Beach Blvd  Jacksonville, FL 32207",
    "location": "Duval"
  },
  {
    "name": "Green Dragon Marketing",
    "description": "Marketing Programs & Services",
    "phone": "(904) 318-3116",
    "address": "3117 Spring Glen Rd  Jacksonville, FL 32207",
    "location": "Duval"
  },
  {
    "name": "Prevention Marketing Alliance",
    "description": "Marketing Programs & Services",
    "phone": "(904) 874-9389",
    "address": "1513 Orlando Cir S  Jacksonville, FL 32207",
    "location": "Duval"
  },
  {
    "name": "Marketing Concepts Inc",
    "description": "Marketing Programs & Services",
    "phone": "(904) 398-0999",
    "address": "2302-1 Vinson Ln  Jacksonville, FL 32207",
    "location": "Duval"
  },
  {
    "name": "TSR Marketing Inc",
    "description": "Marketing Programs & Services",
    "phone": "(904) 502-3376",
    "address": "11240 Beach Blvd  Jacksonville, FL 32246",
    "location": "Duval"
  },
  {
    "name": "Cfi Marketing",
    "description": "Marketing Programs & Services",
    "phone": "(904) 387-0069",
    "address": "4554 Saint Johns Ave  Jacksonville, FL 32210",
    "location": "Duval"
  },
  {
    "name": "Brand Marketing Agency",
    "description": "Marketing Programs & Services",
    "phone": "(888) 818-9264",
    "address": "5510 Philips Hwy  Jacksonville, FL 32207",
    "location": "Duval"
  },
  {
    "name": "Pgs Marketing",
    "description": "Marketing Programs & Services",
    "phone": "(904) 518-4338",
    "address": "11555 Central Pkwy  Jacksonville, FL 32224",
    "location": "Duval"
  },
  {
    "name": "R & K Marketing, Inc",
    "description": "Marketing Programs & Services",
    "phone": "(904) 745-0022",
    "address": "11657 Central Pkwy  Jacksonville, FL 32224",
    "location": "Duval"
  },
  {
    "name": "Folio Weekly",
    "description": "Marketing Programs & Services",
    "phone": "(904) 260-9770",
    "address": "3653 Regent Blvd  Jacksonville, FL 32224",
    "location": "Duval"
  },
  {
    "name": "Inherent Knowledge, LLC",
    "description": "Marketing Programs & Services",
    "phone": "(419) 466-1234",
    "address": "9727 Touchton Rd Apt 1019  Jacksonville, FL 32246",
    "location": "Duval"
  },
  {
    "name": "Teleconnect Marketing Inc",
    "description": "Marketing Programs & Services",
    "phone": "(904) 619-9448",
    "address": "6120 Powers Ave  Jacksonville, FL 32217",
    "location": "Duval"
  },
  {
    "name": "Blue Pearl Fox",
    "description": "Marketing Programs & Services",
    "phone": "(904) 420-7031",
    "address": "6271 Saint Augustine Rd  Jacksonville, FL 32217",
    "location": "Duval"
  },
  {
    "name": "Barrios Marketing",
    "description": "Marketing Programs & Services",
    "phone": "(904) 619-5203",
    "address": "6316 San Juan Ave Ste 12  Jacksonville, FL 32210",
    "location": "Duval"
  },
  {
    "name": "Acosta, Inc",
    "description": "Marketing Programs & Services",
    "phone": "(904) 281-9800",
    "address": "6600 Corporate Center Pkwy  Jacksonville, FL 32216",
    "location": "Duval"
  },
  {
    "name": "Bill Gates Marketing",
    "description": "Marketing Programs & Services",
    "phone": "(904) 635-6200",
    "address": "4150 Belfort Rd  Jacksonville, FL 32255",
    "location": "Duval"
  },
  {
    "name": "Vizergy- Digital Travel Marketing",
    "description": "Marketing Programs & Services",
    "phone": "(904) 389-1130",
    "address": "4237 Salisbury Rd Ste 205  Jacksonville, FL 32216",
    "location": "Duval"
  },
  {
    "name": "Second Floor Marketing",
    "description": "Marketing Programs & Services",
    "phone": "(904) 551-1459",
    "address": "6736 La Loma Dr  Jacksonville, FL 32217",
    "location": "Duval"
  },
  {
    "name": "RMI Florida",
    "description": "Marketing Programs & Services",
    "phone": "(904) 432-5701",
    "address": "4500 Salisbury Rd Ste 310  Jacksonville, FL 32216",
    "location": "Duval"
  },
  {
    "name": "PassiveonlineIncome!",
    "description": "Marketing Programs & Services",
    "phone": "(904) 210-5059",
    "address": "10000 Gate Pkwy N  Jacksonville, FL 32246",
    "location": "Duval"
  },
  {
    "name": "Lisa Cotter Marketing Communications",
    "description": "Marketing Programs & Services",
    "phone": "(904) 446-8739",
    "address": "10000 Gate Pkwy N Apt 1613  Jacksonville, FL 32246",
    "location": "Duval"
  },
  {
    "name": "Florida Blue",
    "description": "Marketing Programs & Services",
    "phone": "(904) 791-6111",
    "address": "4800 Deerwood Campus Pkwy  Jacksonville, FL 32246",
    "location": "Duval"
  },
  {
    "name": "Craimark Studios, Inc",
    "description": "Marketing Programs & Services",
    "phone": "(904) 265-8122",
    "address": "6950 Philips Hwy – Suite 38  Jacksonville, FL 32256",
    "location": "Duval"
  },
  {
    "name": "Web Marketing Pros",
    "description": "Marketing Programs & Services",
    "phone": "(800) 771-2909",
    "address": "2746 Grayton Ct  Jacksonville, FL 32224",
    "location": "Duval"
  },
  {
    "name": "Government Marketing Associates",
    "description": "Marketing Programs & Services",
    "phone": "(904) 992-4141",
    "address": "12964 Biggin Church Rd S  Jacksonville, FL 32224",
    "location": "Duval"
  },
  {
    "name": "Gee Group Inc",
    "description": "Marketing Programs & Services",
    "phone": "(630) 954-0400",
    "address": "7751 Belfort Pkwy  Jacksonville, FL 32256",
    "location": "Duval"
  },
  {
    "name": "Evergreen Sales and Marketing Services, Inc.",
    "description": "Marketing Programs & Services",
    "phone": "(904) 296-0550",
    "address": "8120 Nations Way Bldg 200  Jacksonville, FL 32256",
    "location": "Duval"
  },
  {
    "name": "The Legal Marketing Company",
    "description": "Marketing Programs & Services",
    "phone": "(904) 385-9124",
    "address": "5011 Gate Pkwy  Jacksonville, FL 32256",
    "location": "Duval"
  },
  {
    "name": "Norman Golf Marketing",
    "description": "Marketing Programs & Services",
    "phone": "(904) 534-5310",
    "address": "10739 Deerwood Park Blvd  Jacksonville, FL 32256",
    "location": "Duval"
  },
  {
    "name": "TVC Marketing",
    "description": "Marketing Programs & Services",
    "phone": "(405) 843-2722",
    "address": "1876 Doyon Ct  Jacksonville, FL 32210",
    "location": "Duval"
  },
  {
    "name": "Cor Marketing Inc",
    "description": "Marketing Programs & Services",
    "phone": "(904) 860-3352",
    "address": "13700 Richmond Park Dr N  Jacksonville, FL 32224",
    "location": "Duval"
  },
  {
    "name": "Market Data Retrieval",
    "description": "Marketing Programs & Services",
    "phone": "(203) 926-4800",
    "address": "5335 Gate Pkwy  Jacksonville, FL 32256",
    "location": "Duval"
  },
  {
    "name": "NightWish Media",
    "description": "Marketing Programs & Services",
    "phone": "(904) 605-5011",
    "address": "10151 Deerwood Park Blvd Ste 250  Jacksonville, FL 32256",
    "location": "Duval"
  },
  {
    "name": "Enhancement Services",
    "description": "Marketing Programs & Services",
    "phone": "(904) 694-4754",
    "address": "13400 Sutton Park Dr S  Jacksonville, FL 32224",
    "location": "Duval"
  },
  {
    "name": "Kaizen Communications",
    "description": "Marketing Programs & Services",
    "phone": "(904) 992-8001",
    "address": "4312 Pablo Professional Ct  Jacksonville, FL 32224",
    "location": "Duval"
  },
  {
    "name": "Clockwork Marketing Service Inc",
    "description": "Marketing Programs & Services",
    "phone": "(904) 758-9942",
    "address": "4337 Pablo Oaks Ct  Jacksonville, FL 32224",
    "location": "Duval"
  },
  {
    "name": "Exigo Sales and Marketing",
    "description": "Marketing Programs & Services",
    "phone": "(904) 479-6080",
    "address": "8777 San Jose Blvd  Jacksonville, FL 32217",
    "location": "Duval"
  },
  {
    "name": "Accord Marketing and Management",
    "description": "Marketing Programs & Services",
    "phone": "(904) 253-3190",
    "address": "4455 Baymeadows Rd  Jacksonville, FL 32217",
    "location": "Duval"
  },
  {
    "name": "A O Marketing Group",
    "description": "Marketing Programs & Services",
    "phone": "(904) 647-7532",
    "address": "8130 Baymeadows Cir W  Jacksonville, FL 32256",
    "location": "Duval"
  },
  {
    "name": "Absolute Marketing",
    "description": "Marketing Programs & Services",
    "phone": "(904) 374-5352",
    "address": "9250 Baymeadows Rd  Jacksonville, FL 32256",
    "location": "Duval"
  },
  {
    "name": "Veritec Solutions",
    "description": "Marketing Programs & Services",
    "phone": "(904) 421-7220",
    "address": "9428 Baymeadows Rd Ste 600  Jacksonville, FL 32256",
    "location": "Duval"
  },
  {
    "name": "Horizon Innovations",
    "description": "Marketing Programs & Services",
    "phone": "(904) 503-2815",
    "address": "9432 Baymeadows Rd  Jacksonville, FL 32256",
    "location": "Duval"
  },
  {
    "name": "Sellethics Marketing Group Inc",
    "description": "Marketing Programs & Services",
    "phone": "(904) 423-2070",
    "address": "7807 Baymeadows Rd E  Jacksonville, FL 32256",
    "location": "Duval"
  },
  {
    "name": "New Virtual Marketing",
    "description": "Marketing Programs & Services",
    "phone": "(904) 434-1171",
    "address": "5447 Shady Pine St S  Jacksonville, FL 32244",
    "location": "Duval"
  },
  {
    "name": "Life's Enjoyable Solutions",
    "description": "Marketing Programs & Services",
    "phone": "(904) 312-9900",
    "address": "5236 Brighton Park Ln  Jacksonville, FL 32210",
    "location": "Duval"
  },
  {
    "name": "Vanessa Barthelmes",
    "description": "Marketing Programs & Services",
    "phone": "(904) 999-7698",
    "address": "8787 Southside Blvd  Jacksonville, FL 32256",
    "location": "Duval"
  },
  {
    "name": "Herrera Digital Agency",
    "description": "Marketing Programs & Services",
    "phone": "(904) 416-5138",
    "address": "9366 Daniel's Mill Dr  Jacksonville, FL 32244",
    "location": "Duval"
  },
  {
    "name": "Driven 2",
    "description": "Marketing Programs & Services",
    "phone": "(904) 638-7200",
    "address": "5285 Shad Rd  Jacksonville, FL 32257",
    "location": "Duval"
  },
  {
    "name": "In A Word Communications",
    "description": "Marketing Programs & Services",
    "phone": "(904) 654-7334",
    "address": "8992 Timberjack Ln  Jacksonville, FL 32256",
    "location": "Duval"
  },
  {
    "name": "WayUP Marketing Agency & Business Solutions",
    "description": "Marketing Programs & Services",
    "phone": "(800) 290-7271",
    "address": "14286-19 Beach Blvd Ste 210  Jacksonville, FL 32250",
    "location": "Duval"
  },
  {
    "name": "Trident Marketing",
    "description": "Marketing Programs & Services",
    "phone": "(904) 477-5073",
    "address": "2180 S Fletcher Ave  Fernandina Beach, FL 32034",
    "location": "Duval"
  },
  {
    "name": "Independent Marketing Group",
    "description": "Marketing Programs & Services",
    "phone": "(904) 853-5115",
    "address": "1250 E Coast Dr  Atlantic Beach, FL 32233",
    "location": "Duval"
  },
  {
    "name": "Random Arts",
    "description": "Marketing Programs & Services",
    "phone": "(904) 525-1086",
    "address": "370 Plaza  Atlantic Beach, FL 32233",
    "location": "Duval"
  },
  {
    "name": "Above and Beyond Marketing",
    "description": "Marketing Programs & Services",
    "phone": "(904) 307-4993",
    "address": "282 Pine St  Atlantic Beach, FL 32233",
    "location": "Duval"
  },
  {
    "name": "Authorify by Smart Agents",
    "description": "Marketing Programs & Services",
    "phone": "(904) 695-9933",
    "address": "51 Pine St  Atlantic Beach, FL 32233",
    "location": "Duval"
  },
  {
    "name": "Respondex",
    "description": "Marketing Programs & Services",
    "phone": "(904) 249-4506",
    "address": "14286 Beach Blvd Ste 221  Jacksonville Beach, FL 32250",
    "location": "Duval"
  },
  {
    "name": "Kreative Marketing",
    "description": "Marketing Programs & Services",
    "phone": "(904) 241-5352",
    "address": "1122 3rd St Ste 2  Neptune Beach, FL 32266",
    "location": "Duval"
  },
  {
    "name": "Stinson Studio",
    "description": "Marketing Programs & Services",
    "phone": "(904) 853-6767",
    "address": "1682 Penman Rd  Jacksonville Beach, FL 32250",
    "location": "Duval"
  },
  {
    "name": "Soud Marketing",
    "description": "Marketing Programs & Services",
    "phone": "(904) 373-1152",
    "address": "237 9th Ave N  Jacksonville Beach, FL 32250",
    "location": "Duval"
  },
  {
    "name": "Callaghan Agency",
    "description": "Marketing Programs & Services",
    "phone": "(904) 246-7494",
    "address": "402 4th St N  Jacksonville Beach, FL 32250",
    "location": "Duval"
  },
  {
    "name": "Dagmar Marketing",
    "description": "Marketing Programs & Services",
    "phone": "(904) 270-9778",
    "address": "124 5th Ave N  Jacksonville Beach, FL 32250",
    "location": "Duval"
  },
  {
    "name": "A & B Marketing Inc",
    "description": "Marketing Programs & Services",
    "phone": "(904) 277-8229",
    "address": "9450 Philips Hwy  Jacksonville, FL 32256",
    "location": "Duval"
  },
  {
    "name": "Renegade Agent Marketing",
    "description": "Marketing Programs & Services",
    "phone": "(904) 337-1677",
    "address": "3020 Hartley Rd  Jacksonville, FL 32257",
    "location": "Duval"
  },
  {
    "name": "Confluency Solutions",
    "description": "Marketing Programs & Services",
    "phone": "(904) 807-4766",
    "address": "11250 Old Saint Augustine Rd  Jacksonville, FL 32257",
    "location": "Duval"
  },
  {
    "name": "Trendsetters Marketing",
    "description": "Marketing Programs & Services",
    "phone": "(904) 262-7077",
    "address": "12025 San Jose Blvd  Jacksonville, FL 32223",
    "location": "Duval"
  },
  {
    "name": "Jedi Marketing Concepts",
    "description": "Marketing Programs & Services",
    "phone": "(904) 229-5217",
    "address": "517 Scrub Jay Rd  Jacksonville, FL 32257",
    "location": "Duval"
  },
  {
    "name": "Kessler Creative",
    "description": "Marketing Programs & Services",
    "phone": "(904) 346-3898",
    "address": "12276 San Jose Blvd  Jacksonville, FL 32223",
    "location": "Duval"
  },
  {
    "name": "PVF Marketing Inc",
    "description": "Marketing Programs & Services",
    "phone": "(904) 262-0804",
    "address": "12627 San Jose Blvd  Jacksonville, FL 32223",
    "location": "Duval"
  },
  {
    "name": "Liquid Creative - Marketing Agency Jacksonville",
    "description": "Marketing Programs & Services",
    "phone": "(352) 600-5050",
    "address": "12574 Flagler Center Blvd Ste 101  Jacksonville, FL 32258",
    "location": "Duval"
  },
  {
    "name": "Network Solutions",
    "description": "Marketing Programs & Services",
    "phone": "(855) 834-8495",
    "address": "12808 Gran Bay Pkwy W  Jacksonville, FL 32258",
    "location": "Duval"
  },
  {
    "name": "Success Marketing Services",
    "description": "Marketing Programs & Services",
    "phone": "(704) 452-7650",
    "address": "13504 Citicards Way  Jacksonville, FL 32258",
    "location": "Duval"
  },
  {
    "name": "Minuteman Press North Jax",
    "description": "Marketing Programs & Services",
    "phone": "(904) 337-0160",
    "address": "11565 N Main St Ste 107  Jacksonville, FL 32218",
    "location": "Duval"
  },
  {
    "name": "Power Team Money Makers",
    "description": "Marketing Programs & Services",
    "phone": "(315) 463-5981",
    "address": "12041 Alexandra Dr  Jacksonville, FL 32218",
    "location": "Duval"
  },
  {
    "name": "ANAJ Marketing Associates",
    "description": "Marketing Programs & Services",
    "phone": "(954) 309-0171",
    "address": "10660 Academy Park Dr  Jacksonville, FL 32218",
    "location": "Duval"
  },
  {
    "name": "Bassani Larry Marketing & Sales Consulting",
    "description": "Marketing Programs & Services",
    "phone": "(904) 744-8877",
    "address": "5404 Coppedge Ave  Jacksonville, FL 32277",
    "location": "Duval"
  },
  {
    "name": "Merkley Marketing Group",
    "description": "Marketing Programs & Services",
    "phone": "(904) 217-3430",
    "address": "Po Box 600906  Jacksonville, FL 32260",
    "location": "Duval"
  },
  {
    "name": "Kairos Digital",
    "description": "Marketing Programs & Services",
    "phone": "(904) 267-1969",
    "address": "220 E Forsyth St Ste E  Jacksonville, FL 32202",
    "location": "Duval"
  },
  {
    "name": "United Allied Marketing Services",
    "description": "Marketing Programs & Services",
    "phone": "(904) 780-0246",
    "address": "50 N. Laura St. Ste 2500  Jacksonville, FL 32202",
    "location": "Duval"
  },
  {
    "name": "SEO Digital Marketing Services",
    "description": "Marketing Programs & Services",
    "phone": "(833) 736-3670",
    "address": "50 N Laura St Ste 2500  Jacksonville, FL 32202",
    "location": "Duval"
  },
  {
    "name": "Axia Public Relations",
    "description": "Marketing Programs & Services",
    "phone": "(904) 425-6652",
    "address": "222 E. Forsyth St.  Jacksonville, FL 32202",
    "location": "Duval"
  },
  {
    "name": "Remarkable Marketers",
    "description": "Marketing Programs & Services",
    "phone": "(904) 337-5377",
    "address": "339 Park St  Jacksonville, FL 32204",
    "location": "Duval"
  },
  {
    "name": "Holland People+Brands",
    "description": "Marketing Programs & Services",
    "phone": "(904) 732-4932",
    "address": "1301 Riverplace Blvd Ste 800  Jacksonville, FL 32207",
    "location": "Duval"
  },
  {
    "name": "Supercharged Offers",
    "description": "Marketing Programs & Services",
    "phone": "(888) 368-5478",
    "address": "1301 Riverplace Blvd  Jacksonville, FL 32207",
    "location": "Duval"
  },
  {
    "name": "Kopupon Social",
    "description": "Marketing Programs & Services",
    "phone": "(904) 415-6600",
    "address": "9951 Atlantic Blvd Ste 316  Jacksonville, FL 32225",
    "location": "Duval"
  },
  {
    "name": "Wingard",
    "description": "Marketing Programs & Services",
    "phone": "(904) 387-2570",
    "address": "1022 Park St  Jacksonville, FL 32204",
    "location": "Duval"
  },
  {
    "name": "Nuera Marketing",
    "description": "Marketing Programs & Services",
    "phone": "(904) 513-8350",
    "address": "1807 Hendricks Ave  Jacksonville, FL 32207",
    "location": "Duval"
  },
  {
    "name": "Masterbrand Studio",
    "description": "Marketing Programs & Services",
    "phone": "(904) 807-6898",
    "address": "1905 Hendricks Ave  Jacksonville, FL 32207",
    "location": "Duval"
  },
  {
    "name": "Remora Inc.",
    "description": "Marketing Programs & Services",
    "phone": "(904) 770-4395",
    "address": "3236 Beach Blvd  Jacksonville, FL 32207",
    "location": "Duval"
  },
  {
    "name": "Stephens Advertising Inc",
    "description": "Marketing Programs & Services",
    "phone": "(904) 354-1777",
    "address": "7029 Commonwealth Ave  Jacksonville, FL 32220",
    "location": "Duval"
  },
  {
    "name": "Rock My Image",
    "description": "Marketing Programs & Services",
    "phone": "(904) 428-8764",
    "address": "1922 Felch Ave  Jacksonville, FL 32207",
    "location": "Duval"
  },
  {
    "name": "Isight Consultants",
    "description": "Marketing Programs & Services",
    "phone": "(904) 339-0255",
    "address": "3728 Philips Hwy Ste 214A  Jacksonville, FL 32207",
    "location": "Duval"
  },
  {
    "name": "Minuteman Press",
    "description": "Marketing Programs & Services",
    "phone": "(904) 384-1900",
    "address": "4613 Philips Hwy Ste 207  Jacksonville, FL 32207",
    "location": "Duval"
  },
  {
    "name": "The Victory Agency",
    "description": "Marketing Programs & Services",
    "phone": "(904) 274-0732",
    "address": "6034 Chester Ave Ste 107a  Jacksonville, FL 32217",
    "location": "Duval"
  },
  {
    "name": "Fisher Agency",
    "description": "Marketing Programs & Services",
    "phone": "(904) 398-3699",
    "address": "4540 Southside Blvd Ste 902  Jacksonville, FL 32216",
    "location": "Duval"
  },
  {
    "name": "Savvy Partner - Franchise Marketing",
    "description": "Marketing Programs & Services",
    "phone": "(904) 372-8891",
    "address": "4540 Southside Blvd Ste 902  Jacksonville, FL 32216",
    "location": "Duval"
  },
  {
    "name": "Vizergy",
    "description": "Marketing Programs & Services",
    "phone": "(904) 389-1130",
    "address": "4601 Touchton Rd E Bldg 300  Jacksonville, FL 32246",
    "location": "Duval"
  },
  {
    "name": "Media Mix",
    "description": "Marketing Programs & Services",
    "phone": "(904) 294-6962",
    "address": "9822 Tapestry Park Cir  Jacksonville, FL 32246",
    "location": "Duval"
  },
  {
    "name": "EverLogic",
    "description": "Marketing Programs & Services",
    "phone": "(904) 998-4066",
    "address": "6620 Southpoint Dr S Ste 505  Jacksonville, FL 32216",
    "location": "Duval"
  },
  {
    "name": "SearchLites",
    "description": "Marketing Programs & Services",
    "phone": "(904) 395-2539",
    "address": "6620 Southpoint Dr S  Jacksonville, FL 32216",
    "location": "Duval"
  },
  {
    "name": "Vemma",
    "description": "Marketing Programs & Services",
    "phone": "(904) 910-7724",
    "address": "2982 Canyon Falls Dr E  Jacksonville, FL 32224",
    "location": "Duval"
  },
  {
    "name": "CTRL+ALT Digital",
    "description": "Marketing Programs & Services",
    "phone": "(904) 878-2875",
    "address": "5011 Gate Pkwy Bldg 100  Jacksonville, FL 32256",
    "location": "Duval"
  },
  {
    "name": "Citywide Advantage",
    "description": "Marketing Programs & Services",
    "phone": "(904) 404-8628",
    "address": "10752 Deerwood Park Blvd  Jacksonville, FL 32256",
    "location": "Duval"
  },
  {
    "name": "Aspyra, LLC",
    "description": "Marketing Programs & Services",
    "phone": "(888) 731-0731",
    "address": "7400 Baymeadows Way Ste 101  Jacksonville, FL 32256",
    "location": "Duval"
  },
  {
    "name": "Cheetah Agency",
    "description": "Marketing Programs & Services",
    "phone": "(904) 544-6020",
    "address": "10151 Deerwood Park Blvd  Jacksonville, FL 32256",
    "location": "Duval"
  },
  {
    "name": "First Element",
    "description": "Marketing Programs & Services",
    "phone": "(904) 860-8245",
    "address": "9770 Old Baymeadows Rd  Jacksonville, FL 32256",
    "location": "Duval"
  },
  {
    "name": "Wealthinary Marketing",
    "description": "Marketing Programs & Services",
    "phone": "(904) 990-3331",
    "address": "3390 Kori Rd Ste 4b  Jacksonville, FL 32257",
    "location": "Duval"
  },
  {
    "name": "​Sunshine State Endless Possibilities",
    "description": "Marketing Programs & Services",
    "phone": "(904) 566-1949",
    "address": "7055 Blanding Blvd Unit 442075  Jacksonville, FL 32222",
    "location": "Duval"
  },
  {
    "name": "Local Insite Media & Publications",
    "description": "Marketing Programs & Services",
    "phone": "(904) 900-7718",
    "address": "Po Box 32471  Jacksonville, FL 32237",
    "location": "Duval"
  },
  {
    "name": "SFI",
    "description": "Marketing Programs & Services",
    "phone": "(912) 464-9679",
    "address": "8787 Southside Blvd  Jacksonville, FL 32256",
    "location": "Duval"
  },
  {
    "name": "Dion Marketing Jacksonville",
    "description": "Marketing Programs & Services",
    "phone": "(904) 249-9784",
    "address": "2014 Mayport Rd  Jacksonville, FL 32233",
    "location": "Duval"
  },
  {
    "name": "Serve Food Solutions",
    "description": "Marketing Programs & Services",
    "phone": "(904) 277-3506",
    "address": "4000 Amelia Island Pkwy  Fernandina Beach, FL 32034",
    "location": "Duval"
  },
  {
    "name": "Eshopmarketer.com",
    "description": "Marketing Programs & Services",
    "phone": "(904) 758-9920",
    "address": "51 Pine St  Atlantic Beach, FL 32233",
    "location": "Duval"
  },
  {
    "name": "Adaptive Jax",
    "description": "Marketing Programs & Services",
    "phone": "(904) 563-7703",
    "address": "1617 Beach Blvd  Jacksonville Beach, FL 32250",
    "location": "Duval"
  },
  {
    "name": "BoldFish Digital",
    "description": "Marketing Programs & Services",
    "phone": "(904) 567-0101",
    "address": "320 1st St N  Jacksonville Beach, FL 32250",
    "location": "Duval"
  },
  {
    "name": "Avtez Corporation",
    "description": "Marketing Programs & Services",
    "phone": "(904) 352-8754",
    "address": "10819 Birchard Ln  Jacksonville, FL 32257",
    "location": "Duval"
  },
  {
    "name": "Kwik Kopy",
    "description": "Marketing Programs & Services",
    "phone": "(904) 880-0309",
    "address": "9446 Philips Hwy  Jacksonville, FL 32256",
    "location": "Duval"
  },
  {
    "name": "Accelerated.Sale",
    "description": "Marketing Programs & Services",
    "phone": "(561) 345-8500",
    "address": "5400 Collins Lakes Dr  Jacksonville, FL 32244",
    "location": "Duval"
  },
  {
    "name": "The Brand Smart Group",
    "description": "Marketing Programs & Services",
    "phone": "(904) 221-7300",
    "address": "10300 Southside Blvd  Jacksonville, FL 32256",
    "location": "Duval"
  },
  {
    "name": "Marketing Edge LLC",
    "description": "Marketing Programs & Services",
    "phone": "(904) 363-9895",
    "address": "11223 Chester Lake Rd W  Jacksonville, FL 32256",
    "location": "Duval"
  },
  {
    "name": "Paramount Performance Marketing - CLOSED",
    "description": "Computer Printers & Supplies",
    "phone": "(904) 448-1701",
    "address": "5299 Saint Augustine Rd  Jacksonville, FL 32207",
    "location": "Duval"
  },
  {
    "name": "Automotive Innovative Marketing - CLOSED",
    "description": "Marketing Programs & Services",
    "phone": "(904) 519-9092",
    "address": "8475 Western Way Ste 150  Jacksonville, FL 32256",
    "location": "Duval"
  },
  {
    "name": "Pro-Marketing Assn",
    "description": "Associations",
    "phone": "(904) 743-1186",
    "address": "4367 Maywood Dr  Jacksonville, FL 32277",
    "location": "Duval"
  },
  {
    "name": "Marketing24x7 - Jacksonville Seo",
    "description": "Internet Consultants",
    "phone": "(904) 204-0245",
    "address": "2020 Inwood Ter  Jacksonville, FL 32207",
    "location": "Duval"
  },
  {
    "name": "Harte-Hanks Direct Marketing/Florida",
    "description": "Marketing Consultants",
    "phone": "(904) 363-6313",
    "address": "7498 Fullerton St  Jacksonville, FL 32256",
    "location": "Duval"
  },
  {
    "name": "Performance Marketing-Consltng",
    "description": "Marketing Programs & Services",
    "phone": "(904) 742-3626",
    "address": "2485 Carriage Lamp Dr  Jacksonville, FL 32246",
    "location": "Duval"
  },
  {
    "name": "Manley Sales and Marketing Gro",
    "description": "Marketing Consultants",
    "phone": "(904) 432-8454",
    "address": "95143 Bermuda Dr  Fernandina Beach, FL 32034",
    "location": "Duval"
  },
  {
    "name": "Paxton Automotive Marketing",
    "description": "Marketing Consultants",
    "phone": "(904) 261-6066",
    "address": "1875 S 14th St  Fernandina Beach, FL 32034",
    "location": "Duval"
  },
  {
    "name": "Mixed Media Marketing Inc",
    "description": "Product Design, Development & Marketing",
    "phone": "(904) 849-3669",
    "address": "9900 Amelia Island Pkwy  Fernandina Beach, FL 32034",
    "location": "Duval"
  },
  {
    "name": "Staples Print & Marketing Services",
    "description": "Printing Consultants",
    "phone": "(904) 261-2824",
    "address": "1445 Sadler Rd  Fernandina Beach, FL 32034",
    "location": "Duval"
  },
  {
    "name": "K K Marketing Inc",
    "description": "Food Products-Wholesale",
    "phone": "(904) 277-3506",
    "address": "1416 Lewis St  Fernandina Beach, FL 32034",
    "location": "Duval"
  },
  {
    "name": "D T W Marketing Research Group Inc",
    "description": "Market Research & Analysis",
    "phone": "(904) 261-8160",
    "address": "5317 S Fletcher Ave  Fernandina Beach, FL 32034",
    "location": "Duval"
  },
  {
    "name": "Kk Marketing",
    "description": "Marketing Consultants",
    "phone": "(904) 432-7877",
    "address": "4000 Amelia Island Pkwy  Fernandina Beach, FL 32034",
    "location": "Duval"
  },
  {
    "name": "Murphy Marketing Alliance",
    "description": "Marketing Consultants",
    "phone": "(904) 310-6574",
    "address": "2494 Captain Hook Dr  Fernandina Beach, FL 32034",
    "location": "Duval"
  },
  {
    "name": "Progressive Marketing Solutions III",
    "description": "Marketing Consultants",
    "phone": "(904) 491-0098",
    "address": "5425 Florence Point Dr  Fernandina Beach, FL 32034",
    "location": "Duval"
  },
  {
    "name": "Real Estate Marketing Store Inc.",
    "description": "Real Estate Management",
    "phone": "(904) 246-5474",
    "address": "115 1st Ave N  Jacksonville Beach, FL 32250",
    "location": "Duval"
  },
  {
    "name": "Gotcha Marketing, Inc",
    "description": "Advertising-Promotional Products",
    "phone": "(904) 625-2575",
    "address": "14603 Beach Blvd, Suite 700  Jacksonville Beach, FL 32250",
    "location": "Duval"
  },
  {
    "name": "Jax Florida Internet Marketing & Web Design",
    "description": "Internet Marketing & Advertising",
    "phone": "(904) 419-7214",
    "address": "11325 N Main St Lot 25  Jacksonville, FL 32218",
    "location": "Duval"
  },
  {
    "name": "AppSolute Marketing Inc.",
    "description": "Marketing Consultants",
    "phone": "(850) 321-2252",
    "address": "SERVING All Of Northeast Florida  Jacksonville, FL 32218",
    "location": "Duval"
  },
  {
    "name": "Rojas Consulting",
    "description": "Management Consultants",
    "phone": "(904) 772-4709",
    "address": "13706 Fish Eagle Dr W  Jacksonville, FL 32226",
    "location": "Duval"
  },
  {
    "name": "Wms Enterprises of Florida",
    "description": "Marketing Consultants",
    "phone": "(904) 352-8282",
    "address": "15738 Jim Ct  Jacksonville, FL 32218",
    "location": "Duval"
  },
  {
    "name": "Mach60",
    "description": "Marketing Consultants",
    "phone": "(844) 462-2460",
    "address": "1601-1 N Main St # 37409  Jacksonville, FL 32206",
    "location": "Duval"
  },
  {
    "name": "Evans Marketing Group",
    "description": "Internet Marketing & Advertising",
    "phone": "(904) 586-2896",
    "address": "1250 Imeson Park Blvd  Jacksonville, FL 32218",
    "location": "Duval"
  },
  {
    "name": "Jobs4Living.com",
    "description": "Internet Marketing & Advertising",
    "phone": "(904) 333-2776",
    "address": "1057 Broward Rd  Jacksonville, FL 32218",
    "location": "Duval"
  },
  {
    "name": "Muse on Blast",
    "description": "Marketing Consultants",
    "phone": "(904) 768-9404",
    "address": "1000 Broward Rd  Jacksonville, FL 32218",
    "location": "Duval"
  },
  {
    "name": "Bentley Marketing Group",
    "description": "Marketing Consultants",
    "phone": "(904) 520-3199",
    "address": "8829 Lem Turner Rd  Jacksonville, FL 32208",
    "location": "Duval"
  },
  {
    "name": "8 Letter City Radio",
    "description": "Internet Marketing & Advertising",
    "phone": "(850) 733-2570",
    "address": "5371 Tubman Dr S  Jacksonville, FL 32219",
    "location": "Duval"
  },
  {
    "name": "MCA= MOTOR CLUB OF AMERICA",
    "description": "Internet Marketing & Advertising",
    "phone": "(904) 517-4793",
    "address": "3140 Franklin St  Jacksonville, FL 32206",
    "location": "Duval"
  },
  {
    "name": "Simply the Best SEO",
    "description": "Marketing Consultants",
    "phone": "(561) 220-7629",
    "address": "303 E 21st St  Jacksonville, FL 32206",
    "location": "Duval"
  },
  {
    "name": "Nu-Vizn of Jax",
    "description": "Marketing Consultants",
    "phone": "(904) 683-2412",
    "address": "5606 Avenue B  Jacksonville, FL 32209",
    "location": "Duval"
  },
  {
    "name": "hustlemotivator.inc",
    "description": "Internet Marketing & Advertising",
    "phone": "(904) 434-0419",
    "address": "7221 dostie drive east jacksonville florida  jacksonville, FL 32209",
    "location": "Duval"
  },
  {
    "name": "J & J Enterprises",
    "description": "Marketing Consultants",
    "phone": "(904) 683-8687",
    "address": "1947 Phoenix Ave  Jacksonville, FL 32206",
    "location": "Duval"
  },
  {
    "name": "Nina Marketing",
    "description": "Marketing Consultants",
    "phone": "(904) 683-4950",
    "address": "12086 Fort Caroline Rd  Jacksonville, FL 32225",
    "location": "Duval"
  },
  {
    "name": "Internet Mad Men",
    "description": "Internet Consultants",
    "phone": "(954) 643-6998",
    "address": "4634 Monument Point Cir  Jacksonville, FL 32225",
    "location": "Duval"
  },
  {
    "name": "Trustee and Ra Services Inc.",
    "description": "Marketing Consultants",
    "phone": "(954) 643-6998",
    "address": "4634 Monument Point Cir  Jacksonville, FL 32225",
    "location": "Duval"
  },
  {
    "name": "Lsb Digital Marketing Service",
    "description": "Marketing Consultants",
    "phone": "(772) 413-0486",
    "address": "2714 Eastill Dr  Jacksonville, FL 32211",
    "location": "Duval"
  },
  {
    "name": "EXPAND YOUR BRAND GOSPEL LLC",
    "description": "Event Ticket Sales",
    "phone": "(858) 914-4814",
    "address": "1616 Almira St Apt 9  Jacksonville, FL 32211",
    "location": "Duval"
  },
  {
    "name": "Hand Consulting",
    "description": "Marketing Consultants",
    "phone": "(904) 717-5124",
    "address": "12611 Mission Hills Cir N  Jacksonville, FL 32225",
    "location": "Duval"
  },
  {
    "name": "Total Sales Link",
    "description": "Web Site Hosting",
    "phone": "(904) 557-3209",
    "address": "76332 Longleaf loop  Yulee, FL 32097",
    "location": "Duval"
  },
  {
    "name": "Hart SEO",
    "description": "Marketing Consultants",
    "phone": "(904) 234-0158",
    "address": "1225 Beaver St. #103  Jacksonville, FL 32204",
    "location": "Duval"
  },
  {
    "name": "Intensive Marketing",
    "description": "Marketing Consultants",
    "phone": "(904) 372-4340",
    "address": "1309 Saint Johns Bluff Rd N Ste 4  Jacksonville, FL 32225",
    "location": "Duval"
  },
  {
    "name": "Fort George SEO & Web Design",
    "description": "Computer & Equipment Dealers",
    "phone": "(904) 290-9544",
    "address": "9401 Heckscher Dr  Jacksonville, FL 32226",
    "location": "Duval"
  },
  {
    "name": "Graphics Now",
    "description": "Internet Consultants",
    "phone": "(904) 553-8564",
    "address": "2946 Mikris Dr E  Jacksonville, FL 32225",
    "location": "Duval"
  },
  {
    "name": "Supergen",
    "description": "Direct Marketing Services",
    "phone": "(904) 997-1421",
    "address": "12645 Mission Hills Cir N  Jacksonville, FL 32225",
    "location": "Duval"
  },
  {
    "name": "Crystalcase.com",
    "description": "Internet Marketing & Advertising",
    "phone": "(904) 743-8684",
    "address": "1030 University Blvd N  Jacksonville, FL 32211",
    "location": "Duval"
  },
  {
    "name": "Town Planner Community Calendar",
    "description": "Directory & Guide Advertising",
    "phone": "(904) 999-4160",
    "address": "2771-29 Monument Road  Jacksonville, FL 32225",
    "location": "Duval"
  },
  {
    "name": "Gale Force Web Pros LLC",
    "description": "Web Site Hosting",
    "phone": "(904) 738-8768",
    "address": "Po Box 23767  Jacksonville, FL 32241",
    "location": "Duval"
  },
  {
    "name": "JK Design Arts",
    "description": "Copy Writers",
    "phone": "(904) 638-6068",
    "address": "PO Box 61651  Jacksonville, FL 32236",
    "location": "Duval"
  },
  {
    "name": "Wind Mill",
    "description": "Internet Marketing & Advertising",
    "phone": "(904) 900-3623",
    "address": "7902 Wildwood Rd  Jacksonville, FL 32211",
    "location": "Duval"
  },
  {
    "name": "Shinwa Marketing",
    "description": "Internet Marketing & Advertising",
    "phone": "(904) 634-7981",
    "address": "840 Edgewood Ave  Jacksonville, FL 32202",
    "location": "Duval"
  },
  {
    "name": "Market Research International",
    "description": "Market Research & Analysis",
    "phone": "(904) 355-7554",
    "address": "300 N Hogan St  Jacksonville, FL 32202",
    "location": "Duval"
  },
  {
    "name": "Gellerson Marketing",
    "description": "Marketing Consultants",
    "phone": "(904) 574-4892",
    "address": "209 N Laura St  Jacksonville, FL 32202",
    "location": "Duval"
  },
  {
    "name": "Perspective Edge",
    "description": "Internet Marketing & Advertising",
    "phone": "(904) 479-5932",
    "address": "118 W Adams St Ste 245  Jacksonville, FL 32202",
    "location": "Duval"
  },
  {
    "name": "DAGMAR Marketing",
    "description": "Internet Marketing & Advertising",
    "phone": "(904) 270-9778",
    "address": "5 W Forsyth St  Jacksonville, FL 32202",
    "location": "Duval"
  },
  {
    "name": "Bizjournals.com",
    "description": "Internet Marketing & Advertising",
    "phone": "(904) 396-3502",
    "address": "200 W Forsyth St  Jacksonville, FL 32202",
    "location": "Duval"
  },
  {
    "name": "Capitallawcenter.com",
    "description": "Internet Marketing & Advertising",
    "phone": "(781) 239-3500",
    "address": "301 W Bay St  Jacksonville, FL 32202",
    "location": "Duval"
  },
  {
    "name": "Forjay Media",
    "description": "Marketing Consultants",
    "phone": "(904) 527-8104",
    "address": "1010 E Adams St Ste 101  Jacksonville, FL 32202",
    "location": "Duval"
  },
  {
    "name": "Havana 61 - Funding & Business Consulting",
    "description": "Business Plans Development",
    "phone": "(877) 714-2223",
    "address": "25 N Market St  Jacksonville, FL 32202",
    "location": "Duval"
  },
  {
    "name": "MarketChair",
    "description": "Internet Marketing & Advertising",
    "phone": "(302) 715-1002",
    "address": "25 N Market St # 121  Jacksonville, FL 32202",
    "location": "Duval"
  },
  {
    "name": "We Were Born to Shine",
    "description": "Internet Marketing & Advertising",
    "phone": "(904) 998-8673",
    "address": "12906 Oakland Hills Ct  Jacksonville, FL 32225",
    "location": "Duval"
  },
  {
    "name": "Client Focused Media Inc",
    "description": "Marketing Consultants",
    "phone": "(904) 232-3001",
    "address": "100 Festival Park Ave  Jacksonville, FL 32202",
    "location": "Duval"
  },
  {
    "name": "Main Street Digital",
    "description": "Internet Marketing & Advertising",
    "phone": "(904) 239-1607",
    "address": "1 Riverside Ave  Jacksonville, FL 32202",
    "location": "Duval"
  },
  {
    "name": "Times-Union Media",
    "description": "Internet Marketing & Advertising",
    "phone": "(904) 359-4318",
    "address": "1 Riverside Ave  Jacksonville, FL 32202",
    "location": "Duval"
  },
  {
    "name": "Florida Market Research",
    "description": "Market Research & Analysis",
    "phone": "(904) 359-4519",
    "address": "1 Riverside Ave  Jacksonville, FL 32202",
    "location": "Duval"
  },
  {
    "name": "D X Marketing Group",
    "description": "Marketing Consultants",
    "phone": "(904) 332-6490",
    "address": "9485 Regency Square Blvd  Jacksonville, FL 32225",
    "location": "Duval"
  },
  {
    "name": "jax Rental and Event Planning",
    "description": "Marketing Consultants",
    "phone": "(904) 387-3643",
    "address": "2339 W Beaver St  Jacksonville, FL 32209",
    "location": "Duval"
  },
  {
    "name": "Marlin Consulting Solutions",
    "description": "Web Site Design & Services",
    "phone": "(904) 853-0364",
    "address": "1301 Riverplace Blvd Suite 800  Jacksonville, FL 32207",
    "location": "Duval"
  },
  {
    "name": "BroadBased Communications, Inc.",
    "description": "Advertising Agencies",
    "phone": "(904) 398-7279",
    "address": "1301 Riverplace Blvd Ste 1830  Jacksonville, FL 32207",
    "location": "Duval"
  },
  {
    "name": "Southern Community Cohort Stdy",
    "description": "Market Research & Analysis",
    "phone": "(904) 398-2925",
    "address": "1301 Riverplace Blvd  Jacksonville, FL 32207",
    "location": "Duval"
  },
  {
    "name": "Fiscal llc",
    "description": "Financial Services",
    "phone": "(904) 513-8100",
    "address": "1301 Riverplace Blvd Ste 800  Jacksonville, FL 32207",
    "location": "Duval"
  },
  {
    "name": "Internation Epidemiology Institute",
    "description": "Market Research & Analysis",
    "phone": "(904) 398-2925",
    "address": "1300 Riverplace Blvd  Jacksonville, FL 32207",
    "location": "Duval"
  },
  {
    "name": "Burdette Ketchum",
    "description": "Advertising Agencies",
    "phone": "(904) 645-6200",
    "address": "1023 Kings Ave  Jacksonville, FL 32207",
    "location": "Duval"
  },
  {
    "name": "Michael Huyghue & Associates",
    "description": "Marketing Consultants",
    "phone": "(844) 334-5864",
    "address": "841 Prudential Dr Ste 1200  Jacksonville, FL 32207",
    "location": "Duval"
  },
  {
    "name": "Niche Builders Digital Marketing",
    "description": "Marketing Consultants",
    "phone": "(904) 903-4444",
    "address": "841 Prudential Dr Ste 1200  Jacksonville, FL 32207",
    "location": "Duval"
  },
  {
    "name": "Policy Analysis Consultancy",
    "description": "Market Research & Analysis",
    "phone": "(904) 371-6523",
    "address": "841 Prudential Dr  Jacksonville, FL 32207",
    "location": "Duval"
  },
  {
    "name": "Indelible Business Solutions, Inc.",
    "description": "Marketing Consultants",
    "phone": "(841) 904-3716",
    "address": "841 Prudential Dr Ste 1203  Jacksonville, FL 32207",
    "location": "Duval"
  },
  {
    "name": "M4 Marketing",
    "description": "Advertising Agencies",
    "phone": "(904) 399-1800",
    "address": "4 Broadcast Pl  Jacksonville, FL 32207",
    "location": "Duval"
  },
  {
    "name": "ACE Web Service",
    "description": "Internet Marketing & Advertising",
    "phone": "(904) 501-9747",
    "address": "5201 Atlantic Blvd Unit 289  Jacksonville, FL 32207",
    "location": "Duval"
  },
  {
    "name": "Mohaned Kawar",
    "description": "Internet Marketing & Advertising",
    "phone": "(904) 524-8178",
    "address": "7430 Atlantic Blvd  Jacksonville, FL 32211",
    "location": "Duval"
  },
  {
    "name": "Marketing and Management Accord",
    "description": "Marketing Consultants",
    "phone": "(904) 379-5673",
    "address": "103 Century 21 Dr  Jacksonville, FL 32216",
    "location": "Duval"
  },
  {
    "name": "Crews, Harrison and Associates Inc",
    "description": "Payroll Service",
    "phone": "(904) 274-0266",
    "address": "2642 Rosselle St Suite 15  Jacksonville, FL 32204",
    "location": "Duval"
  },
  {
    "name": "Client Focused Media",
    "description": "Advertising Agencies",
    "phone": "(904) 232-3001",
    "address": "1611 San Marco Blvd  Jacksonville, FL 32207",
    "location": "Duval"
  },
  {
    "name": "Creative Sales Marketing",
    "description": "Marketing Consultants",
    "phone": "(904) 388-8240",
    "address": "440 Lenox Sq  Jacksonville, FL 32254",
    "location": "Duval"
  },
  {
    "name": "Media Star Promotions",
    "description": "Marketing Consultants",
    "phone": "(904) 396-2785",
    "address": "1801 Art Museum Dr  Jacksonville, FL 32207",
    "location": "Duval"
  },
  {
    "name": "Tropical Marketing Agency",
    "description": "Internet Marketing & Advertising",
    "phone": "(904) 600-1058",
    "address": "2624 Atlantic Blvd Suite: 1  Jacksonville, FL 32207",
    "location": "Duval"
  },
  {
    "name": "Advantage Design Group",
    "description": "Designers-Industrial & Commercial",
    "phone": "(904) 722-8200",
    "address": "1896 Corporate Square Blvd  Jacksonville, FL 32216",
    "location": "Duval"
  },
  {
    "name": "Kuumba LLC",
    "description": "Internet Marketing & Advertising",
    "phone": "(877) 452-0953",
    "address": "1650 Margaret St Ste 356  Jacksonville, FL 32204",
    "location": "Duval"
  },
  {
    "name": "Online Virtual Rep",
    "description": "Marketing Consultants",
    "phone": "(904) 994-4363",
    "address": "2054 Riverside Ave  Jacksonville, FL 32204",
    "location": "Duval"
  },
  {
    "name": "Elva Marketing",
    "description": "Advertising Agencies",
    "phone": "(904) 379-1723",
    "address": "4040 Woodcock Dr Ste 201  Jacksonville, FL 32207",
    "location": "Duval"
  },
  {
    "name": "Event Marketing International",
    "description": "Marketing Consultants",
    "phone": "(904) 567-6204",
    "address": "1856 Jefferson Rd  Jacksonville, FL 32246",
    "location": "Duval"
  },
  {
    "name": "W Squared Media Group",
    "description": "Marketing Consultants",
    "phone": "(904) 717-5934",
    "address": "3740 Beach Blvd  Jacksonville, FL 32207",
    "location": "Duval"
  },
  {
    "name": "Local Clicks",
    "description": "Internet Marketing & Advertising",
    "phone": "(904) 712-9546",
    "address": "8802 Corporate Square Ct  Jacksonville, FL 32216",
    "location": "Duval"
  },
  {
    "name": "Kustura Technologies",
    "description": "Computer Network Design & Systems",
    "phone": "(904) 855-8885",
    "address": "2120 Corporate Square Blvd Ste 23  Jacksonville, FL 32216",
    "location": "Duval"
  },
  {
    "name": "Website Solutions",
    "description": "Web Site Design & Services",
    "phone": "(904) 721-8973",
    "address": "866 Wren Rd  Jacksonville, FL 32216",
    "location": "Duval"
  },
  {
    "name": "RdyToGo - Web Design, Branding and Marketing",
    "description": "Web Site Design & Services",
    "phone": "(888) 705-3403",
    "address": "2720 Park St Ste 214  Jacksonville, FL 32205",
    "location": "Duval"
  },
  {
    "name": "William H Coleman Inc",
    "description": "Advertising Agencies",
    "phone": "(904) 398-6777",
    "address": "1613 King St  Jacksonville, FL 32204",
    "location": "Duval"
  },
  {
    "name": "Nefeda.com",
    "description": "Internet Marketing & Advertising",
    "phone": "(904) 384-2240",
    "address": "3 Shircliff Way  Jacksonville, FL 32204",
    "location": "Duval"
  },
  {
    "name": "ThinkTop Media Group",
    "description": "Internet Marketing & Advertising",
    "phone": "(904) 265-0765",
    "address": "4811 Beach Blvd Ste 105  Jacksonville, FL 32207",
    "location": "Duval"
  },
  {
    "name": "Cottle Communications Inc",
    "description": "Advertising Specialties",
    "phone": "(904) 261-0407",
    "address": "118 Sea Marsh Rd  Fernandina Beach, FL 32034",
    "location": "Duval"
  },
  {
    "name": "Ai Research Inc",
    "description": "Market Research & Analysis",
    "phone": "(904) 261-9493",
    "address": "1391 Mission San Carlos Dr  Fernandina Beach, FL 32034",
    "location": "Duval"
  },
  {
    "name": "dtw Research, Inc.",
    "description": "Market Research & Analysis",
    "phone": "(904) 491-1110",
    "address": "4812 First Coast Hwy  Fernandina Beach, FL 32034",
    "location": "Duval"
  },
  {
    "name": "Amelia Plumbing",
    "description": "Internet Products & Services",
    "phone": "(904) 246-8330",
    "address": "2983 Brougham Ave  Jacksonville, FL 32246",
    "location": "Duval"
  },
  {
    "name": "Creative One Media",
    "description": "Internet Marketing & Advertising",
    "phone": "(904) 394-2909",
    "address": "10752 Deerwood Park Blvd Ste 100  Jacksonville, FL 32256",
    "location": "Duval"
  },
  {
    "name": "Citation Builder Group",
    "description": "Internet Marketing & Advertising",
    "phone": "(323) 522-4672",
    "address": "4744 San Juan Ave # 457  Jacksonville, FL 32210",
    "location": "Duval"
  },
  {
    "name": "The Montello Agency",
    "description": "Advertising Agencies",
    "phone": "(904) 737-0012",
    "address": "9310 Old Kings Rd S  Jacksonville, FL 32257",
    "location": "Duval"
  },
  {
    "name": "Open Source Sales and Marketing",
    "description": "Credit & Debt Counseling",
    "phone": "(954) 806-6087",
    "address": "484 Candlebark Dr  Jacksonville, FL 32225",
    "location": "Duval"
  },
  {
    "name": "Wong Marketing",
    "description": "Marketing Consultants",
    "phone": "(904) 619-5557",
    "address": "840 Edgewood Ave S Ste 110  Jacksonville, FL 32205",
    "location": "Duval"
  },
  {
    "name": "Acuity Design Group",
    "description": "Designers-Industrial & Commercial",
    "phone": "(904) 619-8605",
    "address": "3109 Spring Glen Rd  Jacksonville, FL 32207",
    "location": "Duval"
  },
  {
    "name": "Stuck in My Head Media",
    "description": "Advertising Agencies",
    "phone": "(904) 248-0294",
    "address": "3119 Spring Glen Rd Ste 105  Jacksonville, FL 32207",
    "location": "Duval"
  },
  {
    "name": "Advanced Direct Marketing Services",
    "description": "Direct Mail Advertising",
    "phone": "(904) 396-3028",
    "address": "3733 Adirolf Rd  Jacksonville, FL 32207",
    "location": "Duval"
  },
  {
    "name": "Pospaper.com",
    "description": "Internet Marketing & Advertising",
    "phone": "(904) 737-9989",
    "address": "6740 Broadway Ave  Jacksonville, FL 32254",
    "location": "Duval"
  },
  {
    "name": "Alexander Cubed Inc",
    "description": "Internet Marketing & Advertising",
    "phone": "(904) 389-7622",
    "address": "1415 Belvedere Ave  Jacksonville, FL 32205",
    "location": "Duval"
  },
  {
    "name": "Welchans Research Group Inc",
    "description": "Market Research & Analysis",
    "phone": "(904) 388-2221",
    "address": "1605 Avondale Ave  Jacksonville, FL 32205",
    "location": "Duval"
  },
  {
    "name": "PixelCooks LLC",
    "description": "Internet Marketing & Advertising",
    "phone": "(305) 209-3207",
    "address": "7161 Beach Blvd  Jacksonville, FL 32216",
    "location": "Duval"
  },
  {
    "name": "Krystal Media Innovations",
    "description": "Advertising Agencies",
    "phone": "(904) 222-4038",
    "address": "12220 Atlantic Blvd Ste 130  Jacksonville, FL 32225",
    "location": "Duval"
  },
  {
    "name": "Anthony Grandio Co",
    "description": "Marketing Consultants",
    "phone": "(904) 636-6427",
    "address": "1718 Emerson St  Jacksonville, FL 32207",
    "location": "Duval"
  },
  {
    "name": "Reputation Tiger",
    "description": "Marketing Consultants",
    "phone": "(888) 697-3063",
    "address": "9070 Beach Blvd  Jacksonville, FL 32216",
    "location": "Duval"
  },
  {
    "name": "Enhanced Advertising",
    "description": "Marketing Consultants",
    "phone": "(904) 316-0345",
    "address": "5627 Bishop Ln  Jacksonville, FL 32207",
    "location": "Duval"
  },
  {
    "name": "FJS Marketing",
    "description": "Internet Marketing & Advertising",
    "phone": "(904) 543-0808",
    "address": "1700 San Pablo Rd S Apt 404  Jacksonville, FL 32224",
    "location": "Duval"
  },
  {
    "name": "Crisp and Harrison Agency, Inc.",
    "description": "Advertising Agencies",
    "phone": "(904) 724-2612",
    "address": "11555 Central Pkwy Ste 604  Jacksonville, FL 32224",
    "location": "Duval"
  },
  {
    "name": "American Imaging Machines",
    "description": "Marketing Consultants",
    "phone": "(904) 745-0022",
    "address": "11657 Central Pkwy  Jacksonville, FL 32224",
    "location": "Duval"
  },
  {
    "name": "National Consumer Marketing",
    "description": "Marketing Consultants",
    "phone": "(904) 928-9690",
    "address": "11655 Central Pkwy  Jacksonville, FL 32224",
    "location": "Duval"
  },
  {
    "name": "Multiverse Media Group",
    "description": "Internet Marketing & Advertising",
    "phone": "(904) 701-3016",
    "address": "11655 Central Pkwy Ste 302  Jacksonville, FL 32224",
    "location": "Duval"
  },
  {
    "name": "Nosal and Associates",
    "description": "Marketing Consultants",
    "phone": "(904) 345-2519",
    "address": "3740 Saint Johns Bluff Rd S Ste 8  Jacksonville, FL 32224",
    "location": "Duval"
  },
  {
    "name": "Total Wellness Events",
    "description": "Marketing Consultants",
    "phone": "(904) 329-1786",
    "address": "12025 Beach Blvd  Jacksonville, FL 32246",
    "location": "Duval"
  },
  {
    "name": "American Database Marketing Inc",
    "description": "Marketing Consultants",
    "phone": "(904) 828-0060",
    "address": "3133 Warlin Dr E  Jacksonville, FL 32216",
    "location": "Duval"
  },
  {
    "name": "The Baer Edge Inc.",
    "description": "Print Advertising",
    "phone": "(904) 982-1734",
    "address": "4320 Deerwood Lake Pkwy Ste 101-222  Jacksonville, FL 32216",
    "location": "Duval"
  },
  {
    "name": "ThriftyHires",
    "description": "Internet Marketing & Advertising",
    "phone": "(904) 469-7935",
    "address": "12171 Beach Blvd  Jacksonville, FL 32246",
    "location": "Duval"
  },
  {
    "name": "Progressive",
    "description": "Marketing Consultants",
    "phone": "(904) 220-4461",
    "address": "1550 Lane Ave S  Jacksonville, FL 32210",
    "location": "Duval"
  },
  {
    "name": "ExtraCashTrain",
    "description": "Internet Marketing & Advertising",
    "phone": "(785) 289-1924",
    "address": "7322 Normandy Blvd  Jacksonville, FL 32205",
    "location": "Duval"
  },
  {
    "name": "Lead Source",
    "description": "Marketing Consultants",
    "phone": "(904) 329-2134",
    "address": "6015 Morrow St E  Jacksonville, FL 32217",
    "location": "Duval"
  },
  {
    "name": "Trb Marketing Inc",
    "description": "Marketing Consultants",
    "phone": "(904) 733-9993",
    "address": "6299 Powers Ave  Jacksonville, FL 32217",
    "location": "Duval"
  },
  {
    "name": "Index Marketing Group Inc",
    "description": "Marketing Consultants",
    "phone": "(904) 619-4838",
    "address": "2446 Snowy Egret Dr  Jacksonville, FL 32224",
    "location": "Duval"
  },
  {
    "name": "Socially Bold",
    "description": "Web Site Design & Services",
    "phone": "(904) 574-9775",
    "address": "12620 Beach Blvd Ste 3  Jacksonville, FL 32246",
    "location": "Duval"
  },
  {
    "name": "Jax Beach Websites",
    "description": "Web Site Design & Services",
    "phone": "(904) 802-1211",
    "address": "4540 Southside Blvd  Jacksonville, FL 32216",
    "location": "Duval"
  },
  {
    "name": "Rite Way Sales and Marketing",
    "description": "Marketing Consultants",
    "phone": "(904) 296-2016",
    "address": "6817 Southpoint Pkwy  Jacksonville, FL 32216",
    "location": "Duval"
  },
  {
    "name": "NRW Marketing",
    "description": "Internet Marketing & Advertising",
    "phone": "(904) 204-4640",
    "address": "6260-D2 Dupont Station Ct  Jacksonville, FL 32217",
    "location": "Duval"
  },
  {
    "name": "SEO Factor",
    "description": "Internet Marketing & Advertising",
    "phone": "(904) 993-7796",
    "address": "5327 Colonial Ave  Jacksonville, FL 32210",
    "location": "Duval"
  },
  {
    "name": "Ego Digital Agency",
    "description": "Internet Marketing & Advertising",
    "phone": "(904) 544-6276",
    "address": "6271 St. Augustine Road  Jacksonville, FL 32217",
    "location": "Duval"
  },
  {
    "name": "Acosta Sales And Marketing Company",
    "description": "Marketing Consultants",
    "phone": "(904) 281-9800",
    "address": "6600 Corporate Center Pkwy  Jacksonville, FL 32216",
    "location": "Duval"
  },
  {
    "name": "Ocean Front Events",
    "description": "Marketing Consultants",
    "phone": "(904) 503-7681",
    "address": "6550 Saint Augustine Rd  Jacksonville, FL 32217",
    "location": "Duval"
  },
  {
    "name": "Neptune Marketing & Assoc Inc",
    "description": "Marketing Consultants",
    "phone": "(904) 281-0571",
    "address": "4110 Southpoint Blvd  Jacksonville, FL 32216",
    "location": "Duval"
  },
  {
    "name": "Jax Marketing Solutions",
    "description": "Marketing Consultants",
    "phone": "(904) 619-0227",
    "address": "6821 Southpoint Dr N  Jacksonville, FL 32216",
    "location": "Duval"
  },
  {
    "name": "Pippin Design",
    "description": "Web Site Design & Services",
    "phone": "(904) 383-7477",
    "address": "4215 Southpoint Blvd Ste 250  Jacksonville, FL 32216",
    "location": "Duval"
  },
  {
    "name": "Flip Flop Media",
    "description": "Marketing Consultants",
    "phone": "(904) 551-2409",
    "address": "4237 Salisbury Rd Ste 209  Jacksonville, FL 32216",
    "location": "Duval"
  },
  {
    "name": "Thomas Marketing Consulting",
    "description": "Marketing Consultants",
    "phone": "(904) 651-7976",
    "address": "4401 Salisbury Rd Ste 102  Jacksonville, FL 32216",
    "location": "Duval"
  },
  {
    "name": "Boomclient",
    "description": "Marketing Consultants",
    "phone": "(904) 482-0246",
    "address": "6622 Southpoint Dr S Ste 220  Jacksonville, FL 32216",
    "location": "Duval"
  },
  {
    "name": "YP Marketing Solutions",
    "description": "Directory & Guide Advertising",
    "phone": "(904) 288-2957",
    "address": "4651 Salisbury Rd Ste 300  Jacksonville, FL 32256",
    "location": "Duval"
  },
  {
    "name": "Business Network Designs - Jacksonville",
    "description": "Internet Consultants",
    "phone": "(904) 236-5878",
    "address": "4651 Salisbury Rd Ste 400  Jacksonville, FL 32256",
    "location": "Duval"
  },
  {
    "name": "Meclabs",
    "description": "Advertising Agencies",
    "phone": "(904) 813-7000",
    "address": "4651 Salisbury Rd  Jacksonville, FL 32256",
    "location": "Duval"
  },
  {
    "name": "SeoServices4SmallBusiness",
    "description": "Internet Marketing & Advertising",
    "phone": "(855) 684-9999",
    "address": "4651 Salisbury Rd Ste 4010  Jacksonville, FL 32256",
    "location": "Duval"
  },
  {
    "name": "Revlocal",
    "description": "Internet Marketing & Advertising",
    "phone": "(904) 900-7510",
    "address": "4651 Salisbury Rd  Jacksonville, FL 32256",
    "location": "Duval"
  },
  {
    "name": "Hatchuri Marketing",
    "description": "Web Site Design & Services",
    "phone": "(904) 420-7904",
    "address": "8380 Country Creek Blvd  Jacksonville, FL 32221",
    "location": "Duval"
  },
  {
    "name": "HomeASAP",
    "description": "Internet Marketing & Advertising",
    "phone": "(904) 549-7600",
    "address": "4887 Belfort Rd Ste 400  Jacksonville, FL 32256",
    "location": "Duval"
  },
  {
    "name": "Ruby Solomon Solutions",
    "description": "Marketing Consultants",
    "phone": "(800) 521-4881",
    "address": "4720 Salisbury Rd  Jacksonville, FL 32256",
    "location": "Duval"
  },
  {
    "name": "Internet Marketing Ventures Inc",
    "description": "Internet Marketing & Advertising",
    "phone": "(904) 385-8126",
    "address": "3963 Confederate Point Rd Ste 4  Jacksonville, FL 32210",
    "location": "Duval"
  },
  {
    "name": "Venture Management",
    "description": "Advertising Agencies",
    "phone": "(904) 270-8800",
    "address": "7035 Philips Hwy  Jacksonville, FL 32216",
    "location": "Duval"
  },
  {
    "name": "Blackhat Media",
    "description": "Marketing Consultants",
    "phone": "(904) 379-4669",
    "address": "4905 Belfort Rd  Jacksonville, FL 32256",
    "location": "Duval"
  },
  {
    "name": "Teeone Net Inc",
    "description": "Internet Marketing & Advertising",
    "phone": "(904) 425-0183",
    "address": "4905 Belfort Rd  Jacksonville, FL 32256",
    "location": "Duval"
  },
  {
    "name": "Astonish Internet Marketing Solutions Corp",
    "description": "Marketing Consultants",
    "phone": "(904) 900-0058",
    "address": "2180 Wiley Oaks Ln  Jacksonville, FL 32210",
    "location": "Duval"
  },
  {
    "name": "Pcr Agency",
    "description": "Advertising Agencies",
    "phone": "(904) 923-2062",
    "address": "7235 Bentley Rd  Jacksonville, FL 32256",
    "location": "Duval"
  },
  {
    "name": "Dxm Marketing Group",
    "description": "Internet Marketing & Advertising",
    "phone": "(904) 332-6489",
    "address": "7900 Belfort Pkwy  Jacksonville, FL 32256",
    "location": "Duval"
  },
  {
    "name": "Advantage Sales & Marketing",
    "description": "Marketing Consultants",
    "phone": "(904) 332-4064",
    "address": "7900 Belfort Pkwy Ste 100  Jacksonville, FL 32256",
    "location": "Duval"
  },
  {
    "name": "iHeartMedia",
    "description": "Advertising Agencies",
    "phone": "(904) 636-0507",
    "address": "8000 Belfort Pkwy  Jacksonville, FL 32256",
    "location": "Duval"
  },
  {
    "name": "Digital Edge Marketing",
    "description": "Marketing Consultants",
    "phone": "(904) 982-4915",
    "address": "10161 Centurion Pkwy N #170  Jacksonville, FL 32256",
    "location": "Duval"
  },
  {
    "name": "Smith & Surrency Digital Marketing",
    "description": "Advertising Agencies",
    "phone": "(904) 982-4915",
    "address": "10161 Centurion Pkwy N  Jacksonville, FL 32256",
    "location": "Duval"
  },
  {
    "name": "Brainiac Web Solutions LLC",
    "description": "Internet Marketing & Advertising",
    "phone": "(904) 510-6665",
    "address": "5513 Roosevelt Blvd # 133  Jacksonville, FL 32244",
    "location": "Duval"
  },
  {
    "name": "American Future Tech Corp",
    "description": "Marketing Consultants",
    "phone": "(904) 256-0004",
    "address": "12890 Kelsey Island Dr  Jacksonville, FL 32224",
    "location": "Duval"
  },
  {
    "name": "Pm2 Digital",
    "description": "Advertising Agencies",
    "phone": "(904) 385-9124",
    "address": "5011 Gate Pkwy  Jacksonville, FL 32256",
    "location": "Duval"
  },
  {
    "name": "Effectv",
    "description": "Advertising Agencies",
    "phone": "(888) 877-9799",
    "address": "10751 Deerwood Park Blvd Ste 301  Jacksonville, FL 32256",
    "location": "Duval"
  },
  {
    "name": "Cornerstone Digital Marketing",
    "description": "Marketing Consultants",
    "phone": "(904) 864-4663",
    "address": "13703 Richmond Park Dr N  Jacksonville, FL 32224",
    "location": "Duval"
  },
  {
    "name": "Web.com",
    "description": "Web Site Design & Services",
    "phone": "(866) 655-7679",
    "address": "5335 Gate Pkwy  Jacksonville, FL 32256",
    "location": "Duval"
  },
  {
    "name": "Bluehost.com",
    "description": "Web Site Hosting",
    "phone": "(801) 765-9400",
    "address": "5335 Gate Pkwy  Jacksonville, FL 32256",
    "location": "Duval"
  },
  {
    "name": "904SEO",
    "description": "Internet Marketing & Advertising",
    "phone": "(904) 514-6457",
    "address": "10151 Deerwood Park Blvd  Jacksonville, FL 32256",
    "location": "Duval"
  },
  {
    "name": "My Optimization Experts",
    "description": "Internet Marketing & Advertising",
    "phone": "(904) 955-1807",
    "address": "10151 Deerwood Park Blvd  Jacksonville, FL 32256",
    "location": "Duval"
  },
  {
    "name": "Damarka Enterprises",
    "description": "Marketing Consultants",
    "phone": "(904) 733-0881",
    "address": "8215 Sutton Pl N  Jacksonville, FL 32217",
    "location": "Duval"
  },
  {
    "name": "Marketing 2 Win",
    "description": "Marketing Consultants",
    "phone": "(904) 733-0881",
    "address": "8215 Sutton Pl N  Jacksonville, FL 32217",
    "location": "Duval"
  },
  {
    "name": "Demps",
    "description": "Marketing Consultants",
    "phone": "(904) 739-8033",
    "address": "3809 Lavista Cir Apt 225  Jacksonville, FL 32217",
    "location": "Duval"
  },
  {
    "name": "Val's AVONness",
    "description": "Skin Care",
    "phone": "(904) 772-5245",
    "address": "6890 Mother Goose Rd  Jacksonville, FL 32210",
    "location": "Duval"
  },
  {
    "name": "Wăvvo",
    "description": "Internet Marketing & Advertising",
    "phone": "(904) 862-2250",
    "address": "8505 Baycenter Rd  Jacksonville, FL 32256",
    "location": "Duval"
  },
  {
    "name": "Money Pages",
    "description": "Directory & Guide Advertising",
    "phone": "(904) 306-0086",
    "address": "7892 Baymeadows Way  Jacksonville, FL 32256",
    "location": "Duval"
  },
  {
    "name": "Brackett & Associates Inc",
    "description": "Internet Marketing & Advertising",
    "phone": "(904) 493-0701",
    "address": "13400 Sutton Park Dr S Ste 1503  Jacksonville, FL 32224",
    "location": "Duval"
  },
  {
    "name": "Bursar",
    "description": "Marketing Consultants",
    "phone": "(904) 992-4309",
    "address": "13400 Sutton Park Dr S  Jacksonville, FL 32224",
    "location": "Duval"
  },
  {
    "name": "Renaissance Creative Services",
    "description": "Marketing Consultants",
    "phone": "(904) 332-6536",
    "address": "13901 Sutton Park Dr S Ste 400  Jacksonville, FL 32224",
    "location": "Duval"
  },
  {
    "name": "NightWish Media LLC",
    "description": "Internet Marketing & Advertising",
    "phone": "(904) 605-5011",
    "address": "7900 Baymeadows Circle East  Jacksonville, FL 32256",
    "location": "Duval"
  },
  {
    "name": "Expo Management Co.",
    "description": "Marketing Consultants",
    "phone": "(904) 992-7000",
    "address": "4745 Sutton Park Ct Ste 303  Jacksonville, FL 32224",
    "location": "Duval"
  },
  {
    "name": "Planogramming Solutions Inc",
    "description": "Marketing Consultants",
    "phone": "(904) 448-0834",
    "address": "9080 Baymeadows Park Dr  Jacksonville, FL 32256",
    "location": "Duval"
  },
  {
    "name": "Irwin Investors",
    "description": "Market Research & Analysis",
    "phone": "(904) 731-1811",
    "address": "9250 Baymeadows Rd Ste 350  Jacksonville, FL 32256",
    "location": "Duval"
  },
  {
    "name": "Global Face",
    "description": "Marketing Consultants",
    "phone": "(904) 683-5987",
    "address": "9424 Baymeadows Rd  Jacksonville, FL 32256",
    "location": "Duval"
  },
  {
    "name": "Sirsha And Associates",
    "description": "Marketing Consultants",
    "phone": "(904) 619-3613",
    "address": "8431 Baymeadows Way Ste 2  Jacksonville, FL 32256",
    "location": "Duval"
  },
  {
    "name": "Island Marketing Services",
    "description": "Marketing Consultants",
    "phone": "(904) 551-1317",
    "address": "8493 Baymeadows Way  Jacksonville, FL 32256",
    "location": "Duval"
  },
  {
    "name": "River City Web Solutions",
    "description": "Internet Marketing & Advertising",
    "phone": "(904) 413-1186",
    "address": "1523 Chaffee Rd S Unit 1523  Jacksonville, FL 32221",
    "location": "Duval"
  },
  {
    "name": "Pageoneplease",
    "description": "Internet Marketing & Advertising",
    "phone": "(904) 701-3096",
    "address": "9536 Princeton Square Blvd S  Jacksonville, FL 32256",
    "location": "Duval"
  },
  {
    "name": "Crissien Online",
    "description": "Internet Marketing & Advertising",
    "phone": "(904) 214-1100",
    "address": "3956 Sunbeam Rd Ste 1  Jacksonville, FL 32257",
    "location": "Duval"
  },
  {
    "name": "Ledpetsaccessories.com",
    "description": "Internet Marketing & Advertising",
    "phone": "(904) 982-6062",
    "address": "5623 Ortega Park Blvd  Jacksonville, FL 32244",
    "location": "Duval"
  },
  {
    "name": "Image Media & Marketing",
    "description": "Marketing Consultants",
    "phone": "(904) 367-0803",
    "address": "9482 Wexford Rd  Jacksonville, FL 32257",
    "location": "Duval"
  },
  {
    "name": "Image Media & Marketing Inc",
    "description": "Internet Marketing & Advertising",
    "phone": "(904) 367-0803",
    "address": "3390 Kori Rd  Jacksonville, FL 32257",
    "location": "Duval"
  },
  {
    "name": "Curtis Wood theArtofBizLoyalty.com",
    "description": "Marketing Consultants",
    "phone": "(904) 316-5566",
    "address": "10621 Spring View Rd  Jacksonville, FL 32221",
    "location": "Duval"
  },
  {
    "name": "Blue Water Design Studio",
    "description": "Marketing Consultants",
    "phone": "(904) 322-7625",
    "address": "7341 Hennessy Rd  Jacksonville, FL 32244",
    "location": "Duval"
  },
  {
    "name": "High Line Leads",
    "description": "Advertising Agencies",
    "phone": "(904) 236-6160",
    "address": "5724 Gasparilla Park Ct  Jacksonville, FL 32244",
    "location": "Duval"
  },
  {
    "name": "Acosta",
    "description": "Marketing Consultants",
    "phone": "(904) 519-8014",
    "address": "8952 Western Way  Jacksonville, FL 32256",
    "location": "Duval"
  },
  {
    "name": "Design Right 4 U",
    "description": "Web Site Design & Services",
    "phone": "(904) 314-4057",
    "address": "3712 Buffalo Landing Ct  Jacksonville, FL 32257",
    "location": "Duval"
  },
  {
    "name": "Motor Vehicle Marketing",
    "description": "Marketing Consultants",
    "phone": "(904) 730-8561",
    "address": "5535 Shad Rd  Jacksonville, FL 32257",
    "location": "Duval"
  },
  {
    "name": "Bear Marketing Solutions",
    "description": "Marketing Consultants",
    "phone": "(904) 372-0470",
    "address": "1213 Cove Landing Dr  Jacksonville, FL 32233",
    "location": "Duval"
  },
  {
    "name": "Red House Advertising and Marketing",
    "description": "Internet Marketing & Advertising",
    "phone": "(904) 270-9390",
    "address": "2027 Mayport Rd  Jacksonville, FL 32233",
    "location": "Duval"
  },
  {
    "name": "4 Elements Agency",
    "description": "Internet Marketing & Advertising",
    "phone": "(904) 480-6395",
    "address": "1314 1st Ave N  Jacksonville Beach, FL 32250",
    "location": "Duval"
  },
  {
    "name": "Capital Market Group",
    "description": "Marketing Consultants",
    "phone": "(904) 310-9984",
    "address": "96270 Captains Pointe Rd  Yulee, FL 32097",
    "location": "Duval"
  },
  {
    "name": "SNAP-MFS.IN",
    "description": "Internet Marketing & Advertising",
    "phone": "(904) 236-2210",
    "address": "97 Levy Rd  Atlantic Beach, FL 32233",
    "location": "Duval"
  },
  {
    "name": "webMedia Parkway",
    "description": "Internet Marketing & Advertising",
    "phone": "(904) 328-2193",
    "address": "910 S 8th St Ste 121  Fernandina Beach, FL 32034",
    "location": "Duval"
  },
  {
    "name": "On Ten Design",
    "description": "Internet Consultants",
    "phone": "(904) 999-6968",
    "address": "1015 Atlantic Blvd # 109  Atlantic Beach, FL 32233",
    "location": "Duval"
  },
  {
    "name": "Artex Creative",
    "description": "Web Site Design & Services",
    "phone": "(904) 330-4932",
    "address": "331 Seminole Rd  Atlantic Beach, FL 32233",
    "location": "Duval"
  },
  {
    "name": "Taylor Marketing",
    "description": "Marketing Consultants",
    "phone": "(904) 624-7115",
    "address": "725 S 15th St  Fernandina Beach, FL 32034",
    "location": "Duval"
  },
  {
    "name": "Search Engine Optimization",
    "description": "Internet Marketing & Advertising",
    "phone": "(904) 382-7983",
    "address": "1208 Forest Marsh Dr  Neptune Beach, FL 32266",
    "location": "Duval"
  },
  {
    "name": "Dawngrant.com",
    "description": "Internet Marketing & Advertising",
    "phone": "(904) 753-0640",
    "address": "117 Centre St  Fernandina Beach, FL 32034",
    "location": "Duval"
  },
  {
    "name": "Amelia Business Consultants",
    "description": "Management Training",
    "phone": "(904) 576-8885",
    "address": "316d Centre St  Fernandina Beach, FL 32034",
    "location": "Duval"
  },
  {
    "name": "Rjs Digital Marketing & Media",
    "description": "Marketing Consultants",
    "phone": "(904) 631-7996",
    "address": "510 Valley Forge Rd E  Neptune Beach, FL 32266",
    "location": "Duval"
  },
  {
    "name": "NJS Marketing LLC",
    "description": "Marketing Consultants",
    "phone": "(904) 419-7848",
    "address": "14286 Beach Blvd Ste 14286  Jacksonville Beach, FL 32250",
    "location": "Duval"
  },
  {
    "name": "Picture Happy Media",
    "description": "Print Advertising",
    "phone": "(904) 226-6207",
    "address": "9 N 14th St  Fernandina Beach, FL 32034",
    "location": "Duval"
  },
  {
    "name": "Gotsoccer",
    "description": "Computer Software Publishers & Developers",
    "phone": "(904) 241-8889",
    "address": "750 3rd St  Neptune Beach, FL 32266",
    "location": "Duval"
  },
  {
    "name": "Ignis Petra",
    "description": "Internet Marketing & Advertising",
    "phone": "(931) 220-8977",
    "address": "1100 Seagate Ave Apt 145  Neptune Beach, FL 32266",
    "location": "Duval"
  },
  {
    "name": "Oyova",
    "description": "Internet Marketing & Advertising",
    "phone": "(904) 322-8820",
    "address": "1723 Penman Rd  Jacksonville Beach, FL 32250",
    "location": "Duval"
  },
  {
    "name": "Dion Marketing Co",
    "description": "Marketing Consultants",
    "phone": "(904) 249-9784",
    "address": "1721 Penman Rd  Jacksonville Beach, FL 32250",
    "location": "Duval"
  },
  {
    "name": "Russ Research Services",
    "description": "Market Research & Analysis",
    "phone": "(904) 249-0742",
    "address": "1532 7th St N  Jacksonville Beach, FL 32250",
    "location": "Duval"
  },
  {
    "name": "Small Business SEO",
    "description": "Marketing Consultants",
    "phone": "(904) 878-8756",
    "address": "1686 Lower 4th Ave N  Jacksonville Beach, FL 32250",
    "location": "Duval"
  },
  {
    "name": "Trianalytics",
    "description": "Market Research & Analysis",
    "phone": "(904) 372-4638",
    "address": "1909 Beach Blvd Ste 203  Jacksonville Beach, FL 32250",
    "location": "Duval"
  },
  {
    "name": "Dion Marketing Jacksonville Beach",
    "description": "Marketing Consultants",
    "phone": "(904) 249-9784",
    "address": "1421 3rd St N  Jacksonville Beach, FL 32250",
    "location": "Duval"
  },
  {
    "name": "Fincel Design",
    "description": "Web Site Design & Services",
    "phone": "(904) 834-0509",
    "address": "628 7th Ave N  Jacksonville Beach, FL 32250",
    "location": "Duval"
  },
  {
    "name": "Yovia",
    "description": "Marketing Consultants",
    "phone": "(904) 853-5476",
    "address": "1372 Beach Blvd  Jacksonville Beach, FL 32250",
    "location": "Duval"
  },
  {
    "name": "C7 Creative",
    "description": "Internet Marketing & Advertising",
    "phone": "(904) 395-1944",
    "address": "525 3rd St N Ste 125  Jacksonville Beach, FL 32250",
    "location": "Duval"
  },
  {
    "name": "354 Media LLc",
    "description": "Interactive Media",
    "phone": "(904) 864-3107",
    "address": "525 3rd ST N  Jacksonville Beach, FL 32250",
    "location": "Duval"
  },
  {
    "name": "Marketing Expert Consulting",
    "description": "Marketing Consultants",
    "phone": "(904) 372-7833",
    "address": "751 1st Ave N  Jacksonville Beach, FL 32250",
    "location": "Duval"
  },
  {
    "name": "Ferocious Media",
    "description": "Advertising Agencies",
    "phone": "(800) 454-9103",
    "address": "320 1st St N Ste 714  Jacksonville Beach, FL 32250",
    "location": "Duval"
  },
  {
    "name": "5ivecanons",
    "description": "Interactive Media",
    "phone": "(904) 372-4603",
    "address": "420 3rd St S  Jacksonville Beach, FL 32250",
    "location": "Duval"
  },
  {
    "name": "Early Bird Solutions, LLC",
    "description": "Internet Marketing & Advertising",
    "phone": "(904) 527-3224",
    "address": "13820 Old Saint Augustine Rd  Jacksonville, FL 32258",
    "location": "Duval"
  },
  {
    "name": "Vector Marketing",
    "description": "Marketing Consultants",
    "phone": "(904) 647-5517",
    "address": "10450 San Jose Blvd  Jacksonville, FL 32257",
    "location": "Duval"
  },
  {
    "name": "SumitSEO",
    "description": "Internet Marketing & Advertising",
    "phone": "(904) 345-0944",
    "address": "10503 San Jose Blvd Ste 4  Jacksonville, FL 32257",
    "location": "Duval"
  },
  {
    "name": "W.O.K. Marketing, Inc.",
    "description": "Marketing Consultants",
    "phone": "(904) 634-7188",
    "address": "2970 Hartley Rd  Jacksonville, FL 32257",
    "location": "Duval"
  },
  {
    "name": "Acosta Inc",
    "description": "Food Products-Wholesale",
    "phone": "(904) 772-1200",
    "address": "6255 Lake Gray Blvd  Jacksonville, FL 32244",
    "location": "Duval"
  },
  {
    "name": "Maxclix",
    "description": "Internet Marketing & Advertising",
    "phone": "(844) 629-2549",
    "address": "4656 Collins Rd  Jacksonville, FL 32244",
    "location": "Duval"
  },
  {
    "name": "Advantage Sales",
    "description": "Food Products-Wholesale",
    "phone": "(904) 292-9009",
    "address": "7411 Fullerton St  Jacksonville, FL 32256",
    "location": "Duval"
  },
  {
    "name": "Quick Test/Heakin Research Inc",
    "description": "Market Research & Analysis",
    "phone": "(904) 363-2281",
    "address": "10300 Southside Blvd  Jacksonville, FL 32256",
    "location": "Duval"
  },
  {
    "name": "Solutions Thru Advanced",
    "description": "Market Research & Analysis",
    "phone": "(904) 619-8157",
    "address": "10175 Fortune Pkwy  Jacksonville, FL 32256",
    "location": "Duval"
  },
  {
    "name": "Daily Net Pay",
    "description": "Internet Marketing & Advertising",
    "phone": "(904) 887-8478",
    "address": "3355 Claire Ln  Jacksonville, FL 32223",
    "location": "Duval"
  },
  {
    "name": "Taking Cash Back",
    "description": "Sales Promotion Service",
    "phone": "(904) 662-4261",
    "address": "11250 Old Saint Augustine Rd  Jacksonville, FL 32257",
    "location": "Duval"
  },
  {
    "name": "Smart Works Marketing Communications",
    "description": "Marketing Consultants",
    "phone": "(904) 288-6600",
    "address": "11247 San Jose Blvd  Jacksonville, FL 32223",
    "location": "Duval"
  },
  {
    "name": "Amy W Pritchett Creative Advertising Services",
    "description": "Marketing Consultants",
    "phone": "(904) 527-3664",
    "address": "11239 Losco Junction Dr S  Jacksonville, FL 32257",
    "location": "Duval"
  },
  {
    "name": "Fragcatering.com",
    "description": "Internet Marketing & Advertising",
    "phone": "(904) 888-2982",
    "address": "11459 Earline Cir W  Jacksonville, FL 32258",
    "location": "Duval"
  },
  {
    "name": "The Integrity Solutions",
    "description": "Marketing Consultants",
    "phone": "(904) 772-1490",
    "address": "9025 Bridgecreek Dr  Jacksonville, FL 32244",
    "location": "Duval"
  },
  {
    "name": "Cool Foods of North Florida",
    "description": "Marketing Consultants",
    "phone": "(877) 755-7276",
    "address": "2719 Brandybuck Trl  Jacksonville, FL 32223",
    "location": "Duval"
  },
  {
    "name": "Search Seek Destroy",
    "description": "Internet Marketing & Advertising",
    "phone": "(904) 469-7335",
    "address": "11979 Colby Creek Dr  Jacksonville, FL 32258",
    "location": "Duval"
  },
  {
    "name": "RNR Inc.",
    "description": "Internet Marketing & Advertising",
    "phone": "(904) 541-6675",
    "address": "11995 Marldon Ln  Jacksonville, FL 32258",
    "location": "Duval"
  },
  {
    "name": "1stOpresidentialcleaning.com",
    "description": "Internet Marketing & Advertising",
    "phone": "(904) 738-7260",
    "address": "9526 Argyle Forest Blvd  Jacksonville, FL 32222",
    "location": "Duval"
  },
  {
    "name": "DarttSpark Marketing",
    "description": "Internet Marketing & Advertising",
    "phone": "(904) 567-7977",
    "address": "12330 Valpariso Trl  Jacksonville, FL 32223",
    "location": "Duval"
  },
  {
    "name": "Vizzitopia",
    "description": "Internet Marketing & Advertising",
    "phone": "(907) 217-3749",
    "address": "12421 San Jose Blvd Ste 200g  Jacksonville, FL 32223",
    "location": "Duval"
  },
  {
    "name": "HFI Web Design",
    "description": "Internet Marketing & Advertising",
    "phone": "(904) 699-3429",
    "address": "4514 Julington Creek Rd  Jacksonville, FL 32258",
    "location": "Duval"
  },
  {
    "name": "Solutions Through Advanced Research",
    "description": "Market Research & Analysis",
    "phone": "(904) 619-8157",
    "address": "14545 Old Saint Augustine Rd  Jacksonville, FL 32258",
    "location": "Duval"
  },
  {
    "name": "Olpbettertest",
    "description": "Marketing Consultants",
    "phone": "(904) 680-6988",
    "address": "12808B Gran Bay Pkwy W  Jacksonville, FL 32258",
    "location": "Duval"
  },
  {
    "name": "Majority Strategies",
    "description": "Marketing Consultants",
    "phone": "(904) 567-2008",
    "address": "12854 Kenan Dr  Jacksonville, FL 32258",
    "location": "Duval"
  },
  {
    "name": "C2 Marketing Inc",
    "description": "Marketing Consultants",
    "phone": "(904) 683-6688",
    "address": "13241 Bartram Park Blvd Unit 221  Jacksonville, FL 32258",
    "location": "Duval"
  },
  {
    "name": "enCode",
    "description": "Incentive Programs",
    "phone": "(904) 501-3042",
    "address": "Po Box 600534  Jacksonville, FL 32260",
    "location": "Duval"
  }
]
