[
  {
    "name": "Maxzim Marketing Incorporated",
    "description": "Marketing Programs & Services",
    "phone": "(850) 865-9145",
    "address": "2224 S Fairview St  Fort Walton Beach, FL 32548",
    "location": "Escambia"
  },
  {
    "name": "total life changes",
    "description": "Marketing Programs & Services",
    "phone": "(850) 225-6278",
    "address": "118 Laurel Oak Ter  Crestview, FL 32536",
    "location": "Escambia"
  },
  {
    "name": "Ecomasterboards.com",
    "description": "Internet Marketing & Advertising",
    "phone": "(813) 777-6661",
    "address": "5715 Highway 85 N  Crestview, FL 32536",
    "location": "Escambia"
  },
  {
    "name": "Jo's Marykay",
    "description": "Sales Promotion Service",
    "phone": "(850) 826-8830",
    "address": "5565 pine lake dr  Crestview, FL 32539",
    "location": "Escambia"
  },
  {
    "name": "Millennium Marketing",
    "description": "Marketing Consultants",
    "phone": "(850) 682-7626",
    "address": "303 E 1st Ave  Crestview, FL 32536",
    "location": "Escambia"
  },
  {
    "name": "Work at Home Jobs and Opportunities",
    "description": "Internet Marketing & Advertising",
    "phone": "(850) 225-6278",
    "address": "118 Laurel Oak Ter  Crestview, FL 32536",
    "location": "Escambia"
  },
  {
    "name": "Independent Scentsy Consultant Jolene Patterson",
    "description": "Candles-Wholesale & Manufacturers",
    "phone": "(850) 603-4806",
    "address": "425 N Hathaway St  Crestview, FL 32539",
    "location": "Escambia"
  },
  {
    "name": "Trophy Center Inc",
    "description": "Awards",
    "phone": "(850) 862-8413",
    "address": "529 Eglin Pkwy NE  Fort Walton Beach, FL 32547",
    "location": "Escambia"
  }
]
