[
  {
    "name": "Troc",
    "description": "Marketing Programs & Services",
    "phone": "(305) 539-3810",
    "address": "800 S Douglas Rd Ste 450  Coral Gables, FL 33134",
    "location": "Flagler"
  },
  {
    "name": "Wow Factor Marketing Group",
    "description": "Marketing Programs & Services",
    "phone": "(305) 273-8373",
    "address": "804 S Douglas Rd  Coral Gables, FL 33134",
    "location": "Flagler"
  },
  {
    "name": "Brand the Collective",
    "description": "Marketing Programs & Services",
    "phone": "(305) 442-9196",
    "address": "1600 Ponce De Leon Blvd  Coral Gables, FL 33134",
    "location": "Flagler"
  },
  {
    "name": "The JLS Agency",
    "description": "Marketing Programs & Services",
    "phone": "(786) 472-5933",
    "address": "255 Alhambra Cir Ste 1160  Coral Gables, FL 33134",
    "location": "Flagler"
  },
  {
    "name": "Imagen the Marketing Agency",
    "description": "Marketing Programs & Services",
    "phone": "(305) 774-9443",
    "address": "95 Merrick Way  Coral Gables, FL 33134",
    "location": "Flagler"
  },
  {
    "name": "Sedona Marketing Limited Liability Company",
    "description": "Marketing Programs & Services",
    "phone": "(888) 209-5051",
    "address": "2370 W Sr 89a  Miami, FL 33134",
    "location": "Flagler"
  },
  {
    "name": "E & D Marketing Solutions",
    "description": "Marketing Programs & Services",
    "phone": "(786) 801-1593",
    "address": "2742 SW 8th St  Miami, FL 33135",
    "location": "Flagler"
  },
  {
    "name": "305 vacation marketing",
    "description": "Marketing Programs & Services",
    "phone": "(305) 773-7852",
    "address": "4721 NW 7th St  Miami, FL 33126",
    "location": "Flagler"
  },
  {
    "name": "Dmar Online Marketing",
    "description": "Marketing Programs & Services",
    "phone": "(855) 423-1319",
    "address": "231 NW 51st Ave  Miami, FL 33126",
    "location": "Flagler"
  },
  {
    "name": "Amami Marketing Management",
    "description": "Marketing Programs & Services",
    "phone": "(785) 317-7741",
    "address": "1821 SW 27th Ave  Miami, FL 33145",
    "location": "Flagler"
  },
  {
    "name": "Beta II Marketing",
    "description": "Marketing Programs & Services",
    "phone": "(305) 263-7483",
    "address": "5200 Waterford District Dr  Miami, FL 33126",
    "location": "Flagler"
  },
  {
    "name": "Tal International",
    "description": "Marketing Programs & Services",
    "phone": "(786) 388-1825",
    "address": "5200 Waterford District Dr Ste 620  Miami, FL 33126",
    "location": "Flagler"
  },
  {
    "name": "Havas Media",
    "description": "Marketing Programs & Services",
    "phone": "(305) 377-1907",
    "address": "5201 Blue Lagoon Dr  Miami, FL 33126",
    "location": "Flagler"
  },
  {
    "name": "Brican America",
    "description": "Marketing Programs & Services",
    "phone": "(786) 388-6995",
    "address": "5301 Blue Lagoon Dr  Miami, FL 33126",
    "location": "Flagler"
  },
  {
    "name": "Siinc Agency",
    "description": "Marketing Programs & Services",
    "phone": "(305) 438-0225",
    "address": "1862 W Flagler St  Miami, FL 33135",
    "location": "Flagler"
  },
  {
    "name": "Document Imaging in Miami",
    "description": "Marketing Programs & Services",
    "phone": "(954) 858-5752",
    "address": "Miami FL  Miami, FL 33173",
    "location": "Flagler"
  },
  {
    "name": "Micro Media Marketing Inc",
    "description": "Marketing Programs & Services",
    "phone": "(347) 878-6696",
    "address": "55 Merrick Way  Coral Gables, FL 33134",
    "location": "Flagler"
  },
  {
    "name": "The Profit Lab",
    "description": "Marketing Programs & Services",
    "phone": "(786) 693-2208",
    "address": "2332 Galiano St 2nd Fl  Coral Gables, FL 33134",
    "location": "Flagler"
  },
  {
    "name": "Ebs",
    "description": "Marketing Programs & Services",
    "phone": "(305) 523-9695",
    "address": "2332 Galiano St  Coral Gables, FL 33134",
    "location": "Flagler"
  },
  {
    "name": "American Marketing Assn-South",
    "description": "Marketing Programs & Services",
    "phone": "(312) 542-9000",
    "address": "265 Aragon Ave  Coral Gables, FL 33134",
    "location": "Flagler"
  },
  {
    "name": "Ryder System, Inc",
    "description": "Marketing Programs & Services",
    "phone": "(305) 500-3726",
    "address": "2333 Ponce De Leon Blvd  Coral Gables, FL 33134",
    "location": "Flagler"
  },
  {
    "name": "Thr33fold",
    "description": "Marketing Programs & Services",
    "phone": "(305) 389-5909",
    "address": "2333 Ponce De Leon Blvd  Coral Gables, FL 33134",
    "location": "Flagler"
  },
  {
    "name": "Glabes Social Media",
    "description": "Marketing Programs & Services",
    "phone": "(786) 344-0377",
    "address": "2525 Ponce De Leon Blvd  Coral Gables, FL 33134",
    "location": "Flagler"
  },
  {
    "name": "Chopard",
    "description": "Marketing Programs & Services",
    "phone": "(305) 774-3898",
    "address": "75 Valencia Ave Ste 1000  Coral Gables, FL 33134",
    "location": "Flagler"
  },
  {
    "name": "DLC Integrated Marketing Corp",
    "description": "Marketing Programs & Services",
    "phone": "(305) 374-9494",
    "address": "2600 S Douglas Rd  Coral Gables, FL 33134",
    "location": "Flagler"
  },
  {
    "name": "Toki Dream Team Promotions Inc.",
    "description": "Marketing Programs & Services",
    "phone": "(786) 683-4523",
    "address": "Po Box 143609  Coral Gables, FL 33114",
    "location": "Flagler"
  },
  {
    "name": "Market Analytics Group",
    "description": "Marketing Programs & Services",
    "phone": "(305) 442-7300",
    "address": "1131 Obispo Ave  Coral Gables, FL 33134",
    "location": "Flagler"
  },
  {
    "name": "Xplocial",
    "description": "Marketing Programs & Services",
    "phone": "(205) 533-5680",
    "address": "2660 SW 37th Ave  Coconut Grove, FL 33133",
    "location": "Flagler"
  },
  {
    "name": "Nm+U",
    "description": "Marketing Programs & Services",
    "phone": "(305) 445-9020",
    "address": "2103 Coral Way  Coral Gables, FL 33145",
    "location": "Flagler"
  },
  {
    "name": "Internet Marketing Consultants",
    "description": "Marketing Programs & Services",
    "phone": "(786) 515-7021",
    "address": "550 NW 51st Ave Apt B  Miami, FL 33126",
    "location": "Flagler"
  },
  {
    "name": "Garcia Lorenzo & Associates",
    "description": "Marketing Programs & Services",
    "phone": "(305) 266-8662",
    "address": "6527 Coral Way  Miami, FL 33155",
    "location": "Flagler"
  },
  {
    "name": "Vantage Communications",
    "description": "Marketing Programs & Services",
    "phone": "(305) 431-2581",
    "address": "1826 SW 21st St  Miami, FL 33145",
    "location": "Flagler"
  },
  {
    "name": "Media Corp Leo",
    "description": "Marketing Programs & Services",
    "phone": "(786) 391-2964",
    "address": "1801 Coral Way  Miami, FL 33145",
    "location": "Flagler"
  },
  {
    "name": "DONALDSON MARKETING",
    "description": "Marketing Programs & Services",
    "phone": "(678) 830-9327",
    "address": "3070 New York St  Miami, FL 33133",
    "location": "Flagler"
  },
  {
    "name": "Chase Marketing Group",
    "description": "Marketing Programs & Services",
    "phone": "(305) 567-0280",
    "address": "2937 SW 27th Ave  Miami, FL 33133",
    "location": "Flagler"
  },
  {
    "name": "DeepSleep Studio",
    "description": "Marketing Programs & Services",
    "phone": "(305) 720-2990",
    "address": "2140 S Dixie Hwy  Miami, FL 33133",
    "location": "Flagler"
  },
  {
    "name": "Leo Media Marketing",
    "description": "Marketing Programs & Services",
    "phone": "(786) 304-1300",
    "address": "1720 NW North River Dr  Miami, FL 33125",
    "location": "Flagler"
  },
  {
    "name": "Aerolineas Argentinas",
    "description": "Marketing Programs & Services",
    "phone": "(305) 261-0100",
    "address": "5835 Waterford District Dr  Miami, FL 33126",
    "location": "Flagler"
  },
  {
    "name": "Alemao Maria Elena",
    "description": "Marketing Programs & Services",
    "phone": "(305) 639-8481",
    "address": "1393 SW 1st St  Miami, FL 33135",
    "location": "Flagler"
  },
  {
    "name": "Doubleshot Marketing",
    "description": "Marketing Programs & Services",
    "phone": "(305) 780-4958",
    "address": "2285 SW 17th Ave  Miami, FL 33145",
    "location": "Flagler"
  },
  {
    "name": "Innovo Advertising",
    "description": "Marketing Programs & Services",
    "phone": "(305) 741-2591",
    "address": "6101 Waterford District Dr  Miami, FL 33126",
    "location": "Flagler"
  },
  {
    "name": "Excel Creative Group",
    "description": "Marketing Programs & Services",
    "phone": "(305) 479-8630",
    "address": "1525 SW 13th Ave  Miami, FL 33145",
    "location": "Flagler"
  },
  {
    "name": "Navigant Marketing",
    "description": "Marketing Programs & Services",
    "phone": "(305) 929-8300",
    "address": "6100 Coral Way  Miami, FL 33155",
    "location": "Flagler"
  },
  {
    "name": "Sandra Clavijo-Bowman & Assoc",
    "description": "Marketing Programs & Services",
    "phone": "(305) 860-0901",
    "address": "2551 Tigertail Ave  Miami, FL 33133",
    "location": "Flagler"
  },
  {
    "name": "Green Marketing",
    "description": "Marketing Programs & Services",
    "phone": "(407) 936-1406",
    "address": "1444 NW 14th Ave  Miami, FL 33125",
    "location": "Flagler"
  },
  {
    "name": "Say I Do Marketing",
    "description": "Marketing Programs & Services",
    "phone": "(786) 309-6794",
    "address": "1065 SW 8th St  Miami, FL 33130",
    "location": "Flagler"
  },
  {
    "name": "Premire Market Corp",
    "description": "Marketing Programs & Services",
    "phone": "(305) 635-8986",
    "address": "2254 NW 28th St  Miami, FL 33142",
    "location": "Flagler"
  },
  {
    "name": "Sponsorise Me America",
    "description": "Marketing Programs & Services",
    "phone": "(305) 640-5965",
    "address": "3339 Virginia St Apt 101  Miami, FL 33133",
    "location": "Flagler"
  },
  {
    "name": "Socialated",
    "description": "Marketing Programs & Services",
    "phone": "(786) 378-6116",
    "address": "2665 S Bayshore Dr Ste 1103  Miami, FL 33133",
    "location": "Flagler"
  },
  {
    "name": "Virsocom Inc",
    "description": "Marketing Programs & Services",
    "phone": "(786) 353-0706",
    "address": "2665 S Bayshore Dr  Miami, FL 33133",
    "location": "Flagler"
  },
  {
    "name": "Stradigys",
    "description": "Marketing Programs & Services",
    "phone": "(786) 558-8372",
    "address": "2665 S Bayshore Dr  Miami, FL 33133",
    "location": "Flagler"
  },
  {
    "name": "Global Marketing",
    "description": "Marketing Programs & Services",
    "phone": "(786) 953-4860",
    "address": "2828 SW 3rd Ave  Miami, FL 33129",
    "location": "Flagler"
  },
  {
    "name": "Premire World Marketing",
    "description": "Marketing Programs & Services",
    "phone": "(305) 856-7083",
    "address": "2600 SW 3rd Ave  Miami, FL 33129",
    "location": "Flagler"
  },
  {
    "name": "Veritas Marketing and Distribution",
    "description": "Marketing Programs & Services",
    "phone": "(305) 636-5454",
    "address": "1561 NW 28th St  Miami, FL 33142",
    "location": "Flagler"
  },
  {
    "name": "01 Programs",
    "description": "Marketing Programs & Services",
    "phone": "(305) 204-6320",
    "address": "208 nw 71st ave  Miami, FL 33126",
    "location": "Flagler"
  },
  {
    "name": "Act Marketing",
    "description": "Marketing Programs & Services",
    "phone": "(305) 982-8011",
    "address": "4471 NW 36th St  Miami Springs, FL 33166",
    "location": "Flagler"
  },
  {
    "name": "Grupo Bt USA",
    "description": "Marketing Programs & Services",
    "phone": "(305) 740-3030",
    "address": "4944 S Le Jeune Rd  Coral Gables, FL 33146",
    "location": "Flagler"
  },
  {
    "name": "J. Daniel Company",
    "description": "Marketing Programs & Services",
    "phone": "(305) 717-8439",
    "address": "990 Biscayne Blvd Ste 503  Miami, FL 33132",
    "location": "Flagler"
  },
  {
    "name": "Imagineer Customer Experience",
    "description": "Marketing Programs & Services",
    "phone": "(305) 600-4344",
    "address": "333 SE 2nd Ave  Miami, FL 33131",
    "location": "Flagler"
  },
  {
    "name": "Capture Times",
    "description": "Marketing Programs & Services",
    "phone": "(833) 318-1940",
    "address": "2492 NW 44th St  Miami, FL 33142",
    "location": "Flagler"
  },
  {
    "name": "Bijoux Nouveau",
    "description": "Marketing Programs & Services",
    "phone": "(800) 262-3614",
    "address": "755 NW 72nd Ave  Miami, FL 33126",
    "location": "Flagler"
  },
  {
    "name": "Champions Media Group LLC.",
    "description": "Marketing Programs & Services",
    "phone": "(786) 683-3104",
    "address": "340 W Flagler St Apt 1603  Miami, FL 33130",
    "location": "Flagler"
  },
  {
    "name": "Precision Digital",
    "description": "Marketing Programs & Services",
    "phone": "(305) 741-5114",
    "address": "2451 Brickell Ave  Miami, FL 33129",
    "location": "Flagler"
  },
  {
    "name": "Smart Target Marketing",
    "description": "Marketing Programs & Services",
    "phone": "(305) 667-6665",
    "address": "5720 SW 52nd Ter  Miami, FL 33155",
    "location": "Flagler"
  },
  {
    "name": "P.S. This Rocks",
    "description": "Marketing Programs & Services",
    "phone": "(305) 703-3035",
    "address": "150 SE 25th Rd  Miami, FL 33129",
    "location": "Flagler"
  },
  {
    "name": "Succes Marketing Inc.",
    "description": "Marketing Programs & Services",
    "phone": "(305) 812-9112",
    "address": "955 SW 2nd Ave Apt 10  Miami, FL 33130",
    "location": "Flagler"
  },
  {
    "name": "Digilogic Marketing Agencies",
    "description": "Marketing Programs & Services",
    "phone": "(774) 757-2925",
    "address": "218 NW 8th St  Miami, FL 33136",
    "location": "Flagler"
  },
  {
    "name": "Rise Marketing Agency",
    "description": "Marketing Programs & Services",
    "phone": "(305) 209-0690",
    "address": "187 SW 7th St  Miami, FL 33130",
    "location": "Flagler"
  },
  {
    "name": "Tiger Shark Commerce",
    "description": "Marketing Programs & Services",
    "phone": "(954) 907-3055",
    "address": "1901 Brickell Ave  Miami, FL 33129",
    "location": "Flagler"
  },
  {
    "name": "Metrostudio",
    "description": "Marketing Programs & Services",
    "phone": "(305) 424-9164",
    "address": "78 SW 7th St  Miami, FL 33130",
    "location": "Flagler"
  },
  {
    "name": "UpLevel Flow",
    "description": "Marketing Programs & Services",
    "phone": "(786) 882-7923",
    "address": "66 W Flagler St Ste 900  Miami, FL 33130",
    "location": "Flagler"
  },
  {
    "name": "Trueba Media-Digital Marketing Agency",
    "description": "Marketing Programs & Services",
    "phone": "(305) 239-7575",
    "address": "66 W Flagler St  Miami, FL 33130",
    "location": "Flagler"
  },
  {
    "name": "Vitalstream Marketing & Consultancy",
    "description": "Marketing Programs & Services",
    "phone": "(786) 699-6839",
    "address": "66 W Flagler St  Miami, FL 33130",
    "location": "Flagler"
  },
  {
    "name": "Thrive Internet Marketing Agency",
    "description": "Marketing Programs & Services",
    "phone": "(786) 600-2128",
    "address": "80 SW 8th St Ste 2000  Miami, FL 33130",
    "location": "Flagler"
  },
  {
    "name": "Florida East Coast Industries",
    "description": "Marketing Programs & Services",
    "phone": "(305) 520-2300",
    "address": "700 NW 1st Ave  Miami, FL 33136",
    "location": "Flagler"
  },
  {
    "name": "General Services Administration",
    "description": "Marketing Programs & Services",
    "phone": "(305) 400-6160",
    "address": "333 S Miami Ave Ste 200  Miami, FL 33130",
    "location": "Flagler"
  },
  {
    "name": "Doally",
    "description": "Marketing Programs & Services",
    "phone": "(786) 431-0115",
    "address": "701 S Miami Ave Unit 245B  Miami, FL 33130",
    "location": "Flagler"
  },
  {
    "name": "Omni Direct Inc",
    "description": "Marketing Programs & Services",
    "phone": "(786) 391-1091",
    "address": "1450 Brickell Ave  Miami, FL 33131",
    "location": "Flagler"
  },
  {
    "name": "M 4 Digital Media",
    "description": "Marketing Programs & Services",
    "phone": "(786) 518-2853",
    "address": "31 SE 5th St Ste 213  Miami, FL 33131",
    "location": "Flagler"
  },
  {
    "name": "C180 Social Media Strategy",
    "description": "Marketing Programs & Services",
    "phone": "(954) 225-0016",
    "address": "1200 Brickell Ave  Miami, FL 33131",
    "location": "Flagler"
  },
  {
    "name": "LMR Latin Marketing",
    "description": "Marketing Programs & Services",
    "phone": "(305) 772-3947",
    "address": "1110 Brickell Ave  Miami, FL 33131",
    "location": "Flagler"
  },
  {
    "name": "Maria Morena",
    "description": "Marketing Programs & Services",
    "phone": "(305) 576-2233",
    "address": "2545 NW 5th Ave  Miami, FL 33127",
    "location": "Flagler"
  },
  {
    "name": "Green Key Leads",
    "description": "Marketing Programs & Services",
    "phone": "(855) 695-3237",
    "address": "100 SE 2nd St  Miami, FL 33131",
    "location": "Flagler"
  },
  {
    "name": "W. Bradford & Co.",
    "description": "Marketing Programs & Services",
    "phone": "(317) 371-2221",
    "address": "1060 Brickell Ave  Miami, FL 33131",
    "location": "Flagler"
  },
  {
    "name": "Web Lice",
    "description": "Marketing Programs & Services",
    "phone": "(855) 932-5423",
    "address": "1395 Brickell Ave  Miami, FL 33131",
    "location": "Flagler"
  },
  {
    "name": "The Creative Elevator",
    "description": "Marketing Programs & Services",
    "phone": "(305) 767-6007",
    "address": "1000 Brickell Ave Ste 1005  Miami, FL 33131",
    "location": "Flagler"
  },
  {
    "name": "The Goat Institute",
    "description": "Marketing Programs & Services",
    "phone": "(786) 333-7866",
    "address": "1000 Brickell Ave Ste 715  Miami, FL 33131",
    "location": "Flagler"
  },
  {
    "name": "AD INC Mobile",
    "description": "Marketing Programs & Services",
    "phone": "(305) 409-6000",
    "address": "1111 Brickell Ave  Miami, FL 33131",
    "location": "Flagler"
  },
  {
    "name": "X3 Marketing Solutions",
    "description": "Marketing Programs & Services",
    "phone": "(305) 600-5406",
    "address": "111 NE 1st St  Miami, FL 33132",
    "location": "Flagler"
  },
  {
    "name": "Mindwarehouse",
    "description": "Marketing Programs & Services",
    "phone": "(786) 571-8660",
    "address": "111 NE 1st St  Miami, FL 33132",
    "location": "Flagler"
  },
  {
    "name": "Madflowbrand",
    "description": "Marketing Programs & Services",
    "phone": "(786) 658-0668",
    "address": "1101 Brickell Ave  Miami, FL 33131",
    "location": "Flagler"
  },
  {
    "name": "Iwiin Digital Marketing",
    "description": "Marketing Programs & Services",
    "phone": "(888) 520-4130",
    "address": "999 Brickell Ave  Miami, FL 33131",
    "location": "Flagler"
  },
  {
    "name": "Miamag",
    "description": "Marketing Programs & Services",
    "phone": "(786) 728-0008",
    "address": "999 Brickell Ave  Miami, FL 33131",
    "location": "Flagler"
  },
  {
    "name": "GGP Miami Business & Marketing",
    "description": "Marketing Programs & Services",
    "phone": "(305) 772-2810",
    "address": "999 Brickell Ave  Miami, FL 33131",
    "location": "Flagler"
  },
  {
    "name": "Criteo",
    "description": "Marketing Programs & Services",
    "phone": "(786) 623-4019",
    "address": "801 Brickell Ave  Miami, FL 33131",
    "location": "Flagler"
  },
  {
    "name": "Lemon Yellow",
    "description": "Marketing Programs & Services",
    "phone": "(305) 704-7096",
    "address": "169 E Flagler St  Miami, FL 33131",
    "location": "Flagler"
  },
  {
    "name": "Mako7 Digital Media",
    "description": "Marketing Programs & Services",
    "phone": "(305) 721-2478",
    "address": "777 Brickell Ave  Miami, FL 33131",
    "location": "Flagler"
  },
  {
    "name": "Greater Miami CVB",
    "description": "Marketing Programs & Services",
    "phone": "(305) 539-3000",
    "address": "701 Brickell Ave  Miami, FL 33131",
    "location": "Flagler"
  },
  {
    "name": "Juniper Technology",
    "description": "Marketing Programs & Services",
    "phone": "(305) 755-0251",
    "address": "168 SE 1st St  Miami, FL 33131",
    "location": "Flagler"
  },
  {
    "name": "Alphapac A Marketing Company",
    "description": "Marketing Programs & Services",
    "phone": "(786) 268-7998",
    "address": "7065 SW 46th St  Miami, FL 33155",
    "location": "Flagler"
  },
  {
    "name": "The One Agency",
    "description": "Marketing Programs & Services",
    "phone": "(786) 999-9095",
    "address": "444 Brickell Ave  Miami, FL 33131",
    "location": "Flagler"
  },
  {
    "name": "Myadcenter",
    "description": "Marketing Programs & Services",
    "phone": "(888) 676-7866",
    "address": "150 SE 2nd Ave  Miami, FL 33131",
    "location": "Flagler"
  },
  {
    "name": "Ivanov Corp",
    "description": "Marketing Programs & Services",
    "phone": "(216) 284-0246",
    "address": "25 Se 2nd Ave Pmb1027 Miami  Miami, FL 33131",
    "location": "Flagler"
  },
  {
    "name": "Creative Mindworks Corp",
    "description": "Marketing Programs & Services",
    "phone": "(305) 820-0690",
    "address": "1100 Brickell Bay Dr  Miami, FL 33131",
    "location": "Flagler"
  },
  {
    "name": "Mega Digital Media",
    "description": "Marketing Programs & Services",
    "phone": "(888) 292-7200",
    "address": "1001 Brickell Bay Dr  Miami, FL 33131",
    "location": "Flagler"
  },
  {
    "name": "NCL Corporation Ltd",
    "description": "Marketing Programs & Services",
    "phone": "(305) 436-4000",
    "address": "7665 NW 19th St  Miami, FL 33126",
    "location": "Flagler"
  },
  {
    "name": "DMG- Dynasty Marketing Group",
    "description": "Marketing Programs & Services",
    "phone": "(305) 600-3833",
    "address": "485 Brickell Ave  Miami, FL 33131",
    "location": "Flagler"
  },
  {
    "name": "V Digital Services",
    "description": "Marketing Programs & Services",
    "phone": "(305) 290-3886",
    "address": "2750 NW 3rd Ave  Miami, FL 33127",
    "location": "Flagler"
  },
  {
    "name": "Marketing Truck",
    "description": "Marketing Programs & Services",
    "phone": "(305) 424-2977",
    "address": "7500 NW 25th St  Miami, FL 33122",
    "location": "Flagler"
  },
  {
    "name": "Social Hive Agency",
    "description": "Marketing Programs & Services",
    "phone": "(786) 332-6910",
    "address": "2048 NW Miami Ct  Miami, FL 33127",
    "location": "Flagler"
  },
  {
    "name": "WG Studios",
    "description": "Marketing Programs & Services",
    "phone": "(305) 463-9232",
    "address": "1749 NE Miami Ct  Miami, FL 33132",
    "location": "Flagler"
  },
  {
    "name": "Menar Marketing International",
    "description": "Marketing Programs & Services",
    "phone": "(305) 593-1103",
    "address": "2801 NW 74th Ave Ste 206  Miami, FL 33122",
    "location": "Flagler"
  },
  {
    "name": "E D Marketing Solutions",
    "description": "Marketing Programs & Services",
    "phone": "(786) 801-1593",
    "address": "2801 NW 74th Ave  Miami, FL 33122",
    "location": "Flagler"
  },
  {
    "name": "Sky Is the Limit Marketing Services Corp",
    "description": "Marketing Programs & Services",
    "phone": "(305) 342-4893",
    "address": "7815 Coral Way  Miami, FL 33155",
    "location": "Flagler"
  },
  {
    "name": "Wellness Company (suit 221)",
    "description": "Marketing Programs & Services",
    "phone": "(305) 303-8794",
    "address": "3399 NW 72nd Ave  Miami, FL 33122",
    "location": "Flagler"
  },
  {
    "name": "HNO Productions Inc",
    "description": "Marketing Programs & Services",
    "phone": "(305) 383-8245",
    "address": "990 Biscayne Blvd Ste 503  Miami, FL 33132",
    "location": "Flagler"
  },
  {
    "name": "Tessell Marketing",
    "description": "Marketing Programs & Services",
    "phone": "(305) 517-7255",
    "address": "990 Biscayne Blvd  Miami, FL 33132",
    "location": "Flagler"
  },
  {
    "name": "SKL Marketing Inc",
    "description": "Marketing Programs & Services",
    "phone": "(305) 714-9351",
    "address": "200 S Biscayne Blvd  Miami, FL 33131",
    "location": "Flagler"
  },
  {
    "name": "Modofi",
    "description": "Marketing Programs & Services",
    "phone": "(850) 750-6636",
    "address": "114 NW 25th St  Miami, FL 33127",
    "location": "Flagler"
  },
  {
    "name": "Andretti Sports Marketing",
    "description": "Marketing Programs & Services",
    "phone": "(317) 871-2534",
    "address": "201 S Biscayne Blvd  Miami, FL 33131",
    "location": "Flagler"
  },
  {
    "name": "Best Marketing & Billing",
    "description": "Marketing Programs & Services",
    "phone": "(305) 262-0341",
    "address": "920 SW 82nd Ave Ste A  Miami, FL 33144",
    "location": "Flagler"
  },
  {
    "name": "Make Extra Money Fast",
    "description": "Marketing Programs & Services",
    "phone": "(786) 506-0766",
    "address": "485 Pash E Ho Wa Dr  Hialeah, FL 33010",
    "location": "Flagler"
  },
  {
    "name": "Basha Trading Services",
    "description": "Marketing Programs & Services",
    "phone": "(305) 200-5020",
    "address": "526 Hialeah Dr  Hialeah, FL 33010",
    "location": "Flagler"
  },
  {
    "name": "Mka Marketing Inc",
    "description": "Marketing Programs & Services",
    "phone": "(786) 265-0231",
    "address": "6555 NW 36th St  Virginia Gardens, FL 33166",
    "location": "Flagler"
  },
  {
    "name": "Kompani Group",
    "description": "Marketing Programs & Services",
    "phone": "(786) 594-0435",
    "address": "4981 SW 74th Ct  Miami, FL 33155",
    "location": "Flagler"
  },
  {
    "name": "Hitex Marketing",
    "description": "Marketing Programs & Services",
    "phone": "(305) 883-4535",
    "address": "7209 NW 54th St  Miami, FL 33166",
    "location": "Flagler"
  },
  {
    "name": "NetroStar Inc.",
    "description": "Marketing Programs & Services",
    "phone": "(305) 577-9904",
    "address": "260 NE 17th Ter  Miami, FL 33132",
    "location": "Flagler"
  },
  {
    "name": "Llizo Marketing",
    "description": "Marketing Programs & Services",
    "phone": "(305) 204-0760",
    "address": "5966 S Dixie Hwy suite 300  Miami, FL 33143",
    "location": "Flagler"
  },
  {
    "name": "Contractor Click",
    "description": "Marketing Programs & Services",
    "phone": "(305) 902-4888",
    "address": "8200 SW 12th Ter  Miami, FL 33144",
    "location": "Flagler"
  },
  {
    "name": "South Beach Capital Markets Advisory Corporation",
    "description": "Marketing Programs & Services",
    "phone": "(305) 358-3232",
    "address": "701 Brickell Key Blvd Apt 2306  Miami, FL 33131",
    "location": "Flagler"
  },
  {
    "name": "Concierge and Events by Victoria",
    "description": "Marketing Programs & Services",
    "phone": "(305) 632-8339",
    "address": "701 Brickell Key Blvd Apt 2310  Miami, FL 33131",
    "location": "Flagler"
  },
  {
    "name": "Smart Strata Ai",
    "description": "Marketing Programs & Services",
    "phone": "(855) 626-5705",
    "address": "601 Brickell Key Dr Ste 700  Miami, FL 33131",
    "location": "Flagler"
  },
  {
    "name": "Zoicreative Digital Marketing Agency",
    "description": "Marketing Programs & Services",
    "phone": "(888) 531-2061",
    "address": "4600 SW 75th Ave  Miami, FL 33155",
    "location": "Flagler"
  },
  {
    "name": "Greenslant",
    "description": "Marketing Programs & Services",
    "phone": "(305) 209-6833",
    "address": "2001 Biscayne Blvd  Miami, FL 33137",
    "location": "Flagler"
  },
  {
    "name": "Email Marketing & More",
    "description": "Marketing Programs & Services",
    "phone": "(786) 348-7729",
    "address": "555 NE 15th St  Miami, FL 33132",
    "location": "Flagler"
  },
  {
    "name": "Ang Communications Group Inc",
    "description": "Marketing Programs & Services",
    "phone": "(786) 517-4750",
    "address": "555 NE 15th St  Miami, FL 33132",
    "location": "Flagler"
  },
  {
    "name": "Live Out Dreams Inc.",
    "description": "Marketing Programs & Services",
    "phone": "(305) 896-7596",
    "address": "1750 N Bayshore Dr Apt 4610  Miami, FL 33132",
    "location": "Flagler"
  },
  {
    "name": "Ai Disruptive Marketing",
    "description": "Marketing Programs & Services",
    "phone": "(404) 454-2697",
    "address": "4120 NW 3rd Ave  Miami, FL 33127",
    "location": "Flagler"
  },
  {
    "name": "One Twelfth Inc",
    "description": "Marketing Programs & Services",
    "phone": "(954) 938-1962",
    "address": "2601 NE 2nd Ave  Miami, FL 33137",
    "location": "Flagler"
  },
  {
    "name": "Smash Interactive Marketing",
    "description": "Marketing Programs & Services",
    "phone": "(786) 899-2424",
    "address": "4955 SW 75th Ave  Miami, FL 33155",
    "location": "Flagler"
  },
  {
    "name": "Imagine 360 Marketing",
    "description": "Marketing Programs & Services",
    "phone": "(212) 313-9616",
    "address": "3301 NE 1st Ave  Miami, FL 33137",
    "location": "Flagler"
  },
  {
    "name": "Agency Marketing Machine",
    "description": "Marketing Programs & Services",
    "phone": "(786) 322-4999",
    "address": "3050 Biscayne Blvd  Miami, FL 33137",
    "location": "Flagler"
  },
  {
    "name": "International Marketing Group",
    "description": "Marketing Programs & Services",
    "phone": "(786) 584-0090",
    "address": "3635 NE 1st Ave  Miami, FL 33137",
    "location": "Flagler"
  },
  {
    "name": "A-Zone Marketing",
    "description": "Marketing Programs & Services",
    "phone": "(787) 587-3378",
    "address": "1016 NW 87th Ave  Miami, FL 33172",
    "location": "Flagler"
  },
  {
    "name": "Supermarket Creative",
    "description": "Marketing Programs & Services",
    "phone": "(305) 420-5110",
    "address": "45 NE 41st St  Miami, FL 33137",
    "location": "Flagler"
  },
  {
    "name": "Unlimited Marketing Group",
    "description": "Marketing Programs & Services",
    "phone": "(305) 227-7330",
    "address": "175 Fontainebleau Blvd  Miami, FL 33172",
    "location": "Flagler"
  },
  {
    "name": "Outfront Media",
    "description": "Marketing Programs & Services",
    "phone": "(305) 477-2496",
    "address": "8530 NW 23rd St  Miami, FL 33122",
    "location": "Flagler"
  },
  {
    "name": "Seiko Coporation of America",
    "description": "Marketing Programs & Services",
    "phone": "(786) 360-6869",
    "address": "130 NE 40th St  Miami, FL 33137",
    "location": "Flagler"
  },
  {
    "name": "Rethinken",
    "description": "Marketing Programs & Services",
    "phone": "(646) 564-1503",
    "address": "294 NW 54th St  Miami, FL 33127",
    "location": "Flagler"
  },
  {
    "name": "William Spain llc",
    "description": "Marketing Programs & Services",
    "phone": "(786) 578-5194",
    "address": "3785 NW 82nd Ave Suite 116  Miami, FL 33166",
    "location": "Flagler"
  },
  {
    "name": "Convierte Mas",
    "description": "Marketing Programs & Services",
    "phone": "(757) 908-6472",
    "address": "3933 Biscayne Blvd  Miami, FL 33137",
    "location": "Flagler"
  },
  {
    "name": "Mattyofit",
    "description": "Marketing Programs & Services",
    "phone": "(786) 882-3821",
    "address": "601 NE 36th St  Miami, FL 33137",
    "location": "Flagler"
  },
  {
    "name": "Tiger Direct Inc",
    "description": "Marketing Programs & Services",
    "phone": "(888) 278-4437",
    "address": "9250 W Flagler St  Miami, FL 33174",
    "location": "Flagler"
  },
  {
    "name": "Hispanic Digital Network",
    "description": "Marketing Programs & Services",
    "phone": "(954) 234-2321",
    "address": "9320 Fontainebleau Blvd  Miami, FL 33172",
    "location": "Flagler"
  },
  {
    "name": "Rekket Digital Hub",
    "description": "Marketing Programs & Services",
    "phone": "(786) 600-1781",
    "address": "7950 NW 53rd St  Miami, FL 33166",
    "location": "Flagler"
  },
  {
    "name": "Precise Engagement",
    "description": "Marketing Programs & Services",
    "phone": "(305) 814-0125",
    "address": "6619 S Dixie Hwy Ste 109  Miami, FL 33143",
    "location": "Flagler"
  },
  {
    "name": "Itss",
    "description": "Marketing Programs & Services",
    "phone": "(786) 399-6878",
    "address": "7339 NW 66th St  Miami, FL 33166",
    "location": "Flagler"
  },
  {
    "name": "Mauluna Total Marketing Solution",
    "description": "Marketing Programs & Services",
    "phone": "(954) 857-1314",
    "address": "5600 NE 4th Ave  Miami, FL 33137",
    "location": "Flagler"
  },
  {
    "name": "Shepard Lobe Costa Inc",
    "description": "Marketing Programs & Services",
    "phone": "(305) 372-1430",
    "address": "5310 SW 89th Ave  Miami, FL 33165",
    "location": "Flagler"
  },
  {
    "name": "Miami Marketing",
    "description": "Marketing Programs & Services",
    "phone": "(305) 275-7313",
    "address": "8441 SW 68th Street Rd  Miami, FL 33143",
    "location": "Flagler"
  },
  {
    "name": "Mental Services Corp",
    "description": "Marketing Programs & Services",
    "phone": "(305) 599-9969",
    "address": "1040 Nw 9th St Cir  Miami, FL 33172",
    "location": "Flagler"
  },
  {
    "name": "World of Miniature Bears",
    "description": "Marketing Programs & Services",
    "phone": "(305) 592-7971",
    "address": "8300 NW 68th St  Miami, FL 33166",
    "location": "Flagler"
  },
  {
    "name": "Integrated Marketing Group",
    "description": "Marketing Programs & Services",
    "phone": "(305) 670-0123",
    "address": "7875 SW 82nd Ct  Miami, FL 33143",
    "location": "Flagler"
  },
  {
    "name": "Addone",
    "description": "Marketing Programs & Services",
    "phone": "(786) 360-4940",
    "address": "8399 NW 66th St  Miami, FL 33166",
    "location": "Flagler"
  },
  {
    "name": "That Marketing Agency",
    "description": "Marketing Programs & Services",
    "phone": "(305) 663-4227",
    "address": "8950 SW 74th Ct  Miami, FL 33156",
    "location": "Flagler"
  },
  {
    "name": "Turbine SEO Digital Marketing Solution",
    "description": "Marketing Programs & Services",
    "phone": "(754) 271-3103",
    "address": "2949 NW 99Th Ave  Miami, FL 33172",
    "location": "Flagler"
  },
  {
    "name": "New Media, New Marketing, Inc",
    "description": "Marketing Programs & Services",
    "phone": "(305) 546-3301",
    "address": "8232 NW 14th St  Doral, FL 33126",
    "location": "Flagler"
  },
  {
    "name": "Paradigm Marketing",
    "description": "Marketing Programs & Services",
    "phone": "(305) 740-8338",
    "address": "5900 SW 73rd St  South Miami, FL 33143",
    "location": "Flagler"
  },
  {
    "name": "Mass Hispanic Marketing Inc",
    "description": "Marketing Programs & Services",
    "phone": "(305) 351-3600",
    "address": "8250 NW 27th St Ste 301  Doral, FL 33122",
    "location": "Flagler"
  },
  {
    "name": "LATIN-AMERICAN TRADING CGV CORPORATION",
    "description": "Marketing Programs & Services",
    "phone": "(305) 260-6695",
    "address": "3403 NW 82nd Ave Ste 290  Doral, FL 33122",
    "location": "Flagler"
  },
  {
    "name": "National Marketing Group Services",
    "description": "Marketing Programs & Services",
    "phone": "(305) 592-9926",
    "address": "7705 NW 48th St  Doral, FL 33166",
    "location": "Flagler"
  },
  {
    "name": "Marketlogic",
    "description": "Marketing Programs & Services",
    "phone": "(786) 409-2300",
    "address": "3785 NW 82nd Ave  Doral, FL 33166",
    "location": "Flagler"
  },
  {
    "name": "Advantage Marketing & Sales",
    "description": "Marketing Programs & Services",
    "phone": "(305) 303-9560",
    "address": "8181 NW 36th St  Doral, FL 33166",
    "location": "Flagler"
  },
  {
    "name": "305 Global Marketing Corp",
    "description": "Marketing Programs & Services",
    "phone": "(844) 951-5111",
    "address": "2412 NW 87th Pl  Doral, FL 33172",
    "location": "Flagler"
  },
  {
    "name": "Dharma Digital Marketing Agency",
    "description": "Marketing Programs & Services",
    "phone": "(305) 613-2396",
    "address": "3555 NW 83rd Ave Apt 320  Doral, FL 33122",
    "location": "Flagler"
  },
  {
    "name": "Below Zero Marketing",
    "description": "Marketing Programs & Services",
    "phone": "(305) 929-8581",
    "address": "8200 NW 41st St  Doral, FL 33166",
    "location": "Flagler"
  },
  {
    "name": "Hydrorescue Marketing",
    "description": "Marketing Programs & Services",
    "phone": "(954) 399-0833",
    "address": "8200 NW 41st St  Doral, FL 33166",
    "location": "Flagler"
  },
  {
    "name": "Dpc Marketing Department",
    "description": "Marketing Programs & Services",
    "phone": "(305) 691-5963",
    "address": "1074 E 27th St  Hialeah, FL 33013",
    "location": "Flagler"
  },
  {
    "name": "Multicorp Marketing",
    "description": "Marketing Programs & Services",
    "phone": "(305) 722-7241",
    "address": "7814 NW 54th St  Doral, FL 33166",
    "location": "Flagler"
  },
  {
    "name": "Interaktiva Digital Marketing",
    "description": "Marketing Programs & Services",
    "phone": "(786) 507-1301",
    "address": "7950 NW 53rd St  Doral, FL 33166",
    "location": "Flagler"
  },
  {
    "name": "Marketing Office SVC Corp",
    "description": "Marketing Programs & Services",
    "phone": "(305) 364-5387",
    "address": "2210 NW 92nd Ave  Doral, FL 33172",
    "location": "Flagler"
  },
  {
    "name": "Black Leon Marketing",
    "description": "Marketing Programs & Services",
    "phone": "(786) 543-3385",
    "address": "2400 NW 92nd Ave  Doral, FL 33172",
    "location": "Flagler"
  },
  {
    "name": "DecoGraphic",
    "description": "Marketing Programs & Services",
    "phone": "(305) 594-9166",
    "address": "8333 NW 53rd St Ste 450  Doral, FL 33166",
    "location": "Flagler"
  },
  {
    "name": "Kabookaboo",
    "description": "Marketing Programs & Services",
    "phone": "(305) 569-9154",
    "address": "5400 NW 84th Ave  Doral, FL 33166",
    "location": "Flagler"
  },
  {
    "name": "Arus Marketing",
    "description": "Marketing Programs & Services",
    "phone": "(305) 436-5171",
    "address": "5505 NW 84th Ave  Doral, FL 33166",
    "location": "Flagler"
  },
  {
    "name": "Evans Group",
    "description": "Marketing Programs & Services",
    "phone": "(305) 603-8504",
    "address": "9500 SW 61st Ct  Pinecrest, FL 33156",
    "location": "Flagler"
  },
  {
    "name": "Marume Productions",
    "description": "Marketing Programs & Services",
    "phone": "(305) 458-2584",
    "address": "1365 NW 98th Ct  Doral, FL 33172",
    "location": "Flagler"
  },
  {
    "name": "BRAINWAVE ADVERTISING LLC",
    "description": "Marketing Programs & Services",
    "phone": "(305) 938-5599",
    "address": "10145 NW 19th St  Doral, FL 33172",
    "location": "Flagler"
  },
  {
    "name": "Out of Box Events and Weddings",
    "description": "Marketing Programs & Services",
    "phone": "(786) 273-9668",
    "address": "Po Box 562484  Miami, FL 33256",
    "location": "Flagler"
  },
  {
    "name": "Advertise In Miami For Free",
    "description": "Marketing Programs & Services",
    "phone": "(305) 654-9370",
    "address": "192 NE 111th St  Miami, FL 33161",
    "location": "Flagler"
  },
  {
    "name": "Xception 2 Every Rule, LLC",
    "description": "Marketing Programs & Services",
    "phone": "(305) 851-3670",
    "address": "555 Washington Ave Ste 300  Miami Beach, FL 33139",
    "location": "Flagler"
  },
  {
    "name": "Bizmarketing.us",
    "description": "Marketing Programs & Services",
    "phone": "(786) 222-2259",
    "address": "11780 sw 18th st  Miami, FL 33175",
    "location": "Flagler"
  },
  {
    "name": "Paragon Media",
    "description": "Marketing Programs & Services",
    "phone": "(786) 400-2290",
    "address": "9031 SW 68th Ter  Miami, FL 33173",
    "location": "Flagler"
  },
  {
    "name": "Happy Head Marketing",
    "description": "Marketing Programs & Services",
    "phone": "(305) 981-0439",
    "address": "360 NE 75th St  Miami, FL 33138",
    "location": "Flagler"
  },
  {
    "name": "Loyappty",
    "description": "Marketing Programs & Services",
    "phone": "(305) 670-8081",
    "address": "9155 S Dadeland Blvd  Miami, FL 33156",
    "location": "Flagler"
  },
  {
    "name": "Innovative Marketing Group",
    "description": "Marketing Programs & Services",
    "phone": "(305) 670-4501",
    "address": "9200 S Dadeland Blvd  Miami, FL 33156",
    "location": "Flagler"
  },
  {
    "name": "Dms Design & Marketing Solutions",
    "description": "Marketing Programs & Services",
    "phone": "(305) 227-0071",
    "address": "1421 SW 107th Ave  Miami, FL 33174",
    "location": "Flagler"
  },
  {
    "name": "Wise Pro Solutions",
    "description": "Marketing Programs & Services",
    "phone": "(305) 340-4970",
    "address": "2467 NW 102nd St  Miami, FL 33147",
    "location": "Flagler"
  },
  {
    "name": "Mrkt",
    "description": "Marketing Programs & Services",
    "phone": "(305) 572-1800",
    "address": "8325 NE 2nd Ave  Miami, FL 33138",
    "location": "Flagler"
  },
  {
    "name": "BBM Marketing",
    "description": "Marketing Programs & Services",
    "phone": "(786) 553-8828",
    "address": "8101 Biscayne Blvd  Miami, FL 33138",
    "location": "Flagler"
  },
  {
    "name": "Miss Ink",
    "description": "Marketing Programs & Services",
    "phone": "(305) 537-6465",
    "address": "9990 SW 77th Ave Ste 200  Miami, FL 33156",
    "location": "Flagler"
  },
  {
    "name": "Bosseo",
    "description": "Marketing Programs & Services",
    "phone": "(786) 244-2544",
    "address": "754 NE 81st St  Miami, FL 33138",
    "location": "Flagler"
  },
  {
    "name": "Meel Corp",
    "description": "Marketing Programs & Services",
    "phone": "(305) 688-9199",
    "address": "11151 NW 36th Ave  Miami, FL 33167",
    "location": "Flagler"
  },
  {
    "name": "Local Internet Marketing Group",
    "description": "Marketing Programs & Services",
    "phone": "(786) 472-1644",
    "address": "10420 SW 62nd St  Miami, FL 33173",
    "location": "Flagler"
  },
  {
    "name": "Paleoscience Inc",
    "description": "Marketing Programs & Services",
    "phone": "(305) 595-7386",
    "address": "8370 SW 100th St  Miami, FL 33156",
    "location": "Flagler"
  },
  {
    "name": "Ultimate Software Solution",
    "description": "Marketing Programs & Services",
    "phone": "(305) 688-6258",
    "address": "745 NW 107th St  Miami, FL 33168",
    "location": "Flagler"
  },
  {
    "name": "Miami Herald",
    "description": "Marketing Programs & Services",
    "phone": "(305) 350-2111",
    "address": "11410 NW 20th St  Miami, FL 33172",
    "location": "Flagler"
  },
  {
    "name": "GlobalMED MEDIA",
    "description": "Marketing Programs & Services",
    "phone": "(305) 209-4633",
    "address": "9301 SW 92nd Ave  Miami, FL 33176",
    "location": "Flagler"
  },
  {
    "name": "Deltex Elite Marketing, Inc.",
    "description": "Marketing Programs & Services",
    "phone": "(305) 988-4731",
    "address": "10300 SW 72nd St Ste 315  Miami, FL 33173",
    "location": "Flagler"
  },
  {
    "name": "Local Marketing Today",
    "description": "Marketing Programs & Services",
    "phone": "(305) 273-9240",
    "address": "10604 SW 71st Ln  Miami, FL 33173",
    "location": "Flagler"
  },
  {
    "name": "M.A.R. Multiservices Co.",
    "description": "Marketing Programs & Services",
    "phone": "(786) 544-0400",
    "address": "11890 SW 8th St Ste 214b  Miami, FL 33184",
    "location": "Flagler"
  },
  {
    "name": "Usg International",
    "description": "Marketing Programs & Services",
    "phone": "(305) 688-5228",
    "address": "3001 NW 125th St  Miami, FL 33167",
    "location": "Flagler"
  },
  {
    "name": "Numericit",
    "description": "Marketing Programs & Services",
    "phone": "(305) 494-0861",
    "address": "11221 SW 62nd Ter  Miami, FL 33173",
    "location": "Flagler"
  },
  {
    "name": "Sgf",
    "description": "Marketing Programs & Services",
    "phone": "(786) 882-4311",
    "address": "11350 SW 61st Ter  Miami, FL 33173",
    "location": "Flagler"
  },
  {
    "name": "Stargrafix Marketing",
    "description": "Marketing Programs & Services",
    "phone": "(786) 719-0697",
    "address": "12255 SW 19th St  Miami, FL 33175",
    "location": "Flagler"
  },
  {
    "name": "ASSERTIVE MARKETING GROUP LLC",
    "description": "Marketing Programs & Services",
    "phone": "(305) 552-7067",
    "address": "12055 Bird Dr  Miami, FL 33175",
    "location": "Flagler"
  },
  {
    "name": "5Digital Inc",
    "description": "Marketing Programs & Services",
    "phone": "(786) 361-5441",
    "address": "9660 Kendale Blvd  Miami, FL 33176",
    "location": "Flagler"
  },
  {
    "name": "MJ REPRESENTATIONS LLC",
    "description": "Marketing Programs & Services",
    "phone": "(305) 531-4542",
    "address": "407 Lincoln Rd  Miami Beach, FL 33139",
    "location": "Flagler"
  },
  {
    "name": "TM Cell",
    "description": "Marketing Programs & Services",
    "phone": "(305) 421-9938",
    "address": "10205 NW 19th St  Doral, FL 33172",
    "location": "Flagler"
  },
  {
    "name": "Fru Veg Sales",
    "description": "Marketing Programs & Services",
    "phone": "(305) 591-7766",
    "address": "2300 NW 102nd Ave  Doral, FL 33172",
    "location": "Flagler"
  },
  {
    "name": "Mass Media Marketing Inc",
    "description": "Marketing Programs & Services",
    "phone": "(305) 330-6498",
    "address": "3774 W 12th Ave  Hialeah, FL 33012",
    "location": "Flagler"
  },
  {
    "name": "Whirlpool Corp",
    "description": "Marketing Programs & Services",
    "phone": "(305) 593-6482",
    "address": "9800 NW 41st St Ste 250  Doral, FL 33178",
    "location": "Flagler"
  },
  {
    "name": "Made In The USA Marketing",
    "description": "Marketing Programs & Services",
    "phone": "(305) 468-1760",
    "address": "2295 NW 102nd Pl  Doral, FL 33172",
    "location": "Flagler"
  },
  {
    "name": "Harvest Group",
    "description": "Marketing Programs & Services",
    "phone": "(305) 603-8630",
    "address": "4192 W 12th Ave  Hialeah, FL 33012",
    "location": "Flagler"
  },
  {
    "name": "Professional Mass Marketing International",
    "description": "Marketing Programs & Services",
    "phone": "(305) 441-0033",
    "address": "1400 NW 107th Ave  Sweetwater, FL 33172",
    "location": "Flagler"
  },
  {
    "name": "SIM Group",
    "description": "Marketing Programs & Services",
    "phone": "(888) 746-5696",
    "address": "2601 NW 104th Ct  Doral, FL 33172",
    "location": "Flagler"
  },
  {
    "name": "Bugattiblancwakesupnow",
    "description": "Marketing Programs & Services",
    "phone": "(786) 374-9264",
    "address": "1508 Bay Rd Apt 414  Miami Beach, FL 33139",
    "location": "Flagler"
  },
  {
    "name": "Edificando El Arte Fluyen Los",
    "description": "Marketing Programs & Services",
    "phone": "(786) 325-3502",
    "address": "4160 W 16th Ave  Hialeah, FL 33012",
    "location": "Flagler"
  },
  {
    "name": "Meridian Interactive",
    "description": "Marketing Programs & Services",
    "phone": "(212) 961-6346",
    "address": "1330 West Ave  Miami Beach, FL 33139",
    "location": "Flagler"
  },
  {
    "name": "Vita Marketing",
    "description": "Marketing Programs & Services",
    "phone": "(305) 593-8482",
    "address": "10305 NW 41st St  Doral, FL 33178",
    "location": "Flagler"
  },
  {
    "name": "Joy Media Works",
    "description": "Marketing Programs & Services",
    "phone": "(786) 623-6203",
    "address": "1205 Lincoln Rd  Miami Beach, FL 33139",
    "location": "Flagler"
  },
  {
    "name": "Concacaf Marketing & TV Inc",
    "description": "Marketing Programs & Services",
    "phone": "(305) 704-3232",
    "address": "1000 5th St  Miami Beach, FL 33139",
    "location": "Flagler"
  },
  {
    "name": "Restaurant Marketing",
    "description": "Marketing Programs & Services",
    "phone": "(305) 771-1811",
    "address": "1000 5th St Ste 200  Miami Beach, FL 33139",
    "location": "Flagler"
  },
  {
    "name": "Paton Marketing",
    "description": "Marketing Programs & Services",
    "phone": "(786) 454-9862",
    "address": "6200 SW 114th St  Pinecrest, FL 33156",
    "location": "Flagler"
  },
  {
    "name": "Unique Marketing & Signage Corporation",
    "description": "Marketing Programs & Services",
    "phone": "(786) 539-8444",
    "address": "660 E 58th St  Hialeah, FL 33013",
    "location": "Flagler"
  },
  {
    "name": "Pinta-the Art-Cross-Cultural",
    "description": "Marketing Programs & Services",
    "phone": "(305) 615-1111",
    "address": "1111 Lincoln Rd  Miami Beach, FL 33139",
    "location": "Flagler"
  },
  {
    "name": "OmniFunnel Marketing",
    "description": "Marketing Programs & Services",
    "phone": "(866) 858-2740",
    "address": "1680 Michigan Ave Ste 700  Miami Beach, FL 33139",
    "location": "Flagler"
  },
  {
    "name": "Seo By Industry",
    "description": "Marketing Programs & Services",
    "phone": "(305) 763-8270",
    "address": "1680 Michigan Ave  Miami Beach, FL 33139",
    "location": "Flagler"
  },
  {
    "name": "America Anyway Corporation",
    "description": "Marketing Programs & Services",
    "phone": "(305) 456-6219",
    "address": "104 Crandon Blvd Ste 421B  Key Biscayne, FL 33149",
    "location": "Flagler"
  },
  {
    "name": "Meeting Professionals International",
    "description": "Marketing Programs & Services",
    "phone": "(972) 702-3000",
    "address": "251 Crandon Blvd  Key Biscayne, FL 33149",
    "location": "Flagler"
  },
  {
    "name": "Association Management Corps",
    "description": "Marketing Programs & Services",
    "phone": "(954) 547-1965",
    "address": "334 Euclid Ave  Miami Beach, FL 33139",
    "location": "Flagler"
  },
  {
    "name": "Kramer Specialties, LLC.",
    "description": "Marketing Programs & Services",
    "phone": "(305) 470-6650",
    "address": "1680 Meridian Ave Ste 600  Miami Beach, FL 33139",
    "location": "Flagler"
  },
  {
    "name": "Sbny Marketing",
    "description": "Marketing Programs & Services",
    "phone": "(305) 695-0162",
    "address": "1688 Meridian Ave  Miami Beach, FL 33139",
    "location": "Flagler"
  },
  {
    "name": "Zimo Media",
    "description": "Marketing Programs & Services",
    "phone": "(954) 864-3463",
    "address": "1210 Washington Ave  Miami Beach, FL 33139",
    "location": "Flagler"
  },
  {
    "name": "One To 1 Marketing",
    "description": "Marketing Programs & Services",
    "phone": "(781) 983-4120",
    "address": "1348 Washington Ave suite 170  Miami Beach, FL 33139",
    "location": "Flagler"
  },
  {
    "name": "Four Vectors",
    "description": "Marketing Programs & Services",
    "phone": "(305) 823-8825",
    "address": "9910 NW 80th Ave  Miami Lakes, FL 33016",
    "location": "Flagler"
  },
  {
    "name": "Roofing Marketing Pros",
    "description": "Marketing Programs & Services",
    "phone": "(305) 697-7210",
    "address": "350 Lincoln Rd  Miami Beach, FL 33139",
    "location": "Flagler"
  },
  {
    "name": "Circle of One Marketing",
    "description": "Marketing Programs & Services",
    "phone": "(305) 576-3790",
    "address": "38 NW 105th St  Miami Shores, FL 33150",
    "location": "Flagler"
  },
  {
    "name": "Jurakan International Corporation",
    "description": "Marketing Programs & Services",
    "phone": "(305) 365-8357",
    "address": "50 W Mashta Dr Ste 3  Key Biscayne, FL 33149",
    "location": "Flagler"
  },
  {
    "name": "Rab Point Advertising",
    "description": "Marketing Programs & Services",
    "phone": "(786) 362-6197",
    "address": "10220 NW 80th Ave  Hialeah Gardens, FL 33016",
    "location": "Flagler"
  },
  {
    "name": "Suncoast Marketing",
    "description": "Marketing Programs & Services",
    "phone": "(786) 268-1191",
    "address": "12961 Lerida St  Coral Gables, FL 33156",
    "location": "Flagler"
  },
  {
    "name": "VIP Ads Online",
    "description": "Marketing Programs & Services",
    "phone": "(305) 915-8024",
    "address": "3508 NW 114th Ave  Doral, FL 33178",
    "location": "Flagler"
  },
  {
    "name": "SEO by Industry",
    "description": "Marketing Programs & Services",
    "phone": "(305) 763-8270",
    "address": "960 Arthur Godfrey Rd  Miami Beach, FL 33140",
    "location": "Flagler"
  },
  {
    "name": "Irevu",
    "description": "Marketing Programs & Services",
    "phone": "(312) 545-0621",
    "address": "2301 Collins Ave  Miami Beach, FL 33139",
    "location": "Flagler"
  },
  {
    "name": "Solara Marketing",
    "description": "Marketing Programs & Services",
    "phone": "(305) 456-5891",
    "address": "3705 NW 115th Ave  Doral, FL 33178",
    "location": "Flagler"
  },
  {
    "name": "Marketing Solution Source",
    "description": "Marketing Programs & Services",
    "phone": "(786) 331-7927",
    "address": "6771 NW 107th Ct  Doral, FL 33178",
    "location": "Flagler"
  },
  {
    "name": "Marketing On-Line Inc",
    "description": "Marketing Programs & Services",
    "phone": "(305) 459-1481",
    "address": "1440 79th Street Cswy  North Bay Village, FL 33141",
    "location": "Flagler"
  },
  {
    "name": "Tech Media Marketing Inc",
    "description": "Marketing Programs & Services",
    "phone": "(425) 835-2404",
    "address": "4560 N Meridian Ave  Miami Beach, FL 33140",
    "location": "Flagler"
  },
  {
    "name": "Plusamedia",
    "description": "Marketing Programs & Services",
    "phone": "(786) 383-2588",
    "address": "13764 Kendale Lakes Dr  Miami, FL 33183",
    "location": "Flagler"
  },
  {
    "name": "Demir Group International, Inc",
    "description": "Marketing Programs & Services",
    "phone": "(305) 456-7585",
    "address": "10800 Biscayne Blvd  Miami, FL 33161",
    "location": "Flagler"
  },
  {
    "name": "Tortuga Leads",
    "description": "Marketing Programs & Services",
    "phone": "(305) 607-5404",
    "address": "4000 Towerside Terrace  Miami, FL 33138",
    "location": "Flagler"
  },
  {
    "name": "Marsense",
    "description": "Marketing Programs & Services",
    "phone": "(305) 702-0022",
    "address": "7990 SW 117th Ave  Miami, FL 33183",
    "location": "Flagler"
  },
  {
    "name": "Maritime Marketing Associates",
    "description": "Marketing Programs & Services",
    "phone": "(305) 238-2375",
    "address": "8920 SW 129th St  Miami, FL 33176",
    "location": "Flagler"
  },
  {
    "name": "Graph X",
    "description": "Marketing Programs & Services",
    "phone": "(305) 253-0100",
    "address": "12910 SW 89th Ct  Miami, FL 33176",
    "location": "Flagler"
  },
  {
    "name": "C N S Marketing",
    "description": "Marketing Programs & Services",
    "phone": "(305) 685-0091",
    "address": "14815 NW 11th Ave  Miami, FL 33168",
    "location": "Flagler"
  },
  {
    "name": "Simex Trades",
    "description": "Marketing Programs & Services",
    "phone": "(305) 607-0068",
    "address": "13921 SW 90th Ave Apt A114  Miami, FL 33176",
    "location": "Flagler"
  },
  {
    "name": "Planet Marketing Inc",
    "description": "Marketing Programs & Services",
    "phone": "(305) 979-1031",
    "address": "13241 SW 97th Ct  Miami, FL 33176",
    "location": "Flagler"
  },
  {
    "name": "Genition",
    "description": "Marketing Programs & Services",
    "phone": "(305) 259-3316",
    "address": "14251 SW 99th Ave  Miami, FL 33176",
    "location": "Flagler"
  },
  {
    "name": "Miami Marketing Solutions",
    "description": "Marketing Programs & Services",
    "phone": "(305) 400-0862",
    "address": "14110 SW 52nd St  Miami, FL 33175",
    "location": "Flagler"
  },
  {
    "name": "Loretta Marketing Group Inc",
    "description": "Marketing Programs & Services",
    "phone": "(305) 232-5002",
    "address": "13935 SW 102nd Ct  Miami, FL 33176",
    "location": "Flagler"
  },
  {
    "name": "Remarketing Solutions International",
    "description": "Marketing Programs & Services",
    "phone": "(305) 623-1188",
    "address": "1098 NW 159th Dr  Miami, FL 33169",
    "location": "Flagler"
  },
  {
    "name": "Doliner Group Inc",
    "description": "Marketing Programs & Services",
    "phone": "(305) 255-0041",
    "address": "13900 SW 104th Ave  Miami, FL 33176",
    "location": "Flagler"
  },
  {
    "name": "Universal Marketing Concepts",
    "description": "Marketing Programs & Services",
    "phone": "(786) 422-2635",
    "address": "8520 SW 133rd Avenue Rd  Miami, FL 33183",
    "location": "Flagler"
  },
  {
    "name": "Marketinglink Corp",
    "description": "Marketing Programs & Services",
    "phone": "(305) 746-7215",
    "address": "13170 SW 128th St Ste 203  Miami, FL 33186",
    "location": "Flagler"
  },
  {
    "name": "Dauerflora Usa Inc.",
    "description": "Marketing Programs & Services",
    "phone": "(305) 654-0703",
    "address": "20725 NE 16th Ave  Miami, FL 33179",
    "location": "Flagler"
  },
  {
    "name": "Hurricane Digital Marketing",
    "description": "Marketing Programs & Services",
    "phone": "(786) 250-3522",
    "address": "15715 S Dixie Hwy Ste 416  Miami, FL 33157",
    "location": "Flagler"
  },
  {
    "name": "United International Marketing",
    "description": "Marketing Programs & Services",
    "phone": "(305) 620-9597",
    "address": "1405 NW 167th St  Miami, FL 33169",
    "location": "Flagler"
  },
  {
    "name": "Opportunity Marketing System",
    "description": "Marketing Programs & Services",
    "phone": "(305) 431-9878",
    "address": "11275 SW 133rd Ter  Miami, FL 33176",
    "location": "Flagler"
  },
  {
    "name": "MGB Corp",
    "description": "Marketing Programs & Services",
    "phone": "(305) 620-2810",
    "address": "1015 Park Centre Blvd  Miami, FL 33169",
    "location": "Flagler"
  },
  {
    "name": "Marketing Global",
    "description": "Marketing Programs & Services",
    "phone": "(305) 620-2810",
    "address": "1015 Park Centre Blvd  Miami, FL 33169",
    "location": "Flagler"
  },
  {
    "name": "Marketing Global Brand Corp",
    "description": "Marketing Programs & Services",
    "phone": "(786) 802-3159",
    "address": "16717 Park Centre Blvd  Miami, FL 33169",
    "location": "Flagler"
  },
  {
    "name": "Readers' Marketing",
    "description": "Marketing Programs & Services",
    "phone": "(786) 250-4803",
    "address": "16201 SW 95th Ave  Miami, FL 33157",
    "location": "Flagler"
  },
  {
    "name": "Gregory St. Fort",
    "description": "Marketing Programs & Services",
    "phone": "(754) 801-0361",
    "address": "1648 NE 158 St  Miami, FL 33162",
    "location": "Flagler"
  },
  {
    "name": "Yellow3 Marketing",
    "description": "Marketing Programs & Services",
    "phone": "(305) 985-0033",
    "address": "14343 SW 96th Ln  Miami, FL 33186",
    "location": "Flagler"
  },
  {
    "name": "Profitable Promotions from Home.",
    "description": "Marketing Programs & Services",
    "phone": "(404) 838-6848",
    "address": "18035 NW 8th Pl  Miami, FL 33169",
    "location": "Flagler"
  },
  {
    "name": "Grace Marketing & Advertising",
    "description": "Marketing Programs & Services",
    "phone": "(305) 255-3926",
    "address": "12360 SW 132nd Ct  Miami, FL 33186",
    "location": "Flagler"
  },
  {
    "name": "Nicole Riley Marketing",
    "description": "Marketing Programs & Services",
    "phone": "(786) 732-6780",
    "address": "13335 SW 124th St  Miami, FL 33186",
    "location": "Flagler"
  },
  {
    "name": "American Senior Marketers Inc",
    "description": "Marketing Programs & Services",
    "phone": "(786) 429-3268",
    "address": "12955 SW 132nd St Ste 207  Miami, FL 33186",
    "location": "Flagler"
  },
  {
    "name": "Dealer Group Marketing",
    "description": "Marketing Programs & Services",
    "phone": "(305) 551-6938",
    "address": "12581 SW 134th Ct  Miami, FL 33186",
    "location": "Flagler"
  },
  {
    "name": "Miami Sky Mail",
    "description": "Marketing Programs & Services",
    "phone": "(305) 252-5553",
    "address": "13230 SW 132nd Ave Ste 25  Miami, FL 33186",
    "location": "Flagler"
  },
  {
    "name": "Rocket Marketing & Design",
    "description": "Marketing Programs & Services",
    "phone": "(786) 309-8333",
    "address": "13155 SW 134th St  Miami, FL 33186",
    "location": "Flagler"
  },
  {
    "name": "Extreme Advertising",
    "description": "Marketing Programs & Services",
    "phone": "(305) 761-1434",
    "address": "18730 NW 8th Ave  Miami, FL 33169",
    "location": "Flagler"
  },
  {
    "name": "Cubi Marketing",
    "description": "Marketing Programs & Services",
    "phone": "(305) 783-0243",
    "address": "6303 SW 158th Ave  Miami, FL 33193",
    "location": "Flagler"
  },
  {
    "name": "Cns Marketing",
    "description": "Marketing Consultants",
    "phone": "(305) 200-5621",
    "address": "13176 NW 7th Ave  Miami, FL 33168",
    "location": "Flagler"
  },
  {
    "name": "International Marketing Advisors Inc",
    "description": "Marketing Consultants",
    "phone": "(305) 593-8697",
    "address": "717 Ponce De Leon Blvd Ste 322  Coral Gables, FL 33134",
    "location": "Flagler"
  },
  {
    "name": "Spanish For Sale Marketing Group",
    "description": "Internet Marketing & Advertising",
    "phone": "(786) 360-5450",
    "address": "770 Ponce De Leon Blvd  Coral Gables, FL 33134",
    "location": "Flagler"
  },
  {
    "name": "Wow Factor Marketing",
    "description": "Direct Marketing Services",
    "phone": "(305) 273-8373",
    "address": "800 S Douglas Rd  Coral Gables, FL 33134",
    "location": "Flagler"
  },
  {
    "name": "Direct Media Marketing",
    "description": "Direct Mail Advertising",
    "phone": "(305) 667-9195",
    "address": "1825 Ponce De Leon Blvd  Coral Gables, FL 33134",
    "location": "Flagler"
  },
  {
    "name": "IBIS Studio // Digital Marketing Agency",
    "description": "Graphic Designers",
    "phone": "(877) 570-2568",
    "address": "2000 Ponce De Leon Blvd Ste 517  Coral Gables, FL 33134",
    "location": "Flagler"
  },
  {
    "name": "That Marketing Agency LLC",
    "description": "Internet Marketing & Advertising",
    "phone": "(305) 663-4227",
    "address": "2000 Ponce De Leon Blvd  Coral Gables, FL 33134",
    "location": "Flagler"
  },
  {
    "name": "DXM Marketing Group",
    "description": "Printing Services-Commercial",
    "phone": "(786) 241-2758",
    "address": "2000 Ponce de Leon Blvd  Coral Gables, FL 33134",
    "location": "Flagler"
  },
  {
    "name": "gFour Marketing Group",
    "description": "Advertising Agencies",
    "phone": "(305) 856-8788",
    "address": "2100 Ponce De Leon Blvd  Coral Gables, FL 33134",
    "location": "Flagler"
  },
  {
    "name": "Premier Worldwide Marketing",
    "description": "Marketing Consultants",
    "phone": "(305) 445-1077",
    "address": "3191 Coral Way  Coral Gables, FL 33145",
    "location": "Flagler"
  },
  {
    "name": "Kabookaboo Marketing",
    "description": "Marketing Consultants",
    "phone": "(305) 569-9154",
    "address": "396 Alhambra Cir  Coral Gables, FL 33134",
    "location": "Flagler"
  },
  {
    "name": "Kreps PR & Marketing",
    "description": "Public Relations Counselors",
    "phone": "(305) 663-9802",
    "address": "220 Alhambra Cir Ste 300  Coral Gables, FL 33134",
    "location": "Flagler"
  },
  {
    "name": "Stealth Media Marketing",
    "description": "Advertising Agencies",
    "phone": "(786) 575-0220",
    "address": "2222 Ponce De Leon Blvd 3rd Fl  Coral Gables, FL 33134",
    "location": "Flagler"
  }
]
