[
  {
    "name": "Hitex Marketing",
    "description": "Marketing Programs & Services",
    "phone": "(305) 883-4535",
    "address": "7209 NW 54th St  Miami, FL 33166",
    "location": "Franklin"
  },
  {
    "name": "Wellness Company (suit 221)",
    "description": "Marketing Programs & Services",
    "phone": "(305) 303-8794",
    "address": "3399 NW 72nd Ave  Miami, FL 33122",
    "location": "Franklin"
  },
  {
    "name": "Menar Marketing International",
    "description": "Marketing Programs & Services",
    "phone": "(305) 593-1103",
    "address": "2801 NW 74th Ave Ste 206  Miami, FL 33122",
    "location": "Franklin"
  },
  {
    "name": "E D Marketing Solutions",
    "description": "Marketing Programs & Services",
    "phone": "(786) 801-1593",
    "address": "2801 NW 74th Ave  Miami, FL 33122",
    "location": "Franklin"
  },
  {
    "name": "William Spain llc",
    "description": "Marketing Programs & Services",
    "phone": "(786) 578-5194",
    "address": "3785 NW 82nd Ave Suite 116  Miami, FL 33166",
    "location": "Franklin"
  },
  {
    "name": "Marketing Truck",
    "description": "Marketing Programs & Services",
    "phone": "(305) 424-2977",
    "address": "7500 NW 25th St  Miami, FL 33122",
    "location": "Franklin"
  },
  {
    "name": "Rekket Digital Hub",
    "description": "Marketing Programs & Services",
    "phone": "(786) 600-1781",
    "address": "7950 NW 53rd St  Miami, FL 33166",
    "location": "Franklin"
  },
  {
    "name": "National Marketing Group Services",
    "description": "Marketing Programs & Services",
    "phone": "(305) 592-9926",
    "address": "7705 NW 48th St  Doral, FL 33166",
    "location": "Franklin"
  },
  {
    "name": "Advantage Marketing & Sales",
    "description": "Marketing Programs & Services",
    "phone": "(305) 303-9560",
    "address": "8181 NW 36th St  Doral, FL 33166",
    "location": "Franklin"
  },
  {
    "name": "Marketlogic",
    "description": "Marketing Programs & Services",
    "phone": "(786) 409-2300",
    "address": "3785 NW 82nd Ave  Doral, FL 33166",
    "location": "Franklin"
  },
  {
    "name": "Below Zero Marketing",
    "description": "Marketing Programs & Services",
    "phone": "(305) 929-8581",
    "address": "8200 NW 41st St  Doral, FL 33166",
    "location": "Franklin"
  },
  {
    "name": "Hydrorescue Marketing",
    "description": "Marketing Programs & Services",
    "phone": "(954) 399-0833",
    "address": "8200 NW 41st St  Doral, FL 33166",
    "location": "Franklin"
  },
  {
    "name": "LATIN-AMERICAN TRADING CGV CORPORATION",
    "description": "Marketing Programs & Services",
    "phone": "(305) 260-6695",
    "address": "3403 NW 82nd Ave Ste 290  Doral, FL 33122",
    "location": "Franklin"
  },
  {
    "name": "Dharma Digital Marketing Agency",
    "description": "Marketing Programs & Services",
    "phone": "(305) 613-2396",
    "address": "3555 NW 83rd Ave Apt 320  Doral, FL 33122",
    "location": "Franklin"
  },
  {
    "name": "Mka Marketing Inc",
    "description": "Marketing Programs & Services",
    "phone": "(786) 265-0231",
    "address": "6555 NW 36th St  Virginia Gardens, FL 33166",
    "location": "Franklin"
  },
  {
    "name": "Multicorp Marketing",
    "description": "Marketing Programs & Services",
    "phone": "(305) 722-7241",
    "address": "7814 NW 54th St  Doral, FL 33166",
    "location": "Franklin"
  },
  {
    "name": "Interaktiva Digital Marketing",
    "description": "Marketing Programs & Services",
    "phone": "(786) 507-1301",
    "address": "7950 NW 53rd St  Doral, FL 33166",
    "location": "Franklin"
  },
  {
    "name": "NCL Corporation Ltd",
    "description": "Marketing Programs & Services",
    "phone": "(305) 436-4000",
    "address": "7665 NW 19th St  Miami, FL 33126",
    "location": "Franklin"
  },
  {
    "name": "Outfront Media",
    "description": "Marketing Programs & Services",
    "phone": "(305) 477-2496",
    "address": "8530 NW 23rd St  Miami, FL 33122",
    "location": "Franklin"
  },
  {
    "name": "Itss",
    "description": "Marketing Programs & Services",
    "phone": "(786) 399-6878",
    "address": "7339 NW 66th St  Miami, FL 33166",
    "location": "Franklin"
  },
  {
    "name": "Addone",
    "description": "Marketing Programs & Services",
    "phone": "(786) 360-4940",
    "address": "8399 NW 66th St  Miami, FL 33166",
    "location": "Franklin"
  },
  {
    "name": "World of Miniature Bears",
    "description": "Marketing Programs & Services",
    "phone": "(305) 592-7971",
    "address": "8300 NW 68th St  Miami, FL 33166",
    "location": "Franklin"
  },
  {
    "name": "Bijoux Nouveau",
    "description": "Marketing Programs & Services",
    "phone": "(800) 262-3614",
    "address": "755 NW 72nd Ave  Miami, FL 33126",
    "location": "Franklin"
  },
  {
    "name": "Document Imaging in Miami",
    "description": "Marketing Programs & Services",
    "phone": "(954) 858-5752",
    "address": "Miami FL  Miami, FL 33173",
    "location": "Franklin"
  },
  {
    "name": "Mass Hispanic Marketing Inc",
    "description": "Marketing Programs & Services",
    "phone": "(305) 351-3600",
    "address": "8250 NW 27th St Ste 301  Doral, FL 33122",
    "location": "Franklin"
  },
  {
    "name": "DecoGraphic",
    "description": "Marketing Programs & Services",
    "phone": "(305) 594-9166",
    "address": "8333 NW 53rd St Ste 450  Doral, FL 33166",
    "location": "Franklin"
  },
  {
    "name": "Kabookaboo",
    "description": "Marketing Programs & Services",
    "phone": "(305) 569-9154",
    "address": "5400 NW 84th Ave  Doral, FL 33166",
    "location": "Franklin"
  },
  {
    "name": "Arus Marketing",
    "description": "Marketing Programs & Services",
    "phone": "(305) 436-5171",
    "address": "5505 NW 84th Ave  Doral, FL 33166",
    "location": "Franklin"
  },
  {
    "name": "305 Global Marketing Corp",
    "description": "Marketing Programs & Services",
    "phone": "(844) 951-5111",
    "address": "2412 NW 87th Pl  Doral, FL 33172",
    "location": "Franklin"
  },
  {
    "name": "New Media, New Marketing, Inc",
    "description": "Marketing Programs & Services",
    "phone": "(305) 546-3301",
    "address": "8232 NW 14th St  Doral, FL 33126",
    "location": "Franklin"
  },
  {
    "name": "Black Leon Marketing",
    "description": "Marketing Programs & Services",
    "phone": "(786) 543-3385",
    "address": "2400 NW 92nd Ave  Doral, FL 33172",
    "location": "Franklin"
  },
  {
    "name": "Marketing Office SVC Corp",
    "description": "Marketing Programs & Services",
    "phone": "(305) 364-5387",
    "address": "2210 NW 92nd Ave  Doral, FL 33172",
    "location": "Franklin"
  },
  {
    "name": "Innovo Advertising",
    "description": "Marketing Programs & Services",
    "phone": "(305) 741-2591",
    "address": "6101 Waterford District Dr  Miami, FL 33126",
    "location": "Franklin"
  },
  {
    "name": "Aerolineas Argentinas",
    "description": "Marketing Programs & Services",
    "phone": "(305) 261-0100",
    "address": "5835 Waterford District Dr  Miami, FL 33126",
    "location": "Franklin"
  },
  {
    "name": "A-Zone Marketing",
    "description": "Marketing Programs & Services",
    "phone": "(787) 587-3378",
    "address": "1016 NW 87th Ave  Miami, FL 33172",
    "location": "Franklin"
  },
  {
    "name": "Turbine SEO Digital Marketing Solution",
    "description": "Marketing Programs & Services",
    "phone": "(754) 271-3103",
    "address": "2949 NW 99Th Ave  Miami, FL 33172",
    "location": "Franklin"
  },
  {
    "name": "01 Programs",
    "description": "Marketing Programs & Services",
    "phone": "(305) 204-6320",
    "address": "208 nw 71st ave  Miami, FL 33126",
    "location": "Franklin"
  },
  {
    "name": "Brican America",
    "description": "Marketing Programs & Services",
    "phone": "(786) 388-6995",
    "address": "5301 Blue Lagoon Dr  Miami, FL 33126",
    "location": "Franklin"
  },
  {
    "name": "Havas Media",
    "description": "Marketing Programs & Services",
    "phone": "(305) 377-1907",
    "address": "5201 Blue Lagoon Dr  Miami, FL 33126",
    "location": "Franklin"
  },
  {
    "name": "Beta II Marketing",
    "description": "Marketing Programs & Services",
    "phone": "(305) 263-7483",
    "address": "5200 Waterford District Dr  Miami, FL 33126",
    "location": "Franklin"
  },
  {
    "name": "Tal International",
    "description": "Marketing Programs & Services",
    "phone": "(786) 388-1825",
    "address": "5200 Waterford District Dr Ste 620  Miami, FL 33126",
    "location": "Franklin"
  },
  {
    "name": "Unlimited Marketing Group",
    "description": "Marketing Programs & Services",
    "phone": "(305) 227-7330",
    "address": "175 Fontainebleau Blvd  Miami, FL 33172",
    "location": "Franklin"
  },
  {
    "name": "Mental Services Corp",
    "description": "Marketing Programs & Services",
    "phone": "(305) 599-9969",
    "address": "1040 Nw 9th St Cir  Miami, FL 33172",
    "location": "Franklin"
  },
  {
    "name": "Hispanic Digital Network",
    "description": "Marketing Programs & Services",
    "phone": "(954) 234-2321",
    "address": "9320 Fontainebleau Blvd  Miami, FL 33172",
    "location": "Franklin"
  },
  {
    "name": "Tiger Direct Inc",
    "description": "Marketing Programs & Services",
    "phone": "(888) 278-4437",
    "address": "9250 W Flagler St  Miami, FL 33174",
    "location": "Franklin"
  },
  {
    "name": "Whirlpool Corp",
    "description": "Marketing Programs & Services",
    "phone": "(305) 593-6482",
    "address": "9800 NW 41st St Ste 250  Doral, FL 33178",
    "location": "Franklin"
  },
  {
    "name": "Make Extra Money Fast",
    "description": "Marketing Programs & Services",
    "phone": "(786) 506-0766",
    "address": "485 Pash E Ho Wa Dr  Hialeah, FL 33010",
    "location": "Franklin"
  },
  {
    "name": "Marume Productions",
    "description": "Marketing Programs & Services",
    "phone": "(305) 458-2584",
    "address": "1365 NW 98th Ct  Doral, FL 33172",
    "location": "Franklin"
  },
  {
    "name": "Vita Marketing",
    "description": "Marketing Programs & Services",
    "phone": "(305) 593-8482",
    "address": "10305 NW 41st St  Doral, FL 33178",
    "location": "Franklin"
  },
  {
    "name": "Fru Veg Sales",
    "description": "Marketing Programs & Services",
    "phone": "(305) 591-7766",
    "address": "2300 NW 102nd Ave  Doral, FL 33172",
    "location": "Franklin"
  },
  {
    "name": "Act Marketing",
    "description": "Marketing Programs & Services",
    "phone": "(305) 982-8011",
    "address": "4471 NW 36th St  Miami Springs, FL 33166",
    "location": "Franklin"
  },
  {
    "name": "BRAINWAVE ADVERTISING LLC",
    "description": "Marketing Programs & Services",
    "phone": "(305) 938-5599",
    "address": "10145 NW 19th St  Doral, FL 33172",
    "location": "Franklin"
  },
  {
    "name": "Made In The USA Marketing",
    "description": "Marketing Programs & Services",
    "phone": "(305) 468-1760",
    "address": "2295 NW 102nd Pl  Doral, FL 33172",
    "location": "Franklin"
  },
  {
    "name": "Basha Trading Services",
    "description": "Marketing Programs & Services",
    "phone": "(305) 200-5020",
    "address": "526 Hialeah Dr  Hialeah, FL 33010",
    "location": "Franklin"
  },
  {
    "name": "TM Cell",
    "description": "Marketing Programs & Services",
    "phone": "(305) 421-9938",
    "address": "10205 NW 19th St  Doral, FL 33172",
    "location": "Franklin"
  },
  {
    "name": "SIM Group",
    "description": "Marketing Programs & Services",
    "phone": "(888) 746-5696",
    "address": "2601 NW 104th Ct  Doral, FL 33172",
    "location": "Franklin"
  },
  {
    "name": "Mass Media Marketing Inc",
    "description": "Marketing Programs & Services",
    "phone": "(305) 330-6498",
    "address": "3774 W 12th Ave  Hialeah, FL 33012",
    "location": "Franklin"
  },
  {
    "name": "Internet Marketing Consultants",
    "description": "Marketing Programs & Services",
    "phone": "(786) 515-7021",
    "address": "550 NW 51st Ave Apt B  Miami, FL 33126",
    "location": "Franklin"
  },
  {
    "name": "Garcia Lorenzo & Associates",
    "description": "Marketing Programs & Services",
    "phone": "(305) 266-8662",
    "address": "6527 Coral Way  Miami, FL 33155",
    "location": "Franklin"
  },
  {
    "name": "Best Marketing & Billing",
    "description": "Marketing Programs & Services",
    "phone": "(305) 262-0341",
    "address": "920 SW 82nd Ave Ste A  Miami, FL 33144",
    "location": "Franklin"
  },
  {
    "name": "Dmar Online Marketing",
    "description": "Marketing Programs & Services",
    "phone": "(855) 423-1319",
    "address": "231 NW 51st Ave  Miami, FL 33126",
    "location": "Franklin"
  },
  {
    "name": "305 vacation marketing",
    "description": "Marketing Programs & Services",
    "phone": "(305) 773-7852",
    "address": "4721 NW 7th St  Miami, FL 33126",
    "location": "Franklin"
  },
  {
    "name": "Contractor Click",
    "description": "Marketing Programs & Services",
    "phone": "(305) 902-4888",
    "address": "8200 SW 12th Ter  Miami, FL 33144",
    "location": "Franklin"
  },
  {
    "name": "Miami Herald",
    "description": "Marketing Programs & Services",
    "phone": "(305) 350-2111",
    "address": "11410 NW 20th St  Miami, FL 33172",
    "location": "Franklin"
  },
  {
    "name": "Sky Is the Limit Marketing Services Corp",
    "description": "Marketing Programs & Services",
    "phone": "(305) 342-4893",
    "address": "7815 Coral Way  Miami, FL 33155",
    "location": "Franklin"
  },
  {
    "name": "Edificando El Arte Fluyen Los",
    "description": "Marketing Programs & Services",
    "phone": "(786) 325-3502",
    "address": "4160 W 16th Ave  Hialeah, FL 33012",
    "location": "Franklin"
  },
  {
    "name": "Harvest Group",
    "description": "Marketing Programs & Services",
    "phone": "(305) 603-8630",
    "address": "4192 W 12th Ave  Hialeah, FL 33012",
    "location": "Franklin"
  },
  {
    "name": "Professional Mass Marketing International",
    "description": "Marketing Programs & Services",
    "phone": "(305) 441-0033",
    "address": "1400 NW 107th Ave  Sweetwater, FL 33172",
    "location": "Franklin"
  },
  {
    "name": "Marketing Solution Source",
    "description": "Marketing Programs & Services",
    "phone": "(786) 331-7927",
    "address": "6771 NW 107th Ct  Doral, FL 33178",
    "location": "Franklin"
  },
  {
    "name": "Four Vectors",
    "description": "Marketing Programs & Services",
    "phone": "(305) 823-8825",
    "address": "9910 NW 80th Ave  Miami Lakes, FL 33016",
    "location": "Franklin"
  },
  {
    "name": "Rab Point Advertising",
    "description": "Marketing Programs & Services",
    "phone": "(786) 362-6197",
    "address": "10220 NW 80th Ave  Hialeah Gardens, FL 33016",
    "location": "Franklin"
  },
  {
    "name": "VIP Ads Online",
    "description": "Marketing Programs & Services",
    "phone": "(305) 915-8024",
    "address": "3508 NW 114th Ave  Doral, FL 33178",
    "location": "Franklin"
  },
  {
    "name": "Solara Marketing",
    "description": "Marketing Programs & Services",
    "phone": "(305) 456-5891",
    "address": "3705 NW 115th Ave  Doral, FL 33178",
    "location": "Franklin"
  },
  {
    "name": "Dpc Marketing Department",
    "description": "Marketing Programs & Services",
    "phone": "(305) 691-5963",
    "address": "1074 E 27th St  Hialeah, FL 33013",
    "location": "Franklin"
  },
  {
    "name": "Kompani Group",
    "description": "Marketing Programs & Services",
    "phone": "(786) 594-0435",
    "address": "4981 SW 74th Ct  Miami, FL 33155",
    "location": "Franklin"
  },
  {
    "name": "Bizmarketing.us",
    "description": "Marketing Programs & Services",
    "phone": "(786) 222-2259",
    "address": "11780 sw 18th st  Miami, FL 33175",
    "location": "Franklin"
  },
  {
    "name": "Navigant Marketing",
    "description": "Marketing Programs & Services",
    "phone": "(305) 929-8300",
    "address": "6100 Coral Way  Miami, FL 33155",
    "location": "Franklin"
  },
  {
    "name": "Dms Design & Marketing Solutions",
    "description": "Marketing Programs & Services",
    "phone": "(305) 227-0071",
    "address": "1421 SW 107th Ave  Miami, FL 33174",
    "location": "Franklin"
  },
  {
    "name": "Sedona Marketing Limited Liability Company",
    "description": "Marketing Programs & Services",
    "phone": "(888) 209-5051",
    "address": "2370 W Sr 89a  Miami, FL 33134",
    "location": "Franklin"
  },
  {
    "name": "Capture Times",
    "description": "Marketing Programs & Services",
    "phone": "(833) 318-1940",
    "address": "2492 NW 44th St  Miami, FL 33142",
    "location": "Franklin"
  },
  {
    "name": "Premire Market Corp",
    "description": "Marketing Programs & Services",
    "phone": "(305) 635-8986",
    "address": "2254 NW 28th St  Miami, FL 33142",
    "location": "Franklin"
  },
  {
    "name": "Smart Target Marketing",
    "description": "Marketing Programs & Services",
    "phone": "(305) 667-6665",
    "address": "6800 Bird Rd  Miami, FL 33155",
    "location": "Franklin"
  },
  {
    "name": "M.A.R. Multiservices Co.",
    "description": "Marketing Programs & Services",
    "phone": "(786) 544-0400",
    "address": "11890 SW 8th St Ste 214b  Miami, FL 33184",
    "location": "Franklin"
  },
  {
    "name": "Alphapac A Marketing Company",
    "description": "Marketing Programs & Services",
    "phone": "(786) 268-7998",
    "address": "7065 SW 46th St  Miami, FL 33155",
    "location": "Franklin"
  },
  {
    "name": "Zoicreative Digital Marketing Agency",
    "description": "Marketing Programs & Services",
    "phone": "(888) 531-2061",
    "address": "4600 SW 75th Ave  Miami, FL 33155",
    "location": "Franklin"
  },
  {
    "name": "E & D Marketing Solutions",
    "description": "Marketing Programs & Services",
    "phone": "(786) 801-1593",
    "address": "2742 SW 8th St  Miami, FL 33135",
    "location": "Franklin"
  },
  {
    "name": "Meel Corp",
    "description": "Marketing Programs & Services",
    "phone": "(305) 688-9199",
    "address": "11151 NW 36th Ave  Miami, FL 33167",
    "location": "Franklin"
  },
  {
    "name": "Smash Interactive Marketing",
    "description": "Marketing Programs & Services",
    "phone": "(786) 899-2424",
    "address": "4955 SW 75th Ave  Miami, FL 33155",
    "location": "Franklin"
  },
  {
    "name": "Veritas Marketing and Distribution",
    "description": "Marketing Programs & Services",
    "phone": "(305) 636-5454",
    "address": "1561 NW 28th St  Miami, FL 33142",
    "location": "Franklin"
  },
  {
    "name": "Leo Media Marketing",
    "description": "Marketing Programs & Services",
    "phone": "(786) 304-1300",
    "address": "1720 NW North River Dr  Miami, FL 33125",
    "location": "Franklin"
  },
  {
    "name": "Stargrafix Marketing",
    "description": "Marketing Programs & Services",
    "phone": "(786) 719-0697",
    "address": "12255 SW 19th St  Miami, FL 33175",
    "location": "Franklin"
  },
  {
    "name": "Amami Marketing Management",
    "description": "Marketing Programs & Services",
    "phone": "(785) 317-7741",
    "address": "1821 SW 27th Ave  Miami, FL 33145",
    "location": "Franklin"
  },
  {
    "name": "Siinc Agency",
    "description": "Marketing Programs & Services",
    "phone": "(305) 438-0225",
    "address": "1862 W Flagler St  Miami, FL 33135",
    "location": "Franklin"
  },
  {
    "name": "Wise Pro Solutions",
    "description": "Marketing Programs & Services",
    "phone": "(305) 340-4970",
    "address": "2467 NW 102nd St  Miami, FL 33147",
    "location": "Franklin"
  },
  {
    "name": "Green Marketing",
    "description": "Marketing Programs & Services",
    "phone": "(407) 936-1406",
    "address": "1444 NW 14th Ave  Miami, FL 33125",
    "location": "Franklin"
  },
  {
    "name": "Shepard Lobe Costa Inc",
    "description": "Marketing Programs & Services",
    "phone": "(305) 372-1430",
    "address": "5310 SW 89th Ave  Miami, FL 33165",
    "location": "Franklin"
  },
  {
    "name": "Market Analytics Group",
    "description": "Marketing Programs & Services",
    "phone": "(305) 442-7300",
    "address": "1131 Obispo Ave  Coral Gables, FL 33134",
    "location": "Franklin"
  },
  {
    "name": "Vitagraphics.net",
    "description": "Marketing Programs & Services",
    "phone": "(305) 470-1420",
    "address": "7013 NW 115th Ct  Doral, FL 33178",
    "location": "Franklin"
  },
  {
    "name": "Troc",
    "description": "Marketing Programs & Services",
    "phone": "(305) 539-3810",
    "address": "800 S Douglas Rd Ste 450  Coral Gables, FL 33134",
    "location": "Franklin"
  },
  {
    "name": "Wow Factor Marketing Group",
    "description": "Marketing Programs & Services",
    "phone": "(305) 273-8373",
    "address": "804 S Douglas Rd  Coral Gables, FL 33134",
    "location": "Franklin"
  },
  {
    "name": "Brand the Collective",
    "description": "Marketing Programs & Services",
    "phone": "(305) 442-9196",
    "address": "1600 Ponce De Leon Blvd  Coral Gables, FL 33134",
    "location": "Franklin"
  },
  {
    "name": "The JLS Agency",
    "description": "Marketing Programs & Services",
    "phone": "(786) 472-5933",
    "address": "255 Alhambra Cir Ste 1160  Coral Gables, FL 33134",
    "location": "Franklin"
  },
  {
    "name": "Unique Marketing & Signage Corporation",
    "description": "Marketing Programs & Services",
    "phone": "(786) 539-8444",
    "address": "660 E 58th St  Hialeah, FL 33013",
    "location": "Franklin"
  },
  {
    "name": "American Marketing Assn-South",
    "description": "Marketing Programs & Services",
    "phone": "(312) 542-9000",
    "address": "265 Aragon Ave  Coral Gables, FL 33134",
    "location": "Franklin"
  },
  {
    "name": "Jason Marketing Corp",
    "description": "Marketing Programs & Services",
    "phone": "(305) 882-6716",
    "address": "10800 NW 106th St  Medley, FL 33178",
    "location": "Franklin"
  },
  {
    "name": "Imagen the Marketing Agency",
    "description": "Marketing Programs & Services",
    "phone": "(305) 774-9443",
    "address": "95 Merrick Way  Coral Gables, FL 33134",
    "location": "Franklin"
  },
  {
    "name": "Ryder System, Inc",
    "description": "Marketing Programs & Services",
    "phone": "(305) 500-3726",
    "address": "2333 Ponce De Leon Blvd  Coral Gables, FL 33134",
    "location": "Franklin"
  },
  {
    "name": "Thr33fold",
    "description": "Marketing Programs & Services",
    "phone": "(305) 389-5909",
    "address": "2333 Ponce De Leon Blvd  Coral Gables, FL 33134",
    "location": "Franklin"
  },
  {
    "name": "The Profit Lab",
    "description": "Marketing Programs & Services",
    "phone": "(786) 693-2208",
    "address": "2332 Galiano St 2nd Fl  Coral Gables, FL 33134",
    "location": "Franklin"
  },
  {
    "name": "Ebs",
    "description": "Marketing Programs & Services",
    "phone": "(305) 523-9695",
    "address": "2332 Galiano St  Coral Gables, FL 33134",
    "location": "Franklin"
  },
  {
    "name": "Micro Media Marketing Inc",
    "description": "Marketing Programs & Services",
    "phone": "(347) 878-6696",
    "address": "55 Merrick Way  Coral Gables, FL 33134",
    "location": "Franklin"
  },
  {
    "name": "Glabes Social Media",
    "description": "Marketing Programs & Services",
    "phone": "(786) 344-0377",
    "address": "2525 Ponce De Leon Blvd  Coral Gables, FL 33134",
    "location": "Franklin"
  },
  {
    "name": "Toki Dream Team Promotions Inc.",
    "description": "Marketing Programs & Services",
    "phone": "(786) 683-4523",
    "address": "Po Box 143609  Coral Gables, FL 33114",
    "location": "Franklin"
  },
  {
    "name": "BTL Network Corp",
    "description": "Marketing Programs & Services",
    "phone": "(786) 703-7148",
    "address": "9675 NW 117th Ave  Medley, FL 33178",
    "location": "Franklin"
  },
  {
    "name": "Chopard",
    "description": "Marketing Programs & Services",
    "phone": "(305) 774-3898",
    "address": "75 Valencia Ave Ste 1000  Coral Gables, FL 33134",
    "location": "Franklin"
  },
  {
    "name": "DLC Integrated Marketing Corp",
    "description": "Marketing Programs & Services",
    "phone": "(305) 374-9494",
    "address": "2600 S Douglas Rd  Coral Gables, FL 33134",
    "location": "Franklin"
  },
  {
    "name": "Medsultant Inc",
    "description": "Marketing Programs & Services",
    "phone": "(305) 454-9837",
    "address": "2545 W 80th St  Hialeah, FL 33016",
    "location": "Franklin"
  },
  {
    "name": "Ultimate guide to success 101",
    "description": "Marketing Programs & Services",
    "phone": "(305) 896-5471",
    "address": "2450 W 82nd St  Hialeah, FL 33016",
    "location": "Franklin"
  },
  {
    "name": "Xplocial",
    "description": "Marketing Programs & Services",
    "phone": "(205) 533-5680",
    "address": "2660 SW 37th Ave  Coconut Grove, FL 33133",
    "location": "Franklin"
  },
  {
    "name": "Net Media All",
    "description": "Marketing Programs & Services",
    "phone": "(305) 825-8225",
    "address": "3140 W 84th St  Hialeah, FL 33018",
    "location": "Franklin"
  },
  {
    "name": "MIT World Wide Marketing",
    "description": "Marketing Programs & Services",
    "phone": "(305) 364-7001",
    "address": "3418 W 84th St  Hialeah, FL 33018",
    "location": "Franklin"
  },
  {
    "name": "Promo International, Inc.",
    "description": "Marketing Programs & Services",
    "phone": "(305) 436-9220",
    "address": "11230 NW 122nd St Unit 700  Medley, FL 33178",
    "location": "Franklin"
  },
  {
    "name": "Diamedix Corp",
    "description": "Marketing Programs & Services",
    "phone": "(305) 324-2300",
    "address": "14100 NW 57th Ct  Miami Lakes, FL 33014",
    "location": "Franklin"
  },
  {
    "name": "Social Caddie Inc",
    "description": "Marketing Programs & Services",
    "phone": "(954) 828-0614",
    "address": "14411 Commerce Way  Miami Lakes, FL 33016",
    "location": "Franklin"
  },
  {
    "name": "Integrated Marketing Group",
    "description": "Marketing Programs & Services",
    "phone": "(305) 670-0123",
    "address": "9100 S Dadeland Blvd  Miami, FL 33156",
    "location": "Franklin"
  },
  {
    "name": "J. Daniel Company",
    "description": "Marketing Programs & Services",
    "phone": "(305) 717-8439",
    "address": "990 Biscayne Blvd Ste 503  Miami, FL 33132",
    "location": "Franklin"
  },
  {
    "name": "NetroStar Inc.",
    "description": "Marketing Programs & Services",
    "phone": "(305) 577-9904",
    "address": "260 NE 17th Ter  Miami, FL 33132",
    "location": "Franklin"
  },
  {
    "name": "Llizo Marketing",
    "description": "Marketing Programs & Services",
    "phone": "(305) 204-0760",
    "address": "5966 S Dixie Hwy suite 300  Miami, FL 33143",
    "location": "Franklin"
  },
  {
    "name": "Imagineer Customer Experience",
    "description": "Marketing Programs & Services",
    "phone": "(305) 600-4344",
    "address": "333 SE 2nd Ave  Miami, FL 33131",
    "location": "Franklin"
  },
  {
    "name": "DONALDSON MARKETING",
    "description": "Marketing Programs & Services",
    "phone": "(678) 830-9327",
    "address": "3070 New York St  Miami, FL 33133",
    "location": "Franklin"
  },
  {
    "name": "Alemao Maria Elena",
    "description": "Marketing Programs & Services",
    "phone": "(305) 639-8481",
    "address": "1393 SW 1st St  Miami, FL 33135",
    "location": "Franklin"
  },
  {
    "name": "Usg International",
    "description": "Marketing Programs & Services",
    "phone": "(305) 688-5228",
    "address": "3001 NW 125th St  Miami, FL 33167",
    "location": "Franklin"
  },
  {
    "name": "Miami Marketing",
    "description": "Marketing Programs & Services",
    "phone": "(305) 275-7313",
    "address": "8441 SW 68th Street Rd  Miami, FL 33143",
    "location": "Franklin"
  },
  {
    "name": "Vantage Communications",
    "description": "Marketing Programs & Services",
    "phone": "(305) 431-2581",
    "address": "1826 SW 21st St  Miami, FL 33145",
    "location": "Franklin"
  },
  {
    "name": "Chase Marketing Group",
    "description": "Marketing Programs & Services",
    "phone": "(305) 567-0280",
    "address": "2937 SW 27th Ave  Miami, FL 33133",
    "location": "Franklin"
  },
  {
    "name": "Media Corp Leo",
    "description": "Marketing Programs & Services",
    "phone": "(786) 391-2964",
    "address": "1801 Coral Way  Miami, FL 33145",
    "location": "Franklin"
  },
  {
    "name": "ASSERTIVE MARKETING GROUP LLC",
    "description": "Marketing Programs & Services",
    "phone": "(305) 552-7067",
    "address": "12055 Bird Dr  Miami, FL 33175",
    "location": "Franklin"
  },
  {
    "name": "Maria Morena",
    "description": "Marketing Programs & Services",
    "phone": "(305) 576-2233",
    "address": "2545 NW 5th Ave  Miami, FL 33127",
    "location": "Franklin"
  },
  {
    "name": "DeepSleep Studio",
    "description": "Marketing Programs & Services",
    "phone": "(305) 720-2990",
    "address": "2140 S Dixie Hwy  Miami, FL 33133",
    "location": "Franklin"
  },
  {
    "name": "Say I Do Marketing",
    "description": "Marketing Programs & Services",
    "phone": "(786) 309-6794",
    "address": "1065 SW 8th St  Miami, FL 33130",
    "location": "Franklin"
  },
  {
    "name": "Ai Disruptive Marketing",
    "description": "Marketing Programs & Services",
    "phone": "(404) 454-2697",
    "address": "4120 NW 3rd Ave  Miami, FL 33127",
    "location": "Franklin"
  },
  {
    "name": "Excel Creative Group",
    "description": "Marketing Programs & Services",
    "phone": "(305) 479-8630",
    "address": "1525 SW 13th Ave  Miami, FL 33145",
    "location": "Franklin"
  },
  {
    "name": "V Digital Services",
    "description": "Marketing Programs & Services",
    "phone": "(305) 290-3886",
    "address": "2750 NW 3rd Ave  Miami, FL 33127",
    "location": "Franklin"
  },
  {
    "name": "Doubleshot Marketing",
    "description": "Marketing Programs & Services",
    "phone": "(305) 780-4958",
    "address": "2285 SW 17th Ave  Miami, FL 33145",
    "location": "Franklin"
  },
  {
    "name": "Rethinken",
    "description": "Marketing Programs & Services",
    "phone": "(646) 564-1503",
    "address": "294 NW 54th St  Miami, FL 33127",
    "location": "Franklin"
  },
  {
    "name": "Sponsorise Me America",
    "description": "Marketing Programs & Services",
    "phone": "(305) 640-5965",
    "address": "3339 Virginia St Apt 101  Miami, FL 33133",
    "location": "Franklin"
  },
  {
    "name": "Paragon Media",
    "description": "Marketing Programs & Services",
    "phone": "(786) 400-2290",
    "address": "9031 SW 68th Ter  Miami, FL 33173",
    "location": "Franklin"
  },
  {
    "name": "Sandra Clavijo-Bowman & Assoc",
    "description": "Marketing Programs & Services",
    "phone": "(305) 860-0901",
    "address": "2551 Tigertail Ave  Miami, FL 33133",
    "location": "Franklin"
  },
  {
    "name": "Local Internet Marketing Group",
    "description": "Marketing Programs & Services",
    "phone": "(786) 472-1644",
    "address": "10420 SW 62nd St  Miami, FL 33173",
    "location": "Franklin"
  },
  {
    "name": "Socialated",
    "description": "Marketing Programs & Services",
    "phone": "(786) 378-6116",
    "address": "2665 S Bayshore Dr Ste 1103  Miami, FL 33133",
    "location": "Franklin"
  },
  {
    "name": "Virsocom Inc",
    "description": "Marketing Programs & Services",
    "phone": "(786) 353-0706",
    "address": "2665 S Bayshore Dr  Miami, FL 33133",
    "location": "Franklin"
  },
  {
    "name": "Stradigys",
    "description": "Marketing Programs & Services",
    "phone": "(786) 558-8372",
    "address": "2665 S Bayshore Dr  Miami, FL 33133",
    "location": "Franklin"
  },
  {
    "name": "Modofi",
    "description": "Marketing Programs & Services",
    "phone": "(850) 750-6636",
    "address": "114 NW 25th St  Miami, FL 33127",
    "location": "Franklin"
  },
  {
    "name": "Social Hive Agency",
    "description": "Marketing Programs & Services",
    "phone": "(786) 332-6910",
    "address": "2048 NW Miami Ct  Miami, FL 33127",
    "location": "Franklin"
  },
  {
    "name": "Digilogic Marketing Agencies",
    "description": "Marketing Programs & Services",
    "phone": "(774) 757-2925",
    "address": "218 NW 8th St  Miami, FL 33136",
    "location": "Franklin"
  },
  {
    "name": "Supermarket Creative",
    "description": "Marketing Programs & Services",
    "phone": "(305) 420-5110",
    "address": "45 NE 41st St  Miami, FL 33137",
    "location": "Franklin"
  },
  {
    "name": "Ultimate Software Solution",
    "description": "Marketing Programs & Services",
    "phone": "(305) 688-6258",
    "address": "745 NW 107th St  Miami, FL 33168",
    "location": "Franklin"
  },
  {
    "name": "Deltex Elite Marketing, Inc.",
    "description": "Marketing Programs & Services",
    "phone": "(305) 988-4731",
    "address": "10300 SW 72nd St Ste 315  Miami, FL 33173",
    "location": "Franklin"
  },
  {
    "name": "Grupo Bt USA",
    "description": "Marketing Programs & Services",
    "phone": "(305) 740-3030",
    "address": "4944 S Le Jeune Rd  Coral Gables, FL 33146",
    "location": "Franklin"
  },
  {
    "name": "Sales of Digital Media Products",
    "description": "Marketing Programs & Services",
    "phone": "(888) 660-8001",
    "address": "7900 Oak Ln #400  Miami Lakes, FL 33016",
    "location": "Franklin"
  },
  {
    "name": "Admobilize",
    "description": "Marketing Programs & Services",
    "phone": "(888) 628-7494",
    "address": "7900 Oak Ln Ste 400  Miami Lakes, FL 33016",
    "location": "Franklin"
  },
  {
    "name": "Nm+U",
    "description": "Marketing Programs & Services",
    "phone": "(305) 445-9020",
    "address": "2103 Coral Way  Coral Gables, FL 33145",
    "location": "Franklin"
  },
  {
    "name": "Inm Marketing Inc",
    "description": "Marketing Programs & Services",
    "phone": "(305) 558-2373",
    "address": "5979 NW 151st St Ste 218  Miami Lakes, FL 33014",
    "location": "Franklin"
  },
  {
    "name": "Family Health Marketing",
    "description": "Marketing Programs & Services",
    "phone": "(305) 631-2949",
    "address": "6001 NW 153rd St  Miami Lakes, FL 33014",
    "location": "Franklin"
  },
  {
    "name": "LMS Business Management & Marketing Solutions",
    "description": "Marketing Programs & Services",
    "phone": "(786) 356-4021",
    "address": "15476 NW 77th Ct # 261  Hialeah, FL 33016",
    "location": "Franklin"
  },
  {
    "name": "Marketing Boss Inc",
    "description": "Marketing Programs & Services",
    "phone": "(305) 828-6478",
    "address": "8145 NW 155th St  Miami Lakes, FL 33016",
    "location": "Franklin"
  },
  {
    "name": "Paradigm Marketing",
    "description": "Marketing Programs & Services",
    "phone": "(305) 740-8338",
    "address": "5900 SW 73rd St  South Miami, FL 33143",
    "location": "Franklin"
  },
  {
    "name": "Vericast",
    "description": "Marketing Programs & Services",
    "phone": "(305) 341-9500",
    "address": "5890 NW 163rd St  Miami Lakes, FL 33014",
    "location": "Franklin"
  },
  {
    "name": "Valassis",
    "description": "Marketing Programs & Services",
    "phone": "(305) 556-9609",
    "address": "5890 NW 163rd St  Miami Lakes, FL 33014",
    "location": "Franklin"
  },
  {
    "name": "Advertise In Miami For Free",
    "description": "Marketing Programs & Services",
    "phone": "(305) 654-9370",
    "address": "192 NE 111th St  Miami, FL 33161",
    "location": "Franklin"
  },
  {
    "name": "Plusamedia",
    "description": "Marketing Programs & Services",
    "phone": "(786) 383-2588",
    "address": "13764 Kendale Lakes Dr  Miami, FL 33183",
    "location": "Franklin"
  },
  {
    "name": "Out of Box Events and Weddings",
    "description": "Marketing Programs & Services",
    "phone": "(786) 273-9668",
    "address": "Po Box 562484  Miami, FL 33256",
    "location": "Franklin"
  },
  {
    "name": "Agency Marketing Machine",
    "description": "Marketing Programs & Services",
    "phone": "(786) 322-4999",
    "address": "3050 Biscayne Blvd  Miami, FL 33137",
    "location": "Franklin"
  },
  {
    "name": "Precise Engagement",
    "description": "Marketing Programs & Services",
    "phone": "(305) 814-0125",
    "address": "6619 S Dixie Hwy Ste 109  Miami, FL 33143",
    "location": "Franklin"
  }
]
