[
  {
    "name": "C N S Marketing",
    "description": "Marketing Programs & Services",
    "phone": "(305) 685-0091",
    "address": "14815 NW 11th Ave  Miami, FL 33168",
    "location": "Glades"
  },
  {
    "name": "1804 Design Miami Web Design",
    "description": "Internet Marketing & Advertising",
    "phone": "(305) 407-1642",
    "address": "15225 NE 6th Ave  Miami, FL 33162",
    "location": "Glades"
  },
  {
    "name": "Remarketing Solutions International",
    "description": "Marketing Programs & Services",
    "phone": "(305) 623-1188",
    "address": "1098 NW 159th Dr  Miami, FL 33169",
    "location": "Glades"
  },
  {
    "name": "Marketing Global Brand Corp",
    "description": "Marketing Programs & Services",
    "phone": "(786) 802-3159",
    "address": "16717 Park Centre Blvd  Miami, FL 33169",
    "location": "Glades"
  },
  {
    "name": "Gregory St. Fort",
    "description": "Marketing Programs & Services",
    "phone": "(754) 801-0361",
    "address": "1648 NE 158 St  Miami, FL 33162",
    "location": "Glades"
  },
  {
    "name": "MGB Corp",
    "description": "Marketing Programs & Services",
    "phone": "(305) 620-2810",
    "address": "1015 Park Centre Blvd  Miami, FL 33169",
    "location": "Glades"
  },
  {
    "name": "Marketing Global",
    "description": "Marketing Programs & Services",
    "phone": "(305) 620-2810",
    "address": "1015 Park Centre Blvd  Miami, FL 33169",
    "location": "Glades"
  },
  {
    "name": "United International Marketing",
    "description": "Marketing Programs & Services",
    "phone": "(305) 620-9597",
    "address": "1405 NW 167th St  Miami, FL 33169",
    "location": "Glades"
  },
  {
    "name": "Document Imaging in Miami",
    "description": "Marketing Programs & Services",
    "phone": "(954) 858-5752",
    "address": "Miami FL  Miami, FL 33173",
    "location": "Glades"
  },
  {
    "name": "MCF Management",
    "description": "Marketing Programs & Services",
    "phone": "(305) 396-3936",
    "address": "237 NE 168th Ter  North Miami Beach, FL 33162",
    "location": "Glades"
  },
  {
    "name": "Modern Ways Marketing Inc",
    "description": "Marketing Programs & Services",
    "phone": "(305) 300-9798",
    "address": "16721 NE 6th Ave  North Miami Beach, FL 33162",
    "location": "Glades"
  },
  {
    "name": "Cns Marketing Advertising Promotion",
    "description": "Marketing Programs & Services",
    "phone": "(786) 312-1067",
    "address": "13051 NW 7th Ave  North Miami, FL 33168",
    "location": "Glades"
  },
  {
    "name": "OptFirst Internet Marketing",
    "description": "Marketing Programs & Services",
    "phone": "(305) 428-2539",
    "address": "620-1 Northeast 126th Street  North Miami, FL 33161",
    "location": "Glades"
  },
  {
    "name": "Bioquina Corp",
    "description": "Marketing Programs & Services",
    "phone": "(305) 893-2303",
    "address": "1073 NE 125th St  North Miami, FL 33161",
    "location": "Glades"
  },
  {
    "name": "Nomi",
    "description": "Marketing Programs & Services",
    "phone": "(305) 892-7938",
    "address": "1125 NE 125th St  North Miami, FL 33161",
    "location": "Glades"
  },
  {
    "name": "Mastermind Marketing Inc",
    "description": "Marketing Programs & Services",
    "phone": "(954) 274-3204",
    "address": "12355 NE 13th Ave  North Miami, FL 33161",
    "location": "Glades"
  },
  {
    "name": "Yuka Group Inc",
    "description": "Marketing Programs & Services",
    "phone": "(786) 657-2446",
    "address": "1815 NE 144th St  North Miami, FL 33181",
    "location": "Glades"
  },
  {
    "name": "Shemorbent Enterprise",
    "description": "Marketing Programs & Services",
    "phone": "(305) 354-9023",
    "address": "1767 NE 162nd St  North Miami Beach, FL 33162",
    "location": "Glades"
  },
  {
    "name": "Advertise In Miami For Free",
    "description": "Marketing Programs & Services",
    "phone": "(305) 654-9370",
    "address": "192 NE 111th St  Miami, FL 33161",
    "location": "Glades"
  },
  {
    "name": "Profitable Promotions from Home.",
    "description": "Marketing Programs & Services",
    "phone": "(404) 838-6848",
    "address": "18035 NW 8th Pl  Miami, FL 33169",
    "location": "Glades"
  },
  {
    "name": "TropicExposure,LLC",
    "description": "Marketing Programs & Services",
    "phone": "(754) 300-0799",
    "address": "1301 NE Miami Gardens Dr Ph 1  Miami, FL 33179",
    "location": "Glades"
  },
  {
    "name": "Ultimate Software Solution",
    "description": "Marketing Programs & Services",
    "phone": "(305) 688-6258",
    "address": "745 NW 107th St  Miami, FL 33168",
    "location": "Glades"
  },
  {
    "name": "Extreme Advertising",
    "description": "Marketing Programs & Services",
    "phone": "(305) 761-1434",
    "address": "18730 NW 8th Ave  Miami, FL 33169",
    "location": "Glades"
  },
  {
    "name": "Demir Group International, Inc",
    "description": "Marketing Programs & Services",
    "phone": "(305) 456-7585",
    "address": "10800 Biscayne Blvd  Miami, FL 33161",
    "location": "Glades"
  },
  {
    "name": "Diverse Holdings Marketing & Medical",
    "description": "Marketing Programs & Services",
    "phone": "(786) 303-5065",
    "address": "13899 Biscayne Blvd  North Miami Beach, FL 33181",
    "location": "Glades"
  },
  {
    "name": "Happy Days Tours",
    "description": "Marketing Programs & Services",
    "phone": "(305) 384-6110",
    "address": "16300 NE 19th Ave  North Miami Beach, FL 33162",
    "location": "Glades"
  },
  {
    "name": "Dimark Solutions LLC",
    "description": "Marketing Programs & Services",
    "phone": "(305) 469-9392",
    "address": "12550 Biscayne Blvd Ste 409  North Miami, FL 33181",
    "location": "Glades"
  },
  {
    "name": "M J M Global Service",
    "description": "Marketing Programs & Services",
    "phone": "(786) 362-5075",
    "address": "12550 Biscayne Blvd  North Miami, FL 33181",
    "location": "Glades"
  },
  {
    "name": "Milestones Marketing",
    "description": "Marketing Programs & Services",
    "phone": "(305) 459-3320",
    "address": "1990 NE 163rd St  North Miami Beach, FL 33162",
    "location": "Glades"
  },
  {
    "name": "Lightning Marketing",
    "description": "Marketing Programs & Services",
    "phone": "(786) 657-2953",
    "address": "2040 NE 163rd St  North Miami Beach, FL 33162",
    "location": "Glades"
  },
  {
    "name": "Web Fuel Marketing",
    "description": "Marketing Programs & Services",
    "phone": "(954) 258-8333",
    "address": "16876 NE 19th Ave  North Miami Beach, FL 33162",
    "location": "Glades"
  },
  {
    "name": "Circle of One Marketing",
    "description": "Marketing Programs & Services",
    "phone": "(305) 576-3790",
    "address": "38 NW 105th St  Miami Shores, FL 33150",
    "location": "Glades"
  },
  {
    "name": "CitizenUSA",
    "description": "Marketing Programs & Services",
    "phone": "(305) 895-8975",
    "address": "2350 Arch Creek Dr  North Miami, FL 33181",
    "location": "Glades"
  },
  {
    "name": "Screen Media Group | Digital Marketing Agency",
    "description": "Marketing Programs & Services",
    "phone": "(754) 300-0366",
    "address": "1835 NE Miami Gardens Dr # 299  Miami, FL 33179",
    "location": "Glades"
  },
  {
    "name": "C M Global Marketing Consultants",
    "description": "Marketing Programs & Services",
    "phone": "(888) 860-7620",
    "address": "1835 NE Miami Gardens Dr  Miami, FL 33179",
    "location": "Glades"
  },
  {
    "name": "Tortuga Leads",
    "description": "Marketing Programs & Services",
    "phone": "(305) 607-5404",
    "address": "4000 Towerside Terrace  Miami, FL 33138",
    "location": "Glades"
  },
  {
    "name": "T3 - Global LLC",
    "description": "Marketing Programs & Services",
    "phone": "(305) 733-4206",
    "address": "19542 NW 7th Ct  Miami, FL 33169",
    "location": "Glades"
  },
  {
    "name": "Lex Promotions & Mktng Group",
    "description": "Marketing Programs & Services",
    "phone": "(305) 974-4568",
    "address": "190 NE 199th St  Miami, FL 33179",
    "location": "Glades"
  },
  {
    "name": "GloberDesign",
    "description": "Marketing Programs & Services",
    "phone": "(800) 454-0049",
    "address": "17071 W Dixie Hwy  North Miami Beach, FL 33160",
    "location": "Glades"
  },
  {
    "name": "Dauerflora Usa Inc.",
    "description": "Marketing Programs & Services",
    "phone": "(305) 654-0703",
    "address": "20725 NE 16th Ave  Miami, FL 33179",
    "location": "Glades"
  },
  {
    "name": "Usg International",
    "description": "Marketing Programs & Services",
    "phone": "(305) 688-5228",
    "address": "3001 NW 125th St  Miami, FL 33167",
    "location": "Glades"
  },
  {
    "name": "Momentum Marketing Group",
    "description": "Marketing Programs & Services",
    "phone": "(305) 757-5894",
    "address": "1031 Ives Dairy Rd  Miami, FL 33179",
    "location": "Glades"
  },
  {
    "name": "Prestige Promotions",
    "description": "Marketing Programs & Services",
    "phone": "(305) 956-5974",
    "address": "20259 NE 15th Ct  Miami, FL 33179",
    "location": "Glades"
  },
  {
    "name": "Instant Win Sweepstakes",
    "description": "Marketing Programs & Services",
    "phone": "(786) 348-1674",
    "address": "470 NE 210th Circle Ter  Miami, FL 33179",
    "location": "Glades"
  },
  {
    "name": "Wise Pro Solutions",
    "description": "Marketing Programs & Services",
    "phone": "(305) 340-4970",
    "address": "2467 NW 102nd St  Miami, FL 33147",
    "location": "Glades"
  },
  {
    "name": "Mrkt",
    "description": "Marketing Programs & Services",
    "phone": "(305) 572-1800",
    "address": "8325 NE 2nd Ave  Miami, FL 33138",
    "location": "Glades"
  },
  {
    "name": "Sci E-Marketing Inc",
    "description": "Marketing Programs & Services",
    "phone": "(305) 651-9311",
    "address": "200 NE 212th St  Miami, FL 33179",
    "location": "Glades"
  },
  {
    "name": "Estrategia Hispana",
    "description": "Marketing Programs & Services",
    "phone": "(786) 320-6877",
    "address": "20725 NE 16th Ave  Miami, FL 33179",
    "location": "Glades"
  },
  {
    "name": "BBM Marketing",
    "description": "Marketing Programs & Services",
    "phone": "(786) 553-8828",
    "address": "8101 Biscayne Blvd  Miami, FL 33138",
    "location": "Glades"
  },
  {
    "name": "Kad Marketing Corp",
    "description": "Marketing Programs & Services",
    "phone": "(888) 312-4994",
    "address": "18851 NE 29th Ave Ste 700  Miami, FL 33180",
    "location": "Glades"
  },
  {
    "name": "Bosseo",
    "description": "Marketing Programs & Services",
    "phone": "(786) 244-2544",
    "address": "754 NE 81st St  Miami, FL 33138",
    "location": "Glades"
  },
  {
    "name": "Corpocall",
    "description": "Marketing Programs & Services",
    "phone": "(786) 427-6666",
    "address": "2999 NE 191st St  Miami, FL 33180",
    "location": "Glades"
  },
  {
    "name": "Sell A Boat.com Inc",
    "description": "Marketing Programs & Services",
    "phone": "(305) 936-2489",
    "address": "2125 NE 204th St  Miami, FL 33179",
    "location": "Glades"
  },
  {
    "name": "The Dental Concierge",
    "description": "Marketing Programs & Services",
    "phone": "(800) 723-9513",
    "address": "18117 Biscayne Blvd Ste 3060  Aventura, FL 33160",
    "location": "Glades"
  },
  {
    "name": "Sbp Media",
    "description": "Marketing Programs & Services",
    "phone": "(305) 440-5984",
    "address": "16420 NE 35th Ave  North Miami Beach, FL 33160",
    "location": "Glades"
  },
  {
    "name": "Miami Dolphins",
    "description": "Marketing Programs & Services",
    "phone": "(305) 943-8000",
    "address": "347 Don Shula Dr  Miami Gardens, FL 33056",
    "location": "Glades"
  },
  {
    "name": "Merrill Marketing",
    "description": "Marketing Programs & Services",
    "phone": "(603) 289-8795",
    "address": "2822 NE 187th St  Aventura, FL 33180",
    "location": "Glades"
  },
  {
    "name": "Anchor Marketing Inc",
    "description": "Marketing Programs & Services",
    "phone": "(305) 864-4555",
    "address": "1177 Kane Concourse  Bay Harbor Islands, FL 33154",
    "location": "Glades"
  },
  {
    "name": "Zath3201property",
    "description": "Marketing Programs & Services",
    "phone": "(954) 292-1717",
    "address": "3201 NE 183rd St  Aventura, FL 33160",
    "location": "Glades"
  },
  {
    "name": "Up Ideas",
    "description": "Marketing Programs & Services",
    "phone": "(305) 572-5670",
    "address": "1160 Kane Concourse  Bay Harbor Islands, FL 33154",
    "location": "Glades"
  },
  {
    "name": "Balsu USA Inc",
    "description": "Marketing Programs & Services",
    "phone": "(305) 993-5045",
    "address": "1160 Kane Concourse Ste 100A  Bay Harbor Islands, FL 33154",
    "location": "Glades"
  },
  {
    "name": "BNG BRANDING",
    "description": "Marketing Programs & Services",
    "phone": "(954) 734-4139",
    "address": "18725 NW 32nd Pl  Miami Gardens, FL 33056",
    "location": "Glades"
  },
  {
    "name": "iSOURCE MARKETING Inc.",
    "description": "Marketing Programs & Services",
    "phone": "(305) 432-4407",
    "address": "3205 NE 184th St Apt 9206  North Miami Beach, FL 33160",
    "location": "Glades"
  },
  {
    "name": "SEO Design Team",
    "description": "Marketing Programs & Services",
    "phone": "(305) 761-6338",
    "address": "19370 Collins Ave  Sunny Isles Beach, FL 33160",
    "location": "Glades"
  },
  {
    "name": "Meel Corp",
    "description": "Marketing Programs & Services",
    "phone": "(305) 688-9199",
    "address": "11151 NW 36th Ave  Miami, FL 33167",
    "location": "Glades"
  },
  {
    "name": "Happy Head Marketing",
    "description": "Marketing Programs & Services",
    "phone": "(305) 981-0439",
    "address": "360 NE 75th St  Miami, FL 33138",
    "location": "Glades"
  },
  {
    "name": "Empire Marketing Productions",
    "description": "Marketing Programs & Services",
    "phone": "(305) 974-0098",
    "address": "3300 NE 192nd St  Miami, FL 33180",
    "location": "Glades"
  },
  {
    "name": "RA Sushi Holding Corp",
    "description": "Marketing Programs & Services",
    "phone": "(305) 593-0770",
    "address": "21500 Biscayne Blvd  Miami, FL 33180",
    "location": "Glades"
  },
  {
    "name": "Semantics Marketing Inc",
    "description": "Marketing Programs & Services",
    "phone": "(305) 792-4053",
    "address": "3181 NE 211th Ter  Miami, FL 33180",
    "location": "Glades"
  },
  {
    "name": "Progressive Marketing Solutions",
    "description": "Marketing Programs & Services",
    "phone": "(305) 932-1328",
    "address": "20281 E Country Club Dr  Miami, FL 33180",
    "location": "Glades"
  },
  {
    "name": "Mauluna Total Marketing Solution",
    "description": "Marketing Programs & Services",
    "phone": "(954) 857-1314",
    "address": "5600 NE 4th Ave  Miami, FL 33137",
    "location": "Glades"
  },
  {
    "name": "Rethinken",
    "description": "Marketing Programs & Services",
    "phone": "(646) 564-1503",
    "address": "294 NW 54th St  Miami, FL 33127",
    "location": "Glades"
  },
  {
    "name": "Supermarket Creative",
    "description": "Marketing Programs & Services",
    "phone": "(305) 420-5110",
    "address": "45 NE 41st St  Miami, FL 33137",
    "location": "Glades"
  },
  {
    "name": "Ai Disruptive Marketing",
    "description": "Marketing Programs & Services",
    "phone": "(404) 454-2697",
    "address": "4120 NW 3rd Ave  Miami, FL 33127",
    "location": "Glades"
  },
  {
    "name": "Convierte Mas",
    "description": "Marketing Programs & Services",
    "phone": "(757) 908-6472",
    "address": "3933 Biscayne Blvd  Miami, FL 33137",
    "location": "Glades"
  },
  {
    "name": "Seiko Coporation of America",
    "description": "Marketing Programs & Services",
    "phone": "(786) 360-6869",
    "address": "130 NE 40th St  Miami, FL 33137",
    "location": "Glades"
  },
  {
    "name": "Empyrean Marketing",
    "description": "Marketing Programs & Services",
    "phone": "(800) 987-6543",
    "address": "1001 91st St  Bay Harbor Islands, FL 33154",
    "location": "Glades"
  },
  {
    "name": "JAMAICA'S PROPERTY MARKETING",
    "description": "Marketing Programs & Services",
    "phone": "(704) 298-9628",
    "address": "19600 NW 30th Pl  Miami Gardens, FL 33056",
    "location": "Glades"
  },
  {
    "name": "Covert Marketing - Internet Marketing Agency",
    "description": "Marketing Programs & Services",
    "phone": "(954) 361-5438",
    "address": "250 174th St Apt 714  Sunny Isles Beach, FL 33160",
    "location": "Glades"
  },
  {
    "name": "Progressive Leads",
    "description": "Marketing Programs & Services",
    "phone": "(800) 818-4182",
    "address": "19501 W Country Club Dr  Aventura, FL 33180",
    "location": "Glades"
  },
  {
    "name": "Marketing On-Line Inc",
    "description": "Marketing Programs & Services",
    "phone": "(305) 459-1481",
    "address": "1440 79th Street Cswy  North Bay Village, FL 33141",
    "location": "Glades"
  },
  {
    "name": "Institute For Luxury Home Marketing",
    "description": "Marketing Programs & Services",
    "phone": "(214) 485-3000",
    "address": "17600 Collins Ave  Sunny Isles Beach, FL 33160",
    "location": "Glades"
  },
  {
    "name": "Unique Marketing & Signage Corporation",
    "description": "Marketing Programs & Services",
    "phone": "(786) 539-8444",
    "address": "660 E 58th St  Hialeah, FL 33013",
    "location": "Glades"
  },
  {
    "name": "Creative Marketing Concepts, Inc.",
    "description": "Marketing Programs & Services",
    "phone": "(305) 936-1035",
    "address": "21355 E Dixie Hwy Ste 106  Aventura, FL 33180",
    "location": "Glades"
  },
  {
    "name": "Big Thought Media",
    "description": "Marketing Programs & Services",
    "phone": "(954) 654-1578",
    "address": "7950 Tatum Waterway Dr  Miami Beach, FL 33141",
    "location": "Glades"
  },
  {
    "name": "Unlimited Marketing",
    "description": "Marketing Programs & Services",
    "phone": "(305) 866-3500",
    "address": "7736 Harding Ave  Miami Beach, FL 33141",
    "location": "Glades"
  },
  {
    "name": "Alan Mrkt Grp",
    "description": "Marketing Programs & Services",
    "phone": "(786) 800-3140",
    "address": "900 Bay Dr  Miami Beach, FL 33141",
    "location": "Glades"
  },
  {
    "name": "Market Tools",
    "description": "Marketing Programs & Services",
    "phone": "(786) 275-6099",
    "address": "7330 Ocean Ter  Miami Beach, FL 33141",
    "location": "Glades"
  },
  {
    "name": "Brand Marketers Inc",
    "description": "Marketing Programs & Services",
    "phone": "(646) 417-8118",
    "address": "220 71st St  Miami Beach, FL 33141",
    "location": "Glades"
  },
  {
    "name": "Dpc Marketing Department",
    "description": "Marketing Programs & Services",
    "phone": "(305) 691-5963",
    "address": "1074 E 27th St  Hialeah, FL 33013",
    "location": "Glades"
  },
  {
    "name": "Seo Komodo",
    "description": "Marketing Programs & Services",
    "phone": "(919) 432-4506",
    "address": "7135 Collins Ave  Miami Beach, FL 33141",
    "location": "Glades"
  },
  {
    "name": "Diamedix Corp",
    "description": "Marketing Programs & Services",
    "phone": "(305) 324-2300",
    "address": "14100 NW 57th Ct  Miami Lakes, FL 33014",
    "location": "Glades"
  },
  {
    "name": "Marketing & Logistic",
    "description": "Marketing Programs & Services",
    "phone": "(786) 458-3082",
    "address": "4955 NW 199th St  Miami Gardens, FL 33055",
    "location": "Glades"
  },
  {
    "name": "Vericast",
    "description": "Marketing Programs & Services",
    "phone": "(305) 341-9500",
    "address": "5890 NW 163rd St  Miami Lakes, FL 33014",
    "location": "Glades"
  },
  {
    "name": "Valassis",
    "description": "Marketing Programs & Services",
    "phone": "(305) 556-9609",
    "address": "5890 NW 163rd St  Miami Lakes, FL 33014",
    "location": "Glades"
  },
  {
    "name": "Inm Marketing Inc",
    "description": "Marketing Programs & Services",
    "phone": "(305) 558-2373",
    "address": "5979 NW 151st St Ste 218  Miami Lakes, FL 33014",
    "location": "Glades"
  },
  {
    "name": "Family Health Marketing",
    "description": "Marketing Programs & Services",
    "phone": "(305) 631-2949",
    "address": "6001 NW 153rd St  Miami Lakes, FL 33014",
    "location": "Glades"
  },
  {
    "name": "Quest Marketing",
    "description": "Marketing Programs & Services",
    "phone": "(305) 993-1213",
    "address": "5920 Pine Tree Dr  Miami Beach, FL 33140",
    "location": "Glades"
  },
  {
    "name": "Ink Link Marketing",
    "description": "Marketing Programs & Services",
    "phone": "(305) 631-2577",
    "address": "6073 NW 167th St  Hialeah, FL 33015",
    "location": "Glades"
  },
  {
    "name": "New York Focus",
    "description": "Marketing Programs & Services",
    "phone": "(305) 868-7715",
    "address": "6061 Collins Ave  Miami Beach, FL 33140",
    "location": "Glades"
  },
  {
    "name": "Industrial Marketing Media",
    "description": "Marketing Programs & Services",
    "phone": "(954) 963-1508",
    "address": "3600 S State Road 7  Miramar, FL 33023",
    "location": "Glades"
  },
  {
    "name": "Engine Marketing",
    "description": "Marketing Programs & Services",
    "phone": "(941) 623-2393",
    "address": "3416 W Lake Pl  Miramar, FL 33023",
    "location": "Glades"
  },
  {
    "name": "Get Bizible One Effective",
    "description": "Marketing Programs & Services",
    "phone": "(754) 203-6479",
    "address": "7451 Riviera Blvd  Miramar, FL 33023",
    "location": "Glades"
  },
  {
    "name": "Creative Gospel 101 (CG101)",
    "description": "Marketing Programs & Services",
    "phone": "(754) 244-6654",
    "address": "3121 SW 64th Ave  Miramar, FL 33023",
    "location": "Glades"
  },
  {
    "name": "Riddims Marketing",
    "description": "Marketing Programs & Services",
    "phone": "(954) 251-1643",
    "address": "6151 Miramar Pkwy  Miramar, FL 33023",
    "location": "Glades"
  },
  {
    "name": "Dumesle Bariento Jean Baptiste",
    "description": "Marketing Programs & Services",
    "phone": "(954) 842-2498",
    "address": "6151 Miramar Pkwy  Miramar, FL 33023",
    "location": "Glades"
  },
  {
    "name": "The Marketing Depo Inc",
    "description": "Marketing Programs & Services",
    "phone": "(954) 251-3404",
    "address": "7971 Riviera Blvd Ste 308  Miramar, FL 33023",
    "location": "Glades"
  },
  {
    "name": "Team Marketing Group",
    "description": "Marketing Programs & Services",
    "phone": "(754) 210-3600",
    "address": "3107 W Hallandale Beach Blvd  Hallandale, FL 33009",
    "location": "Glades"
  },
  {
    "name": "UMG Marketing Group",
    "description": "Marketing Programs & Services",
    "phone": "(305) 204-1517",
    "address": "800 SE 4th Ave Ste 711  Hallandale Beach, FL 33009",
    "location": "Glades"
  },
  {
    "name": "Kissleads Inc",
    "description": "Marketing Programs & Services",
    "phone": "(305) 398-3232",
    "address": "1048 NW 1st Ct  Hallandale Beach, FL 33009",
    "location": "Glades"
  },
  {
    "name": "Miami Gardens Observer Inc.",
    "description": "Marketing Programs & Services",
    "phone": "(786) 326-5204",
    "address": "5735 Pembroke Rd  Hollywood, FL 33023",
    "location": "Glades"
  },
  {
    "name": "Waymaker Marketing & Professional Services",
    "description": "Marketing Programs & Services",
    "phone": "(954) 607-9776",
    "address": "4308 Pembroke Rd  Hollywood, FL 33021",
    "location": "Glades"
  },
  {
    "name": "Tajh LLc",
    "description": "Marketing Programs & Services",
    "phone": "(954) 654-9869",
    "address": "2962 W Missionwood Ln  Miramar, FL 33025",
    "location": "Glades"
  },
  {
    "name": "Selectedfirms",
    "description": "Marketing Programs & Services",
    "phone": "(305) 447-7908",
    "address": "8648 Windsor Dr  Miramar, FL 33025",
    "location": "Glades"
  },
  {
    "name": "Angel Heart Life Care Services",
    "description": "Marketing Programs & Services",
    "phone": "(954) 362-4496",
    "address": "6011 Rodman St  Hollywood, FL 33023",
    "location": "Glades"
  },
  {
    "name": "Lor Mike Enterprise Co/",
    "description": "Marketing Programs & Services",
    "phone": "(754) 204-3219",
    "address": "8293 sw 25th ct  Miramar, FL 33025",
    "location": "Glades"
  },
  {
    "name": "Bee Social Group",
    "description": "Marketing Programs & Services",
    "phone": "(954) 479-2220",
    "address": "4812 Washington St  Hollywood, FL 33021",
    "location": "Glades"
  },
  {
    "name": "Eyg Sales & Marketing",
    "description": "Marketing Programs & Services",
    "phone": "(754) 244-7696",
    "address": "1101 NE 3rd St  Hallandale Beach, FL 33009",
    "location": "Glades"
  },
  {
    "name": "FreeAdvertisingNetwork.org",
    "description": "Marketing Programs & Services",
    "phone": "(954) 864-5578",
    "address": "2080 S Ocean Dr Apt 104  Hallandale Beach, FL 33009",
    "location": "Glades"
  },
  {
    "name": "South Florida Video Productions",
    "description": "Marketing Programs & Services",
    "phone": "(954) 593-5809",
    "address": "319 NE 14th Ave  Hallandale Beach, FL 33009",
    "location": "Glades"
  },
  {
    "name": "Direct Connect By Owner",
    "description": "Marketing Programs & Services",
    "phone": "(800) 930-3577",
    "address": "1920 E Hallandale Beach Blvd  Hallandale Beach, FL 33009",
    "location": "Glades"
  },
  {
    "name": "J. Daniel Company",
    "description": "Marketing Programs & Services",
    "phone": "(305) 717-8439",
    "address": "990 Biscayne Blvd Ste 503  Miami, FL 33132",
    "location": "Glades"
  },
  {
    "name": "NetroStar Inc.",
    "description": "Marketing Programs & Services",
    "phone": "(305) 577-9904",
    "address": "260 NE 17th Ter  Miami, FL 33132",
    "location": "Glades"
  },
  {
    "name": "International Marketing Group",
    "description": "Marketing Programs & Services",
    "phone": "(786) 584-0090",
    "address": "3635 NE 1st Ave  Miami, FL 33137",
    "location": "Glades"
  },
  {
    "name": "Mattyofit",
    "description": "Marketing Programs & Services",
    "phone": "(786) 882-3821",
    "address": "601 NE 36th St  Miami, FL 33137",
    "location": "Glades"
  },
  {
    "name": "Dmar Online Marketing",
    "description": "Marketing Programs & Services",
    "phone": "(855) 423-1319",
    "address": "231 NW 51st Ave  Miami, FL 33126",
    "location": "Glades"
  },
  {
    "name": "Premire World Marketing",
    "description": "Marketing Programs & Services",
    "phone": "(305) 856-7083",
    "address": "2600 SW 3rd Ave  Miami, FL 33129",
    "location": "Glades"
  },
  {
    "name": "Menar Marketing International",
    "description": "Marketing Programs & Services",
    "phone": "(305) 593-1103",
    "address": "2801 NW 74th Ave Ste 206  Miami, FL 33122",
    "location": "Glades"
  },
  {
    "name": "E D Marketing Solutions",
    "description": "Marketing Programs & Services",
    "phone": "(786) 801-1593",
    "address": "2801 NW 74th Ave  Miami, FL 33122",
    "location": "Glades"
  },
  {
    "name": "Anchor Sales & Marketing",
    "description": "Manufacturers Agents & Representatives",
    "phone": "(305) 477-3193",
    "address": "8525 NW 53rd St  Miami, FL 33166",
    "location": "Glades"
  },
  {
    "name": "Global Marketing",
    "description": "Marketing Programs & Services",
    "phone": "(786) 953-4860",
    "address": "2828 SW 3rd Ave  Miami, FL 33129",
    "location": "Glades"
  },
  {
    "name": "Miami Marketing Resources",
    "description": "Marketing Consultants",
    "phone": "(305) 961-1127",
    "address": "2517 NW 74th Ave  Miami, FL 33122",
    "location": "Glades"
  },
  {
    "name": "Skycargo Marketing",
    "description": "Marketing Consultants",
    "phone": "(305) 599-1054",
    "address": "7500 NW 25th St  Miami, FL 33122",
    "location": "Glades"
  },
  {
    "name": "Marketing Truck",
    "description": "Marketing Programs & Services",
    "phone": "(305) 424-2977",
    "address": "7500 NW 25th St  Miami, FL 33122",
    "location": "Glades"
  },
  {
    "name": "Unlisted Marketing",
    "description": "Marketing Consultants",
    "phone": "(786) 391-3997",
    "address": "7500 NW 25th St  Miami, FL 33122",
    "location": "Glades"
  },
  {
    "name": "Florida Advertising and Marketing Corp",
    "description": "Advertising Agencies",
    "phone": "(786) 718-1578",
    "address": "7500 NW 25th St Ste 292  Miami, FL 33122",
    "location": "Glades"
  },
  {
    "name": "Amami Marketing Management",
    "description": "Marketing Programs & Services",
    "phone": "(785) 317-7741",
    "address": "1821 SW 27th Ave  Miami, FL 33145",
    "location": "Glades"
  },
  {
    "name": "Doubleshot Marketing",
    "description": "Marketing Programs & Services",
    "phone": "(305) 780-4958",
    "address": "2285 SW 17th Ave  Miami, FL 33145",
    "location": "Glades"
  },
  {
    "name": "Insurance Marketing Center",
    "description": "Insurance",
    "phone": "(305) 715-9992",
    "address": "2500 NW 79th Ave Ste 208  Miami, FL 33122",
    "location": "Glades"
  },
  {
    "name": "Euro Trans Marketing",
    "description": "Marketing Consultants",
    "phone": "(305) 418-0391",
    "address": "2500 NW 79th Ave  Miami, FL 33122",
    "location": "Glades"
  },
  {
    "name": "Btl Organic Marketing Inc",
    "description": "Marketing Consultants",
    "phone": "(305) 364-5524",
    "address": "7910 NW 25th St  Miami, FL 33122",
    "location": "Glades"
  },
  {
    "name": "Mia's PRO Marketing",
    "description": "Advertising-Promotional Products",
    "phone": "(305) 731-5143",
    "address": "1600 S Le Jeune Rd Apt 9  Miami, FL 33134",
    "location": "Glades"
  },
  {
    "name": "Creative Marketing Partner Adv",
    "description": "Attorneys",
    "phone": "(305) 445-7171",
    "address": "3191 Coral Way  Miami, FL 33145",
    "location": "Glades"
  },
  {
    "name": "Professional Mass Marketing International Inc",
    "description": "Marketing Consultants",
    "phone": "(305) 441-0033",
    "address": "3400 Coral Way Ste 603  Miami, FL 33145",
    "location": "Glades"
  },
  {
    "name": "DEGOM Marketing",
    "description": "Internet Marketing & Advertising",
    "phone": "(305) 206-9056",
    "address": "2222 Ponce de Leon Blvd  Miami, FL 33127",
    "location": "Glades"
  },
  {
    "name": "Sedona Marketing Limited Liability Company",
    "description": "Marketing Programs & Services",
    "phone": "(888) 209-5051",
    "address": "2370 W Sr 89a  Miami, FL 33134",
    "location": "Glades"
  },
  {
    "name": "Southeast Marketing",
    "description": "Marketing Consultants",
    "phone": "(786) 388-0741",
    "address": "777 NW 72nd Ave  Miami, FL 33126",
    "location": "Glades"
  },
  {
    "name": "Marketing Max",
    "description": "Marketing Consultants",
    "phone": "(305) 456-7162",
    "address": "8155 NW 108th Ave  Miami, FL 33178",
    "location": "Glades"
  },
  {
    "name": "Integrated Marketing",
    "description": "Marketing Consultants",
    "phone": "(786) 360-2778",
    "address": "2937 SW 27th Ave  Miami, FL 33133",
    "location": "Glades"
  },
  {
    "name": "Chase Marketing Group",
    "description": "Marketing Programs & Services",
    "phone": "(305) 567-0280",
    "address": "2937 SW 27th Ave  Miami, FL 33133",
    "location": "Glades"
  },
  {
    "name": "Caribbean Marketing Resorts",
    "description": "Marketing Consultants",
    "phone": "(305) 266-6465",
    "address": "1155 SW 67th Ave  Miami, FL 33144",
    "location": "Glades"
  },
  {
    "name": "DONALDSON MARKETING",
    "description": "Marketing Programs & Services",
    "phone": "(678) 830-9327",
    "address": "3070 New York St  Miami, FL 33133",
    "location": "Glades"
  },
  {
    "name": "A-Zone Marketing",
    "description": "Marketing Programs & Services",
    "phone": "(787) 587-3378",
    "address": "1016 NW 87th Ave  Miami, FL 33172",
    "location": "Glades"
  },
  {
    "name": "Digital Marketing Hound",
    "description": "Marketing Consultants",
    "phone": "(305) 333-2614",
    "address": "3120 Day Ave  Miami, FL 33133",
    "location": "Glades"
  },
  {
    "name": "Navigant Marketing",
    "description": "Marketing Programs & Services",
    "phone": "(305) 929-8300",
    "address": "6100 Coral Way  Miami, FL 33155",
    "location": "Glades"
  },
  {
    "name": "Make Extra Money Fast",
    "description": "Marketing Programs & Services",
    "phone": "(786) 506-0766",
    "address": "485 Pash E Ho Wa Dr  Hialeah, FL 33010",
    "location": "Glades"
  },
  {
    "name": "Edificando El Arte Fluyen Los",
    "description": "Marketing Programs & Services",
    "phone": "(786) 325-3502",
    "address": "4160 W 16th Ave  Hialeah, FL 33012",
    "location": "Glades"
  },
  {
    "name": "LMS Business Management & Marketing Solutions",
    "description": "Marketing Programs & Services",
    "phone": "(786) 356-4021",
    "address": "15476 NW 77th Ct # 261  Hialeah, FL 33016",
    "location": "Glades"
  },
  {
    "name": "Social Caddie Inc",
    "description": "Marketing Programs & Services",
    "phone": "(954) 828-0614",
    "address": "14411 Commerce Way  Miami Lakes, FL 33016",
    "location": "Glades"
  },
  {
    "name": "Admobilize",
    "description": "Marketing Programs & Services",
    "phone": "(888) 628-7494",
    "address": "7900 Oak Ln Ste 400  Miami Lakes, FL 33016",
    "location": "Glades"
  },
  {
    "name": "Sales of Digital Media Products",
    "description": "Marketing Programs & Services",
    "phone": "(888) 660-8001",
    "address": "7900 Oak Ln #400  Miami Lakes, FL 33016",
    "location": "Glades"
  },
  {
    "name": "Act Marketing",
    "description": "Marketing Programs & Services",
    "phone": "(305) 982-8011",
    "address": "4471 NW 36th St  Miami Springs, FL 33166",
    "location": "Glades"
  },
  {
    "name": "Marketing Boss Inc",
    "description": "Marketing Programs & Services",
    "phone": "(305) 828-6478",
    "address": "8145 NW 155th St  Miami Lakes, FL 33016",
    "location": "Glades"
  },
  {
    "name": "Ultimate guide to success 101",
    "description": "Marketing Programs & Services",
    "phone": "(305) 896-5471",
    "address": "2450 W 82nd St  Hialeah, FL 33016",
    "location": "Glades"
  },
  {
    "name": "Rab Point Advertising",
    "description": "Marketing Programs & Services",
    "phone": "(786) 362-6197",
    "address": "10220 NW 80th Ave  Hialeah Gardens, FL 33016",
    "location": "Glades"
  },
  {
    "name": "Medsultant Inc",
    "description": "Marketing Programs & Services",
    "phone": "(305) 454-9837",
    "address": "2545 W 80th St  Hialeah, FL 33016",
    "location": "Glades"
  },
  {
    "name": "Irevu",
    "description": "Marketing Programs & Services",
    "phone": "(312) 545-0621",
    "address": "2301 Collins Ave  Miami Beach, FL 33139",
    "location": "Glades"
  },
  {
    "name": "Four Vectors",
    "description": "Marketing Programs & Services",
    "phone": "(305) 823-8825",
    "address": "9910 NW 80th Ave  Miami Lakes, FL 33016",
    "location": "Glades"
  },
  {
    "name": "Joy Media Works",
    "description": "Marketing Programs & Services",
    "phone": "(786) 623-6203",
    "address": "1205 Lincoln Rd  Miami Beach, FL 33139",
    "location": "Glades"
  },
  {
    "name": "OmniFunnel Marketing",
    "description": "Marketing Programs & Services",
    "phone": "(866) 858-2740",
    "address": "1680 Michigan Ave Ste 700  Miami Beach, FL 33139",
    "location": "Glades"
  },
  {
    "name": "Seo By Industry",
    "description": "Marketing Programs & Services",
    "phone": "(305) 763-8270",
    "address": "1680 Michigan Ave  Miami Beach, FL 33139",
    "location": "Glades"
  },
  {
    "name": "Pinta-the Art-Cross-Cultural",
    "description": "Marketing Programs & Services",
    "phone": "(305) 615-1111",
    "address": "1111 Lincoln Rd  Miami Beach, FL 33139",
    "location": "Glades"
  },
  {
    "name": "Sbny Marketing",
    "description": "Marketing Programs & Services",
    "phone": "(305) 695-0162",
    "address": "1688 Meridian Ave  Miami Beach, FL 33139",
    "location": "Glades"
  },
  {
    "name": "HBCQuotes.com",
    "description": "Marketing Programs & Services",
    "phone": "(888) 670-2404",
    "address": "300 S Park Rd Ste 140  Hollywood, FL 33021",
    "location": "Glades"
  },
  {
    "name": "Advance Marketing Plus Corp",
    "description": "Marketing Programs & Services",
    "phone": "(954) 433-1046",
    "address": "10306 Usa Today Way  Miramar, FL 33025",
    "location": "Glades"
  },
  {
    "name": "Human Relationships",
    "description": "Marketing Programs & Services",
    "phone": "(224) 730-1076",
    "address": "1980 S Ocean Dr  Hallandale Beach, FL 33009",
    "location": "Glades"
  },
  {
    "name": "Beafil Inc",
    "description": "Marketing Programs & Services",
    "phone": "(954) 455-5929",
    "address": "1001 N Federal Hwy  Hallandale Beach, FL 33009",
    "location": "Glades"
  },
  {
    "name": "SEONext",
    "description": "Marketing Programs & Services",
    "phone": "(888) 752-0099",
    "address": "6030 Hollywood Blvd  Hollywood, FL 33024",
    "location": "Glades"
  },
  {
    "name": "KFG Ventures",
    "description": "Marketing Programs & Services",
    "phone": "(786) 200-2292",
    "address": "1893 S Ocean Dr Apt 908  Hallandale Beach, FL 33009",
    "location": "Glades"
  },
  {
    "name": "Shooger",
    "description": "Marketing Programs & Services",
    "phone": "(305) 704-7940",
    "address": "4302 Hollywood Blvd  Hollywood, FL 33021",
    "location": "Glades"
  },
  {
    "name": "Soft Marketing Corp",
    "description": "Marketing Programs & Services",
    "phone": "(786) 509-6422",
    "address": "4000 Hollywood Blvd  Hollywood, FL 33021",
    "location": "Glades"
  },
  {
    "name": "Meeting Professionals International",
    "description": "Marketing Programs & Services",
    "phone": "(954) 602-8851",
    "address": "501 Diplomat Pkwy  Hallandale Beach, FL 33009",
    "location": "Glades"
  },
  {
    "name": "Women Certified",
    "description": "Marketing Programs & Services",
    "phone": "(954) 922-0846",
    "address": "3440 Hollywood Blvd  Hollywood, FL 33021",
    "location": "Glades"
  },
  {
    "name": "Hanna Marketing Inc",
    "description": "Marketing Programs & Services",
    "phone": "(954) 964-1665",
    "address": "4816 Polk St  Hollywood, FL 33021",
    "location": "Glades"
  },
  {
    "name": "Womencertified Inc",
    "description": "Marketing Programs & Services",
    "phone": "(954) 922-0846",
    "address": "3325 Hollywood Blvd Ste 503  Hollywood, FL 33021",
    "location": "Glades"
  },
  {
    "name": "Absolute Internet Marketing Inc",
    "description": "Marketing Programs & Services",
    "phone": "(561) 705-7721",
    "address": "1800 S Ocean Dr  Hallandale Beach, FL 33009",
    "location": "Glades"
  },
  {
    "name": "Cyborg Instruments",
    "description": "Marketing Programs & Services",
    "phone": "(305) 934-0717",
    "address": "3930 Executive Way  Miramar, FL 33025",
    "location": "Glades"
  },
  {
    "name": "WAI Global",
    "description": "Marketing Programs & Services",
    "phone": "(610) 395-3730",
    "address": "3300 Corporate Way  Miramar, FL 33025",
    "location": "Glades"
  },
  {
    "name": "Click Then Convert",
    "description": "Marketing Programs & Services",
    "phone": "(954) 287-3728",
    "address": "2719 Hollywood Blvd  Hollywood, FL 33020",
    "location": "Glades"
  },
  {
    "name": "1 Stop Marketing Solutions",
    "description": "Marketing Programs & Services",
    "phone": "(954) 632-3905",
    "address": "528 N Luna Ct  Hollywood, FL 33021",
    "location": "Glades"
  },
  {
    "name": "Gcr Acquisitions Incorporated",
    "description": "Marketing Programs & Services",
    "phone": "(954) 362-4279",
    "address": "2500 Hollywood Blvd  Hollywood, FL 33020",
    "location": "Glades"
  },
  {
    "name": "Dynamic Marketing Service",
    "description": "Marketing Programs & Services",
    "phone": "(954) 961-1694",
    "address": "4821 Lincoln St  Hollywood, FL 33021",
    "location": "Glades"
  },
  {
    "name": "Thelogoboutique.com",
    "description": "Marketing Programs & Services",
    "phone": "(954) 636-1437",
    "address": "140 S Dixie Hwy  Hollywood, FL 33020",
    "location": "Glades"
  },
  {
    "name": "Chroma Marketing",
    "description": "Marketing Programs & Services",
    "phone": "(954) 998-2502",
    "address": "2028 Harrison St  Hollywood, FL 33020",
    "location": "Glades"
  },
  {
    "name": "Super Cool Promos",
    "description": "Marketing Programs & Services",
    "phone": "(305) 299-1918",
    "address": "1004 Yale Dr  Hollywood, FL 33021",
    "location": "Glades"
  },
  {
    "name": "Salamon Snow Marketing & Advertising",
    "description": "Marketing Programs & Services",
    "phone": "(954) 367-0531",
    "address": "1942 Harrison St  Hollywood, FL 33020",
    "location": "Glades"
  },
  {
    "name": "Miami Marketing Spot",
    "description": "Marketing Programs & Services",
    "phone": "(954) 419-8351",
    "address": "117 N 21st Ave  Hollywood, FL 33020",
    "location": "Glades"
  },
  {
    "name": "Opulent Marketing",
    "description": "Marketing Programs & Services",
    "phone": "(305) 527-9776",
    "address": "8531 SW 5th St  Pembroke Pines, FL 33025",
    "location": "Glades"
  },
  {
    "name": "SocialNitro",
    "description": "Marketing Programs & Services",
    "phone": "(954) 589-2580",
    "address": "1934 Hollywood Blvd Ste 204  Hollywood, FL 33020",
    "location": "Glades"
  },
  {
    "name": "The Bee Project Hive",
    "description": "Marketing Programs & Services",
    "phone": "(954) 620-7049",
    "address": "1926 Hollywood Blvd  Hollywood, FL 33020",
    "location": "Glades"
  },
  {
    "name": "Sys Marketing",
    "description": "Marketing Programs & Services",
    "phone": "(954) 505-3404",
    "address": "3424 Red Rd  Miramar, FL 33025",
    "location": "Glades"
  },
  {
    "name": "Alchemedia Marketing Inc",
    "description": "Marketing Programs & Services",
    "phone": "(954) 394-4123",
    "address": "7311 Grant Ct  Hollywood, FL 33024",
    "location": "Glades"
  },
  {
    "name": "Netcom Solutions",
    "description": "Marketing Programs & Services",
    "phone": "(954) 447-5300",
    "address": "9050 Pines Blvd Ste 385  Pembroke Pines, FL 33024",
    "location": "Glades"
  },
  {
    "name": "Lance Marketing",
    "description": "Marketing Programs & Services",
    "phone": "(954) 437-0700",
    "address": "9050 Pines Blvd  Pembroke Pines, FL 33024",
    "location": "Glades"
  },
  {
    "name": "Evalution Entertainment Marketing",
    "description": "Marketing Programs & Services",
    "phone": "(954) 966-7058",
    "address": "3340 Wilson St  Hollywood, FL 33021",
    "location": "Glades"
  },
  {
    "name": "J A C C Marketing Inc",
    "description": "Marketing Programs & Services",
    "phone": "(954) 399-8616",
    "address": "6521 Scott St  Hollywood, FL 33024",
    "location": "Glades"
  },
  {
    "name": "Hanover Marketing & Trade Corp",
    "description": "Marketing Programs & Services",
    "phone": "(954) 925-3596",
    "address": "943 Tyler St  Hollywood, FL 33019",
    "location": "Glades"
  },
  {
    "name": "Bossy & Chic Media, Inc.",
    "description": "Marketing Programs & Services",
    "phone": "(305) 336-9427",
    "address": "1530 SW 109th Ave Apt 204  Pembroke Pines, FL 33025",
    "location": "Glades"
  },
  {
    "name": "E Enterprise Solutions",
    "description": "Marketing Programs & Services",
    "phone": "(305) 731-7798",
    "address": "12034 SW 31st Ct  Miramar, FL 33025",
    "location": "Glades"
  },
  {
    "name": "Global Presence Marketing",
    "description": "Marketing Programs & Services",
    "phone": "(305) 501-4280",
    "address": "10031 Pines Blvd Ste 220  Pembroke Pines, FL 33024",
    "location": "Glades"
  },
  {
    "name": "eToorge",
    "description": "Marketing Programs & Services",
    "phone": "(954) 867-8569",
    "address": "3389 Sheridan St Unit 305  Hollywood, FL 33021",
    "location": "Glades"
  },
  {
    "name": "Cuv Marketing Inc",
    "description": "Marketing Programs & Services",
    "phone": "(954) 981-2524",
    "address": "2816 N 46th Ave  Hollywood, FL 33021",
    "location": "Glades"
  },
  {
    "name": "Residential Commercial",
    "description": "Marketing Programs & Services",
    "phone": "(954) 432-6119",
    "address": "1900 N University Dr Ste 210  Pembroke Pines, FL 33024",
    "location": "Glades"
  }
]
