[
  {
    "name": "P & H Marketing",
    "description": "Marketing Programs & Services",
    "phone": "(941) 923-5259",
    "address": "7411 Biltmore Dr  Sarasota, FL 34231",
    "location": "Gulf"
  },
  {
    "name": "Summer Golf Marketing",
    "description": "Marketing Programs & Services",
    "phone": "(941) 923-2232",
    "address": "7131 Curtiss Ave Ste 2  Sarasota, FL 34231",
    "location": "Gulf"
  },
  {
    "name": "Gateway Properties & Marketing",
    "description": "Marketing Programs & Services",
    "phone": "(941) 922-8072",
    "address": "6637 Superior Ave  Sarasota, FL 34231",
    "location": "Gulf"
  },
  {
    "name": "CRE8TEGY",
    "description": "Marketing Programs & Services",
    "phone": "(941) 330-4153",
    "address": "6720 S Tamiami Trl # 1005  Sarasota, FL 34231",
    "location": "Gulf"
  },
  {
    "name": "Goodinfo.com",
    "description": "Marketing Programs & Services",
    "phone": "(855) 508-4663",
    "address": "8586 Potter Park Dr  Sarasota, FL 34238",
    "location": "Gulf"
  },
  {
    "name": "Southeast Lending Group Inc",
    "description": "Marketing Programs & Services",
    "phone": "(941) 921-5634",
    "address": "1810 Shelburne Ln  Sarasota, FL 34231",
    "location": "Gulf"
  },
  {
    "name": "Josh Wade SEO",
    "description": "Marketing Programs & Services",
    "phone": "(919) 389-8290",
    "address": "2100 Constitution Blvd # 207  Sarasota, FL 34231",
    "location": "Gulf"
  },
  {
    "name": "WebXgroup",
    "description": "Marketing Programs & Services",
    "phone": "(941) 400-8468",
    "address": "4980 Cross Creek Rd  Sarasota, FL 34231",
    "location": "Gulf"
  },
  {
    "name": "Milestone Marketing",
    "description": "Marketing Programs & Services",
    "phone": "(941) 306-3602",
    "address": "3793 Countryside Rd  Sarasota, FL 34233",
    "location": "Gulf"
  },
  {
    "name": "Carrasco Marketing",
    "description": "Marketing Programs & Services",
    "phone": "(941) 726-6581",
    "address": "2339 Riverwood Pines Dr  Sarasota, FL 34231",
    "location": "Gulf"
  },
  {
    "name": "T B C Marketing",
    "description": "Marketing Programs & Services",
    "phone": "(941) 966-6283",
    "address": "3621 N Point Rd  Osprey, FL 34229",
    "location": "Gulf"
  },
  {
    "name": "CD Central",
    "description": "Marketing Programs & Services",
    "phone": "(941) 925-0800",
    "address": "3322 Bee Ridge Rd Ste 100  Sarasota, FL 34239",
    "location": "Gulf"
  },
  {
    "name": "High Road Marketing",
    "description": "Marketing Programs & Services",
    "phone": "(941) 953-4608",
    "address": "3800 S Tamiami Trl Unit 312  Sarasota, FL 34239",
    "location": "Gulf"
  },
  {
    "name": "Repatron",
    "description": "Marketing Programs & Services",
    "phone": "(941) 363-1014",
    "address": "4411 Bee Ridge Rd  Sarasota, FL 34233",
    "location": "Gulf"
  },
  {
    "name": "Menu's R Us",
    "description": "Marketing Programs & Services",
    "phone": "(800) 489-2605",
    "address": "3230 Southgate Cir Suite 140  Sarasota, FL 34239",
    "location": "Gulf"
  },
  {
    "name": "Island Marketing",
    "description": "Marketing Programs & Services",
    "phone": "(941) 346-1144",
    "address": "619 Tremont St  Sarasota, FL 34242",
    "location": "Gulf"
  },
  {
    "name": "Dealer Rewards",
    "description": "Marketing Programs & Services",
    "phone": "(302) 537-2194",
    "address": "2275 Vihia Vis  Sarasota, FL 34239",
    "location": "Gulf"
  },
  {
    "name": "Trace Marketing Inc",
    "description": "Marketing Programs & Services",
    "phone": "(941) 927-2202",
    "address": "3243 Espanola Dr  Sarasota, FL 34239",
    "location": "Gulf"
  },
  {
    "name": "Marketing Concepts & Designs",
    "description": "Marketing Programs & Services",
    "phone": "(941) 266-8783",
    "address": "4421 Spahn St  Sarasota, FL 34232",
    "location": "Gulf"
  },
  {
    "name": "New Lefe Digital Marketing",
    "description": "Marketing Programs & Services",
    "phone": "(941) 706-2249",
    "address": "3933 Breck Ln  Sarasota, FL 34232",
    "location": "Gulf"
  },
  {
    "name": "Socially 24/7",
    "description": "Marketing Programs & Services",
    "phone": "(941) 212-0100",
    "address": "1505 Bay View Dr  Sarasota, FL 34239",
    "location": "Gulf"
  },
  {
    "name": "Sir Speedy Signs, Print, Marketing",
    "description": "Printing Services-Commercial",
    "phone": "(941) 922-1563",
    "address": "3939 S Tamiami Trl  Sarasota, FL 34231",
    "location": "Gulf"
  },
  {
    "name": "Wayne Marketing",
    "description": "Advertising Agencies",
    "phone": "(941) 702-2126",
    "address": "1962 Main St  Sarasota, FL 34236",
    "location": "Gulf"
  },
  {
    "name": "Sideclick Marketing",
    "description": "Web Site Design & Services",
    "phone": "(941) 777-2495",
    "address": "1343 Main St  Sarasota, FL 34236",
    "location": "Gulf"
  },
  {
    "name": "Digisphere Marketing Inc",
    "description": "Internet Marketing & Advertising",
    "phone": "(941) 342-0025",
    "address": "7273 Bee Ridge Rd  Sarasota, FL 34241",
    "location": "Gulf"
  },
  {
    "name": "Allegra Marketing Print Mail",
    "description": "Direct Mail Advertising",
    "phone": "(941) 951-7599",
    "address": "1693 Main St  Sarasota, FL 34236",
    "location": "Gulf"
  },
  {
    "name": "Scott Moody Digital Marketing",
    "description": "Internet Marketing & Advertising",
    "phone": "(941) 444-5999",
    "address": "2525 Robinson Ave  Sarasota, FL 34232",
    "location": "Gulf"
  },
  {
    "name": "Frank Charmley Marketing and Photography",
    "description": "Marketing Consultants",
    "phone": "(941) 567-8263",
    "address": "6829 Jarvis Rd  Sarasota, FL 34241",
    "location": "Gulf"
  },
  {
    "name": "Karma Marketing + Media",
    "description": "Web Site Hosting",
    "phone": "(941) 500-4530",
    "address": "950 S Tamiami Trl Ste 208  Sarasota, FL 34236",
    "location": "Gulf"
  },
  {
    "name": "Nickell Marketing",
    "description": "Web Site Design & Services",
    "phone": "(941) 315-4237",
    "address": "1990 Main St Ste 743  Sarasota, FL 34236",
    "location": "Gulf"
  },
  {
    "name": "Expo Marketing",
    "description": "Marketing Programs & Services",
    "phone": "(941) 444-6464",
    "address": "1819 Main St  Sarasota, FL 34236",
    "location": "Gulf"
  },
  {
    "name": "Nextiny Marketing",
    "description": "Advertising Agencies",
    "phone": "(941) 870-0623",
    "address": "1819 Main St Ste 235  Sarasota, FL 34236",
    "location": "Gulf"
  },
  {
    "name": "Localyze Marketing",
    "description": "Advertising Agencies",
    "phone": "(941) 500-4045",
    "address": "1680 Fruitville Rd  Sarasota, FL 34236",
    "location": "Gulf"
  },
  {
    "name": "Creative SEO and Internet Marketing",
    "description": "Internet Marketing & Advertising",
    "phone": "(800) 322-1100",
    "address": "715 N. Washington Blvd. Suite E  Sarasota, FL 34236",
    "location": "Gulf"
  },
  {
    "name": "Florida Marketing Media Group Inc",
    "description": "Business Coaches & Consultants",
    "phone": "(941) 366-8084",
    "address": "3800 S Tamiami Trl  Sarasota, FL 34239",
    "location": "Gulf"
  },
  {
    "name": "Jesse Marketing Associates",
    "description": "Marketing Consultants",
    "phone": "(614) 792-0202",
    "address": "3137 Southgate Cir  Sarasota, FL 34239",
    "location": "Gulf"
  },
  {
    "name": "S P Marine Marketing Inc",
    "description": "Altering & Remodeling Contractors",
    "phone": "(941) 316-9591",
    "address": "2741 S Brink Ave  Sarasota, FL 34239",
    "location": "Gulf"
  },
  {
    "name": "Catalog Retail Marketing Inc",
    "description": "Telemarketing Services",
    "phone": "(941) 921-4467",
    "address": "5824 Bee Ridge Rd  Sarasota, FL 34233",
    "location": "Gulf"
  },
  {
    "name": "Johnson Marketing Group",
    "description": "Clothing Stores",
    "phone": "(941) 955-3200",
    "address": "1727 Hyde Park St  Sarasota, FL 34239",
    "location": "Gulf"
  },
  {
    "name": "Knight Marketing",
    "description": "Advertising Agencies",
    "phone": "(941) 361-3070",
    "address": "2032 Hawthorne St  Sarasota, FL 34239",
    "location": "Gulf"
  },
  {
    "name": "Jz Marketing Solutions",
    "description": "Marketing Consultants",
    "phone": "(941) 321-5744",
    "address": "741 Orange Ave  Sarasota, FL 34236",
    "location": "Gulf"
  },
  {
    "name": "Genesis Marketing",
    "description": "Direct Mail Advertising",
    "phone": "(941) 953-2400",
    "address": "727 S Orange Ave  Sarasota, FL 34236",
    "location": "Gulf"
  },
  {
    "name": "Cyber Marketing Services",
    "description": "Marketing Consultants",
    "phone": "(941) 702-8389",
    "address": "2831 Ringling Blvd Ste 209C  Sarasota, FL 34237",
    "location": "Gulf"
  },
  {
    "name": "Est of Global Tel Marketing",
    "description": "Marketing Programs & Services",
    "phone": "(941) 776-9912",
    "address": "4659 Oak Hollow Dr  Sarasota, FL 34241",
    "location": "Gulf"
  },
  {
    "name": "Odato Marketing Group, Inc.",
    "description": "Internet Marketing & Advertising",
    "phone": "(941) 954-0345",
    "address": "330 S Pineapple Ave Ste 203  Sarasota, FL 34236",
    "location": "Gulf"
  },
  {
    "name": "Bristol Marketing",
    "description": "Marketing Consultants",
    "phone": "(941) 365-1655",
    "address": "1701 Ringling Blvd  Sarasota, FL 34236",
    "location": "Gulf"
  }
]
