[
  {
    "name": "F5 Vortex",
    "description": "Marketing Programs & Services",
    "phone": "(386) 414-0278",
    "address": "3045 Turnbull Bay Rd  New Smyrna Beach, FL 32168",
    "location": "Hamilton"
  },
  {
    "name": "Vacation Tours USA",
    "description": "Marketing Programs & Services",
    "phone": "(386) 323-1644",
    "address": "424 Luna Bella Ln  New Smyrna Beach, FL 32168",
    "location": "Hamilton"
  },
  {
    "name": "Solutions-N-Print",
    "description": "Marketing Programs & Services",
    "phone": "(407) 247-0327",
    "address": "4650 Links Village Dr  Ponce Inlet, FL 32127",
    "location": "Hamilton"
  },
  {
    "name": "Smart Choice Marketing",
    "description": "Marketing Programs & Services",
    "phone": "(386) 265-1539",
    "address": "3959 S Nova Rd  Port Orange, FL 32127",
    "location": "Hamilton"
  },
  {
    "name": "Cheryl's Creative Services",
    "description": "Marketing Programs & Services",
    "phone": "(386) 233-9982",
    "address": "923 Chickadee Dr  Port Orange, FL 32127",
    "location": "Hamilton"
  },
  {
    "name": "Direct Marketing Lead Source",
    "description": "Marketing Programs & Services",
    "phone": "(386) 761-4840",
    "address": "750 Oak Heights Ct  Port Orange, FL 32127",
    "location": "Hamilton"
  },
  {
    "name": "Kickstand Johny Marketing and Engeering",
    "description": "Marketing Programs & Services",
    "phone": "(386) 767-6993",
    "address": "5476 Red Wing Cir  Port Orange, FL 32128",
    "location": "Hamilton"
  },
  {
    "name": "Jerico Marketing",
    "description": "Marketing Programs & Services",
    "phone": "(386) 761-5840",
    "address": "2763 S Ridgewood Ave  South Daytona, FL 32119",
    "location": "Hamilton"
  },
  {
    "name": "Always Open Commerce",
    "description": "Marketing Programs & Services",
    "phone": "(888) 535-5212",
    "address": "1979 Yellowfin Dr  Port Orange, FL 32128",
    "location": "Hamilton"
  },
  {
    "name": "Worldwide Marketing",
    "description": "Marketing Programs & Services",
    "phone": "(386) 760-7169",
    "address": "1014 Reed Canal Rd  Daytona Beach, FL 32119",
    "location": "Hamilton"
  },
  {
    "name": "Advanced Marketing & Consulting",
    "description": "Marketing Programs & Services",
    "phone": "(321) 205-7117",
    "address": "317 Stacy Grove Rd  Oak Hill, FL 32759",
    "location": "Hamilton"
  },
  {
    "name": "Daytona PoS (Point of Sales) Solutions",
    "description": "Marketing Programs & Services",
    "phone": "(386) 214-4334",
    "address": "460 Zelda Blvd  Daytona Beach, FL 32118",
    "location": "Hamilton"
  },
  {
    "name": "Coastal Marketing",
    "description": "Marketing Programs & Services",
    "phone": "(386) 238-9156",
    "address": "661 Beville Rd  South Daytona, FL 32119",
    "location": "Hamilton"
  },
  {
    "name": "DME Marketing",
    "description": "Marketing Programs & Services",
    "phone": "(386) 271-3000",
    "address": "2441 Bellevue Ave  Daytona Beach, FL 32114",
    "location": "Hamilton"
  },
  {
    "name": "Zgraph Design & Marketing",
    "description": "Marketing Programs & Services",
    "phone": "(386) 255-5556",
    "address": "125 Basin St Ste 203  Daytona Beach, FL 32114",
    "location": "Hamilton"
  },
  {
    "name": "Mastando Media & Marketing",
    "description": "Marketing Programs & Services",
    "phone": "(386) 846-4292",
    "address": "212 S Beach St  Daytona Beach, FL 32114",
    "location": "Hamilton"
  },
  {
    "name": "Bullseye Direct Marketing",
    "description": "Marketing Programs & Services",
    "phone": "(386) 238-4001",
    "address": "140 S Beach St  Daytona Beach, FL 32114",
    "location": "Hamilton"
  },
  {
    "name": "SML Marketing",
    "description": "Marketing Programs & Services",
    "phone": "(386) 265-4975",
    "address": "162 S Peninsula Dr  Daytona Beach, FL 32118",
    "location": "Hamilton"
  },
  {
    "name": "Ettsi",
    "description": "Marketing Programs & Services",
    "phone": "(386) 255-3393",
    "address": "301 Indigo Dr  Daytona Beach, FL 32114",
    "location": "Hamilton"
  },
  {
    "name": "Pevonia International",
    "description": "Marketing Programs & Services",
    "phone": "(386) 254-1967",
    "address": "280 Fentress Blvd  Daytona Beach, FL 32114",
    "location": "Hamilton"
  },
  {
    "name": "Ufo Marketing",
    "description": "Marketing Programs & Services",
    "phone": "(386) 255-6777",
    "address": "825 N Ridgewood Ave  Daytona Beach, FL 32114",
    "location": "Hamilton"
  },
  {
    "name": "Total Marketing Strategies",
    "description": "Marketing Programs & Services",
    "phone": "(386) 238-9406",
    "address": "501 N Grandview Ave  Daytona Beach, FL 32118",
    "location": "Hamilton"
  },
  {
    "name": "Allamosa Jungle",
    "description": "Marketing Programs & Services",
    "phone": "(386) 214-7019",
    "address": "125 Burleigh Ave  Daytona Beach, FL 32117",
    "location": "Hamilton"
  },
  {
    "name": "Artyst Tyrant - Affordable Premium Website Design and Graphic Design",
    "description": "Marketing Programs & Services",
    "phone": "(386) 366-0431",
    "address": "125 Powell Blvd Apt 12102  Daytona Beach, FL 32114",
    "location": "Hamilton"
  },
  {
    "name": "Midlantic Marketing Solutions",
    "description": "Marketing Programs & Services",
    "phone": "(386) 274-1227",
    "address": "750 Fentress Blvd  Daytona Beach, FL 32114",
    "location": "Hamilton"
  },
  {
    "name": "Mesio Public Relations",
    "description": "Marketing Programs & Services",
    "phone": "(386) 226-9963",
    "address": "Po Box 265791  Daytona Beach, FL 32126",
    "location": "Hamilton"
  },
  {
    "name": "Tourist Information & Welcome Center",
    "description": "Marketing Programs & Services",
    "phone": "(386) 257-5735",
    "address": "1260 N Atlantic Ave  Daytona Beach, FL 32118",
    "location": "Hamilton"
  },
  {
    "name": "Your Image Marketing",
    "description": "Marketing Programs & Services",
    "phone": "(386) 742-0424",
    "address": "2773 Thornberry Ct  Deltona, FL 32738",
    "location": "Hamilton"
  },
  {
    "name": "Jeg Global Solutions",
    "description": "Marketing Programs & Services",
    "phone": "(386) 259-4671",
    "address": "2495 E Tipton Dr  Deltona, FL 32738",
    "location": "Hamilton"
  },
  {
    "name": "Insight Lead Gen",
    "description": "Marketing Programs & Services",
    "phone": "(386) 603-6070",
    "address": "5300 S Atlantic Ave Apt 3207  New Smyrna Beach, FL 32169",
    "location": "Hamilton"
  },
  {
    "name": "Fins Up Digital Media",
    "description": "Marketing Programs & Services",
    "phone": "(386) 848-6921",
    "address": "2022 Umbrella Tree Dr  Edgewater, FL 32141",
    "location": "Hamilton"
  },
  {
    "name": "Helo Payment Service",
    "description": "Marketing Programs & Services",
    "phone": "(855) 699-1151",
    "address": "6274 Palm Vista st  Port Orange, FL 32128",
    "location": "Hamilton"
  },
  {
    "name": "Full Run",
    "description": "Marketing Programs & Services",
    "phone": "(386) 290-8087",
    "address": "6544 Shahab Ln  Port Orange, FL 32128",
    "location": "Hamilton"
  },
  {
    "name": "First Priority Travel",
    "description": "Marketing Programs & Services",
    "phone": "(800) 404-0177",
    "address": "209 Dunlawton Ave  Port Orange, FL 32127",
    "location": "Hamilton"
  },
  {
    "name": "Social Media Power Consulting",
    "description": "Marketing Programs & Services",
    "phone": "(386) 643-4414",
    "address": "126 Brandy Hills Dr  Port Orange, FL 32129",
    "location": "Hamilton"
  },
  {
    "name": "The Brichard Group",
    "description": "Marketing Programs & Services",
    "phone": "(253) 237-4774",
    "address": "1600 Big Tree Rd  South Daytona, FL 32119",
    "location": "Hamilton"
  },
  {
    "name": "CRAVE Marketing & Social Media Solutions - $99 Website*",
    "description": "Marketing Programs & Services",
    "phone": "(386) 746-7578",
    "address": "US Hwy 1  South Daytona, FL 32119",
    "location": "Hamilton"
  },
  {
    "name": "Missing Link Communications INC",
    "description": "Marketing Programs & Services",
    "phone": "(386) 297-6500",
    "address": "1840 S Palmetto Ave  South Daytona, FL 32119",
    "location": "Hamilton"
  },
  {
    "name": "Sunshine Multimedia Solutions",
    "description": "Marketing Programs & Services",
    "phone": "(386) 866-0070",
    "address": "1301 Beville Road Suite 7  Daytona Beach, FL 32119",
    "location": "Hamilton"
  },
  {
    "name": "King Direct Marketing",
    "description": "Marketing Programs & Services",
    "phone": "(386) 788-8925",
    "address": "1184 Pelican Bay Dr  Daytona Beach, FL 32119",
    "location": "Hamilton"
  },
  {
    "name": "Web Daytona",
    "description": "Marketing Programs & Services",
    "phone": "(386) 405-4281",
    "address": "115 S Palmetto Ave  Daytona Beach, FL 32114",
    "location": "Hamilton"
  },
  {
    "name": "Jr Thompson Company",
    "description": "Marketing Programs & Services",
    "phone": "(386) 255-0591",
    "address": "1801 W International Speedway Blvd  Daytona Beach, FL 32114",
    "location": "Hamilton"
  },
  {
    "name": "Benedict Advertising",
    "description": "Marketing Programs & Services",
    "phone": "(386) 255-1222",
    "address": "640 N Peninsula Dr  Daytona Beach, FL 32118",
    "location": "Hamilton"
  },
  {
    "name": "Johnson Marketing",
    "description": "Marketing Programs & Services",
    "phone": "(321) 209-5183",
    "address": "3095 Tioga Ter  Deltona, FL 32738",
    "location": "Hamilton"
  },
  {
    "name": "Volusia Contractor Directory",
    "description": "Marketing Programs & Services",
    "phone": "(386) 753-4647",
    "address": "2825 Derby Dr  Deltona, FL 32738",
    "location": "Hamilton"
  },
  {
    "name": "Nationwide Small Business Resources",
    "description": "Marketing Programs & Services",
    "phone": "(386) 516-3550",
    "address": "2048 Howland Blvd  Deltona, FL 32738",
    "location": "Hamilton"
  },
  {
    "name": "Mid-Florida Marketing & Research Inc",
    "description": "Marketing Programs & Services",
    "phone": "(386) 253-0809",
    "address": "2665 N Atlantic Ave # 410  Daytona Beach, FL 32118",
    "location": "Hamilton"
  },
  {
    "name": "Cruz.MCA",
    "description": "Marketing Programs & Services",
    "phone": "(386) 232-0158",
    "address": "2781 Lafoy ct  Deltona, FL 32738",
    "location": "Hamilton"
  },
  {
    "name": "Revenue Cycle Resources- RCR|HUB",
    "description": "Directory & Guide Advertising",
    "phone": "(407) 421-4940",
    "address": "538 Canal St  New Smyrna Beach, FL 32168",
    "location": "Hamilton"
  },
  {
    "name": "The Small Biz Shop",
    "description": "Internet Marketing & Advertising",
    "phone": "(888) 448-4461",
    "address": "538 Canal St Ste 325  New Smyrna Beach, FL 32168",
    "location": "Hamilton"
  },
  {
    "name": "Great Circle Marketing",
    "description": "Marketing Consultants",
    "phone": "(386) 428-1161",
    "address": "646 N Riverside Dr  New Smyrna Beach, FL 32168",
    "location": "Hamilton"
  },
  {
    "name": "Saltyfeet Media LLC",
    "description": "Marketing Consultants",
    "phone": "(386) 410-4761",
    "address": "307 Lytle Ave  New Smyrna Beach, FL 32168",
    "location": "Hamilton"
  },
  {
    "name": "Tropics Digital",
    "description": "Internet Marketing & Advertising",
    "phone": "(321) 222-7612",
    "address": "313 Desoto Dr  New Smyrna Beach, FL 32169",
    "location": "Hamilton"
  },
  {
    "name": "Shark Bite Marketing",
    "description": "Internet Marketing & Advertising",
    "phone": "(386) 424-6931",
    "address": "439 Bouchelle Dr Apt 202  New Smyrna Beach, FL 32169",
    "location": "Hamilton"
  },
  {
    "name": "New Way Marketing Inc",
    "description": "Marketing Consultants",
    "phone": "(386) 402-7882",
    "address": "612 N Ridgewood Ave Ste G  Edgewater, FL 32132",
    "location": "Hamilton"
  },
  {
    "name": "Car People Marketing Inc",
    "description": "Marketing Consultants",
    "phone": "(386) 761-3131",
    "address": "2650 N Dixie Fwy  New Smyrna Beach, FL 32168",
    "location": "Hamilton"
  },
  {
    "name": "Headline Surfer",
    "description": "Interactive Media",
    "phone": "(386) 689-2830",
    "address": "168 Turnberry Cir  New Smyrna Beach, FL 32168",
    "location": "Hamilton"
  },
  {
    "name": "Mac Marketing",
    "description": "Marketing Consultants",
    "phone": "(386) 423-2223",
    "address": "210 Parktowne Blvd Ste 1  Edgewater, FL 32132",
    "location": "Hamilton"
  },
  {
    "name": "Kirk Marketing & Consultation",
    "description": "Marketing Consultants",
    "phone": "(386) 957-3479",
    "address": "1945 W Park Ave  Edgewater, FL 32132",
    "location": "Hamilton"
  },
  {
    "name": "Greatoceancondos.com",
    "description": "Internet Marketing & Advertising",
    "phone": "(386) 478-7863",
    "address": "2801 Hill St  New Smyrna Beach, FL 32169",
    "location": "Hamilton"
  },
  {
    "name": "Vintagevolvorestoration.com",
    "description": "Internet Marketing & Advertising",
    "phone": "(386) 220-4033",
    "address": "1952 Guava Dr  Edgewater, FL 32141",
    "location": "Hamilton"
  },
  {
    "name": "Adword Consulting",
    "description": "Internet Products & Services",
    "phone": "(386) 689-9912",
    "address": "526 Coral Trace Blvd  Edgewater, FL 32132",
    "location": "Hamilton"
  },
  {
    "name": "Backwards Production",
    "description": "Internet Marketing & Advertising",
    "phone": "(386) 427-3467",
    "address": "3212 Royal Palm Dr  Edgewater, FL 32141",
    "location": "Hamilton"
  },
  {
    "name": "Callan Group Communications",
    "description": "Marketing Consultants",
    "phone": "(386) 538-1083",
    "address": "1745 Tributory Ln  Port Orange, FL 32128",
    "location": "Hamilton"
  },
  {
    "name": "Operation SLOB",
    "description": "Internet Consultants",
    "phone": "(386) 530-4052",
    "address": "725 Dunlawton Ave Unit 291874  Port Orange, FL 32129",
    "location": "Hamilton"
  },
  {
    "name": "Resorts Solutions of America",
    "description": "Internet Marketing & Advertising",
    "phone": "(386) 317-5969",
    "address": "5243 S Nova Rd  Port Orange, FL 32127",
    "location": "Hamilton"
  },
  {
    "name": "Customwovenblankets.com",
    "description": "Internet Marketing & Advertising",
    "phone": "(386) 320-6448",
    "address": "2610 Spruce Creek Blvd  Port Orange, FL 32128",
    "location": "Hamilton"
  },
  {
    "name": "My-Home-Watch.com",
    "description": "Internet Marketing & Advertising",
    "phone": "(386) 682-3883",
    "address": "100 Cessna Blvd  Port Orange, FL 32128",
    "location": "Hamilton"
  },
  {
    "name": "King Direct Marketing Inc",
    "description": "Marketing Consultants",
    "phone": "(386) 788-8925",
    "address": "1916 Bay Lake Way  Port Orange, FL 32128",
    "location": "Hamilton"
  },
  {
    "name": "Spectrum Research Group",
    "description": "Research Services",
    "phone": "(386) 957-5600",
    "address": "413 Oak Pl  Port Orange, FL 32127",
    "location": "Hamilton"
  },
  {
    "name": "Www.seanbreeden.com",
    "description": "Internet Marketing & Advertising",
    "phone": "(386) 589-5085",
    "address": "1010 N Swallow Tail Dr  Port Orange, FL 32129",
    "location": "Hamilton"
  },
  {
    "name": "My Advertising Pays",
    "description": "Internet Marketing & Advertising",
    "phone": "(386) 523-6650",
    "address": "3721 S Atlantic Ave  Daytona Beach, FL 32118",
    "location": "Hamilton"
  },
  {
    "name": "American Image Marketing",
    "description": "Advertising-Promotional Products",
    "phone": "(386) 492-5945",
    "address": "705 Samms Ave  Port Orange, FL 32129",
    "location": "Hamilton"
  },
  {
    "name": "mikemarket",
    "description": "Internet Marketing & Advertising",
    "phone": "(386) 383-4115",
    "address": "63 Golden gate cir  Port Orange, FL 32129",
    "location": "Hamilton"
  },
  {
    "name": "Sml Marketing",
    "description": "Marketing Consultants",
    "phone": "(386) 265-4975",
    "address": "3306 S Atlantic Ave  Daytona Beach, FL 32118",
    "location": "Hamilton"
  },
  {
    "name": "Andrew Stoeckel Marketing",
    "description": "Marketing Consultants",
    "phone": "(386) 898-6478",
    "address": "737 Little Creek Ct  Port Orange, FL 32129",
    "location": "Hamilton"
  },
  {
    "name": "Align Concepts LLC",
    "description": "Internet Marketing & Advertising",
    "phone": "(386) 334-7185",
    "address": "5327 Peach Blossom Blvd  Port Orange, FL 32128",
    "location": "Hamilton"
  },
  {
    "name": "Rev Up Digital Media A Division of Ricky Bobby Usa",
    "description": "Marketing Consultants",
    "phone": "(317) 590-6767",
    "address": "2041 Halifax Dr  Port Orange, FL 32128",
    "location": "Hamilton"
  },
  {
    "name": "SEODesignLab",
    "description": "Web Site Design & Services",
    "phone": "(929) 503-5224",
    "address": "2324 Oriole Ln  South Daytona, FL 32119",
    "location": "Hamilton"
  },
  {
    "name": "Khan's T.S Consultation Services Inc",
    "description": "Marketing Consultants",
    "phone": "(386) 307-5968",
    "address": "2725 Dach Ave  Daytona Beach, FL 32118",
    "location": "Hamilton"
  },
  {
    "name": "Maxton Marketing",
    "description": "Marketing Consultants",
    "phone": "(386) 761-9439",
    "address": "1960 S Segrave St  South Daytona, FL 32119",
    "location": "Hamilton"
  },
  {
    "name": "Telcom Enterprises Inc",
    "description": "Marketing Consultants",
    "phone": "(386) 492-6970",
    "address": "677 Beville Rd  South Daytona, FL 32119",
    "location": "Hamilton"
  },
  {
    "name": "Vector Marketing",
    "description": "Marketing Consultants",
    "phone": "(386) 868-5150",
    "address": "1124 Beville Rd Ste E  Daytona Beach, FL 32114",
    "location": "Hamilton"
  },
  {
    "name": "Lott's Productions",
    "description": "Internet Marketing & Advertising",
    "phone": "(386) 255-8282",
    "address": "1413 Golfview Dr  Daytona Beach, FL 32114",
    "location": "Hamilton"
  },
  {
    "name": "54 Bells., Inc.",
    "description": "Internet Marketing & Advertising",
    "phone": "(800) 385-7404",
    "address": "852 S Palmetto Ave  Daytona Beach, FL 32114",
    "location": "Hamilton"
  },
  {
    "name": "Direct Mail Express, Inc",
    "description": "Mail & Shipping Services",
    "phone": "(386) 257-2500",
    "address": "2441 Bellevue Ave  Daytona Beach, FL 32114",
    "location": "Hamilton"
  },
  {
    "name": "GS Business Resources",
    "description": "Marketing Consultants",
    "phone": "(901) 647-6163",
    "address": "450 Basin St  Daytona Beach, FL 32114",
    "location": "Hamilton"
  },
  {
    "name": "Associated Marketing",
    "description": "Marketing Consultants",
    "phone": "(386) 323-3838",
    "address": "211 Live Oak Ave  Daytona Beach, FL 32114",
    "location": "Hamilton"
  },
  {
    "name": "Backstage Pass Magazine",
    "description": "Publishers-Periodical",
    "phone": "(386) 323-7777",
    "address": "110 Orange Ave  Daytona Beach, FL 32114",
    "location": "Hamilton"
  },
  {
    "name": "Click Geeks",
    "description": "Advertising Agencies",
    "phone": "(800) 988-7579",
    "address": "250 S Beach St Ste 20A  Daytona Beach, FL 32114",
    "location": "Hamilton"
  },
  {
    "name": "Experts Digital Solutions, LLC",
    "description": "Print Advertising",
    "phone": "(386) 868-3365",
    "address": "140 S Beach St Ste 200  Daytona Beach, FL 32114",
    "location": "Hamilton"
  },
  {
    "name": "Getyouranked.com",
    "description": "Internet Marketing & Advertising",
    "phone": "(386) 259-8715",
    "address": "140 S Beach St  Daytona Beach, FL 32114",
    "location": "Hamilton"
  },
  {
    "name": "Awesome Sauce Media, Corp.",
    "description": "Marketing Consultants",
    "phone": "(386) 868-5588",
    "address": "140 S Beach St Ste 310  Daytona Beach, FL 32114",
    "location": "Hamilton"
  },
  {
    "name": "Markentum",
    "description": "Marketing Consultants",
    "phone": "(386) 868-5513",
    "address": "2570 W International Speedway Blvd Ste 110  Daytona Beach, FL 32114",
    "location": "Hamilton"
  },
  {
    "name": "Mad Macs Custom",
    "description": "Graphic Designers",
    "phone": "(386) 202-4185",
    "address": "636 Lenox Ave  Daytona Beach, FL 32118",
    "location": "Hamilton"
  },
  {
    "name": "Skip'sboots.com",
    "description": "Internet Marketing & Advertising",
    "phone": "(386) 255-0455",
    "address": "1320 W International Speedway Blvd  Daytona Beach, FL 32114",
    "location": "Hamilton"
  },
  {
    "name": "Cunningham Field & Research",
    "description": "Market Research & Analysis",
    "phone": "(386) 226-1461",
    "address": "1700 W International Speedway Blvd  Daytona Beach, FL 32114",
    "location": "Hamilton"
  },
  {
    "name": "Smartguests.com",
    "description": "Internet Marketing & Advertising",
    "phone": "(888) 800-7779",
    "address": "2250 W International Speedway Blvd  Daytona Beach, FL 32114",
    "location": "Hamilton"
  },
  {
    "name": "Sullivan Worldwide Marketing Group",
    "description": "Marketing Consultants",
    "phone": "(386) 248-0999",
    "address": "139 Executive Cir  Daytona Beach, FL 32114",
    "location": "Hamilton"
  },
  {
    "name": "Moog Marketing",
    "description": "Marketing Consultants",
    "phone": "(407) 324-3313",
    "address": "1515 Saddle Run Dr  Osteen, FL 32764",
    "location": "Hamilton"
  },
  {
    "name": "Link Avengers",
    "description": "Internet Marketing & Advertising",
    "phone": "(386) 453-1473",
    "address": "30 S Peninsula Dr Apt 1  Daytona Beach, FL 32118",
    "location": "Hamilton"
  },
  {
    "name": "e-Quality Web Solutions",
    "description": "Web Site Hosting",
    "phone": "(386) 295-5213",
    "address": "225 Anita Ave  Daytona Beach, FL 32114",
    "location": "Hamilton"
  },
  {
    "name": "Bold Task",
    "description": "Web Site Design & Services",
    "phone": "(386) 316-8125",
    "address": "601 Bill France Blvd Apt 1304  Daytona Beach, FL 32114",
    "location": "Hamilton"
  },
  {
    "name": "Brochure Displays, Inc.",
    "description": "Advertising Agencies",
    "phone": "(386) 271-5500",
    "address": "1808 Concept Ct  Daytona Beach, FL 32114",
    "location": "Hamilton"
  },
  {
    "name": "Revdup",
    "description": "Marketing Consultants",
    "phone": "(386) 310-7669",
    "address": "556 N Oleander Ave  Daytona Beach, FL 32118",
    "location": "Hamilton"
  },
  {
    "name": "Mydaytonadeals.Com",
    "description": "Internet Marketing & Advertising",
    "phone": "(386) 256-4875",
    "address": "240 Seabreeze Blvd  Daytona Beach, FL 32118",
    "location": "Hamilton"
  },
  {
    "name": "Flagler Media",
    "description": "Web Site Hosting",
    "phone": "(386) 227-6477",
    "address": "728 Fentress Blvd  Daytona Beach, FL 32114",
    "location": "Hamilton"
  },
  {
    "name": "R.T.P Marketing - Rock The Pavement Marketing",
    "description": "Internet Marketing & Advertising",
    "phone": "(386) 400-3986",
    "address": "3072 Courtland Blvd  Deltona, FL 32738",
    "location": "Hamilton"
  },
  {
    "name": "Nostressbuyersforyourhouse.com",
    "description": "Internet Marketing & Advertising",
    "phone": "(386) 855-8740",
    "address": "3150 Tiburon Ln  Deltona, FL 32738",
    "location": "Hamilton"
  },
  {
    "name": "Growrestaurantprofits.com",
    "description": "Internet Marketing & Advertising",
    "phone": "(615) 619-0099",
    "address": "410 Auburn Dr  Daytona Beach, FL 32118",
    "location": "Hamilton"
  },
  {
    "name": "Myvenuenow.com",
    "description": "Internet Marketing & Advertising",
    "phone": "(772) 201-4885",
    "address": "2711 N Halifax Ave  Daytona Beach, FL 32118",
    "location": "Hamilton"
  }
]
