[
  {
    "name": "Monolith Marketing",
    "description": "Marketing Programs & Services",
    "phone": "(941) 350-5835",
    "address": "1232 Zacchini Ave  Sarasota, FL 34237",
    "location": "Hardee"
  },
  {
    "name": "Vector Marketing",
    "description": "Marketing Programs & Services",
    "phone": "(941) 358-4929",
    "address": "1939 Northgate Blvd  Sarasota, FL 34234",
    "location": "Hardee"
  },
  {
    "name": "Ilandguide Worldwide Inc",
    "description": "Marketing Programs & Services",
    "phone": "(718) 445-7131",
    "address": "677 N Washington Blvd  Sarasota, FL 34236",
    "location": "Hardee"
  },
  {
    "name": "Book Week Partners",
    "description": "Marketing Programs & Services",
    "phone": "(800) 950-2371",
    "address": "677 N Washington Blvd # 31  Sarasota, FL 34236",
    "location": "Hardee"
  },
  {
    "name": "Johnson Marketing Group",
    "description": "Marketing Programs & Services",
    "phone": "(941) 955-3200",
    "address": "1785 6th St  Sarasota, FL 34236",
    "location": "Hardee"
  },
  {
    "name": "Sherpa Media",
    "description": "Marketing Programs & Services",
    "phone": "(941) 444-1699",
    "address": "2203 Industrial Blvd  Sarasota, FL 34234",
    "location": "Hardee"
  },
  {
    "name": "Intercon Marketing Inc Contoure",
    "description": "Marketing Programs & Services",
    "phone": "(941) 355-4488",
    "address": "1540 Northgate Blvd  Sarasota, FL 34234",
    "location": "Hardee"
  },
  {
    "name": "Tweed Marketing, Inc.",
    "description": "Marketing Programs & Services",
    "phone": "(941) 525-0552",
    "address": "1226 N Tamiami Trl  Sarasota, FL 34236",
    "location": "Hardee"
  },
  {
    "name": "Magnum Marketing PC",
    "description": "Marketing Programs & Services",
    "phone": "(941) 388-7359",
    "address": "1900 Main St  Sarasota, FL 34236",
    "location": "Hardee"
  },
  {
    "name": "Expo Marketing",
    "description": "Marketing Programs & Services",
    "phone": "(941) 444-6464",
    "address": "1819 Main St  Sarasota, FL 34236",
    "location": "Hardee"
  },
  {
    "name": "Tu Marketing Digital",
    "description": "Marketing Programs & Services",
    "phone": "(727) 564-0631",
    "address": "3167 8th St  Sarasota, FL 34237",
    "location": "Hardee"
  },
  {
    "name": "PRO Team Networking",
    "description": "Marketing Programs & Services",
    "phone": "(727) 277-2055",
    "address": "2803 Fruitville Rd  Sarasota, FL 34237",
    "location": "Hardee"
  },
  {
    "name": "C R A Marketing Inc",
    "description": "Marketing Programs & Services",
    "phone": "(941) 955-5585",
    "address": "1401 2nd St  Sarasota, FL 34236",
    "location": "Hardee"
  },
  {
    "name": "Barbara Peat consulting",
    "description": "Marketing Programs & Services",
    "phone": "(941) 524-9023",
    "address": "3448 Tallywood Circle  Sarasota, FL 34243",
    "location": "Hardee"
  },
  {
    "name": "True Wellness Marketing",
    "description": "Marketing Programs & Services",
    "phone": "(877) 664-4654",
    "address": "1816 57th St Ste A301  Sarasota, FL 34243",
    "location": "Hardee"
  },
  {
    "name": "Milligan, Thomas",
    "description": "Marketing Programs & Services",
    "phone": "(941) 359-0328",
    "address": "1126 Four Seasons Cir Apt 209  Sarasota, FL 34234",
    "location": "Hardee"
  },
  {
    "name": "Michel Sport Marketing Inc",
    "description": "Marketing Programs & Services",
    "phone": "(941) 954-3782",
    "address": "201 Bird Key Dr  Sarasota, FL 34236",
    "location": "Hardee"
  },
  {
    "name": "Dealer Rewards",
    "description": "Marketing Programs & Services",
    "phone": "(302) 537-2194",
    "address": "2275 Vihia Vis  Sarasota, FL 34239",
    "location": "Hardee"
  },
  {
    "name": "International Aviation Marketing Inc",
    "description": "Marketing Programs & Services",
    "phone": "(941) 355-5353",
    "address": "8191 N Tamiami Trl Ste 220  Sarasota, FL 34243",
    "location": "Hardee"
  },
  {
    "name": "Socially 24/7",
    "description": "Marketing Programs & Services",
    "phone": "(941) 212-0100",
    "address": "1505 Bay View Dr  Sarasota, FL 34239",
    "location": "Hardee"
  },
  {
    "name": "Trace Marketing Inc",
    "description": "Marketing Programs & Services",
    "phone": "(941) 927-2202",
    "address": "3243 Espanola Dr  Sarasota, FL 34239",
    "location": "Hardee"
  }
]
