[
  {
    "name": "M B Marketing & Manufacturing Co",
    "description": "Marketing Programs & Services",
    "phone": "(321) 631-7688",
    "address": "322 Clearlake Rd  Cocoa, FL 32922",
    "location": "Hendry"
  },
  {
    "name": "Oso Marketing",
    "description": "Marketing Programs & Services",
    "phone": "(847) 922-3994",
    "address": "600 Florida Ave  Cocoa, FL 32923",
    "location": "Hendry"
  },
  {
    "name": "Roswell US",
    "description": "Marketing Programs & Services",
    "phone": "(321) 639-0893",
    "address": "3370 Grissom Pkwy  Cocoa, FL 32926",
    "location": "Hendry"
  },
  {
    "name": "Microwave Component Marketing Inc",
    "description": "Marketing Programs & Services",
    "phone": "(321) 452-0358",
    "address": "750 Venetian Way  Merritt Island, FL 32953",
    "location": "Hendry"
  },
  {
    "name": "Lead Machine",
    "description": "Marketing Programs & Services",
    "phone": "(321) 373-3536",
    "address": "234 E Merritt Island Cswy  Merritt Island, FL 32952",
    "location": "Hendry"
  },
  {
    "name": "Jones & Trevor Marketing",
    "description": "Marketing Programs & Services",
    "phone": "(321) 986-8501",
    "address": "4774 Navaho Trl  Merritt Island, FL 32953",
    "location": "Hendry"
  },
  {
    "name": "Buzz Local",
    "description": "Marketing Programs & Services",
    "phone": "(850) 819-4736",
    "address": "6411 Cable Ave  Cocoa, FL 32927",
    "location": "Hendry"
  },
  {
    "name": "Impact Platforms",
    "description": "Marketing Programs & Services",
    "phone": "(833) 438-4672",
    "address": "1980 N Atlantic Ave  Cocoa Beach, FL 32931",
    "location": "Hendry"
  },
  {
    "name": "GYB Marketing Inc",
    "description": "Marketing Programs & Services",
    "phone": "(321) 392-3132",
    "address": "8501 Astronaut Blvd Ste 5  Cape Canaveral, FL 32920",
    "location": "Hendry"
  },
  {
    "name": "Florida SEO",
    "description": "Marketing Programs & Services",
    "phone": "(321) 613-2524",
    "address": "201 International Dr  Cape Canaveral, FL 32920",
    "location": "Hendry"
  },
  {
    "name": "Westgate Marketing",
    "description": "Marketing Programs & Services",
    "phone": "(407) 351-3351",
    "address": "401 Meade Ave  Cocoa Beach, FL 32931",
    "location": "Hendry"
  },
  {
    "name": "Zephyr Studio",
    "description": "Marketing Programs & Services",
    "phone": "(321) 848-6909",
    "address": "6208 Erik Ct  Melbourne, FL 32940",
    "location": "Hendry"
  },
  {
    "name": "Totall Recall I Nc",
    "description": "Marketing Programs & Services",
    "phone": "(321) 613-2115",
    "address": "395 Harbor Dr  Cape Canaveral, FL 32920",
    "location": "Hendry"
  },
  {
    "name": "SCB Marketing",
    "description": "Marketing Programs & Services",
    "phone": "(321) 622-5986",
    "address": "335 Pineda Ct  Melbourne, FL 32940",
    "location": "Hendry"
  },
  {
    "name": "First Wave Marketing",
    "description": "Marketing Programs & Services",
    "phone": "(321) 806-8799",
    "address": "3912 Orchard Dr  Melbourne, FL 32940",
    "location": "Hendry"
  },
  {
    "name": "Davenport Marketing",
    "description": "Marketing Programs & Services",
    "phone": "(321) 405-2585",
    "address": "3540 Heartwood Ln  Melbourne, FL 32934",
    "location": "Hendry"
  },
  {
    "name": "Southbound Sales & Marketing",
    "description": "Marketing Programs & Services",
    "phone": "(321) 777-3533",
    "address": "537 Hawksbill Island Dr  Satellite Beach, FL 32937",
    "location": "Hendry"
  },
  {
    "name": "Circle E Marketing",
    "description": "Marketing Programs & Services",
    "phone": "(321) 267-4824",
    "address": "2352 Armour Ct  Titusville, FL 32780",
    "location": "Hendry"
  },
  {
    "name": "PAIN BE GONE",
    "description": "Marketing Programs & Services",
    "phone": "(321) 403-8225",
    "address": "1107 Linda Ave  Titusville, FL 32780",
    "location": "Hendry"
  },
  {
    "name": "Brandt Ronat & Company",
    "description": "Marketing Programs & Services",
    "phone": "(321) 453-3101",
    "address": "60 McLeod St  Merritt Island, FL 32953",
    "location": "Hendry"
  },
  {
    "name": "Mds Vacation Marketing",
    "description": "Marketing Programs & Services",
    "phone": "(321) 305-6969",
    "address": "273 Crockett Blvd  Merritt Island, FL 32953",
    "location": "Hendry"
  },
  {
    "name": "Video Display Corporation",
    "description": "Marketing Programs & Services",
    "phone": "(321) 784-4427",
    "address": "5155 King St  Cocoa, FL 32926",
    "location": "Hendry"
  },
  {
    "name": "Crowder and Company, LLC",
    "description": "Marketing Programs & Services",
    "phone": "(321) 216-3112",
    "address": "8501 Astronaut Blvd  Cape Canaveral, FL 32920",
    "location": "Hendry"
  },
  {
    "name": "SPACE COAST COUPONS Inc.",
    "description": "Marketing Programs & Services",
    "phone": "(321) 268-7667",
    "address": "8501 Astronaut Blvd  Cape Canaveral, FL 32920",
    "location": "Hendry"
  },
  {
    "name": "Space Coast City Guide",
    "description": "Marketing Programs & Services",
    "phone": "(321) 544-3440",
    "address": "8934 Puerto Del Rio Dr Unit 204  Cape Canaveral, FL 32920",
    "location": "Hendry"
  },
  {
    "name": "Jeanos LLC",
    "description": "Marketing Programs & Services",
    "phone": "(321) 205-4334",
    "address": "2023 N Atlantic Ave # 27  Cocoa Beach, FL 32931",
    "location": "Hendry"
  },
  {
    "name": "SPACE COAST SMS Inc. TEXT MESSAGE MARKETING",
    "description": "Marketing Programs & Services",
    "phone": "(321) 438-7325",
    "address": "8501 Astronaut Blvd  Cape Canaveral, FL 32920",
    "location": "Hendry"
  },
  {
    "name": "P and W Services",
    "description": "Marketing Programs & Services",
    "phone": "(321) 220-8265",
    "address": "2078 Lionel Dr  Melbourne, FL 32940",
    "location": "Hendry"
  },
  {
    "name": "Mahalo Marketing",
    "description": "Marketing Programs & Services",
    "phone": "(321) 305-3636",
    "address": "607 Manatee Dr  Satellite Beach, FL 32937",
    "location": "Hendry"
  },
  {
    "name": "Dunham Accounting & Business Solutions, Inc.",
    "description": "Marketing Programs & Services",
    "phone": "(321) 622-5094",
    "address": "1127 S Patrick Dr  Satellite Beach, FL 32937",
    "location": "Hendry"
  },
  {
    "name": "765 Media LLC",
    "description": "Print Advertising",
    "phone": "(321) 735-9842",
    "address": "252 Brevard Ave  Cocoa, FL 32922",
    "location": "Hendry"
  },
  {
    "name": "Digi Donkey Web Design",
    "description": "Internet Marketing & Advertising",
    "phone": "(321) 433-0801",
    "address": "315 Brevard Ave  Cocoa, FL 32922",
    "location": "Hendry"
  },
  {
    "name": "Ferrell James G And Associates",
    "description": "Marketing Consultants",
    "phone": "(321) 632-4374",
    "address": "120 Harrison St  Cocoa, FL 32922",
    "location": "Hendry"
  },
  {
    "name": "TYPE AB CREATIVE",
    "description": "Graphic Designers",
    "phone": "(321) 266-9222",
    "address": "633 Brevard Ave Ste B  Cocoa, FL 32922",
    "location": "Hendry"
  },
  {
    "name": "Hmbaccounting.com",
    "description": "Internet Marketing & Advertising",
    "phone": "(321) 433-1191",
    "address": "976 Brevard Ave  Rockledge, FL 32955",
    "location": "Hendry"
  },
  {
    "name": "Gabrielli Marketing",
    "description": "Internet Marketing & Advertising",
    "phone": "(321) 996-0027",
    "address": "881 Barton Blvd  Rockledge, FL 32955",
    "location": "Hendry"
  },
  {
    "name": "Florida Digital Media",
    "description": "Web Site Design & Services",
    "phone": "(321) 757-2788",
    "address": "222 Teal Drive  Cocoa, FL 32926",
    "location": "Hendry"
  },
  {
    "name": "Matchmaker Business Brokers",
    "description": "Directory & Guide Advertising",
    "phone": "(321) 452-3462",
    "address": "435 Woodland St  Merritt Island, FL 32953",
    "location": "Hendry"
  },
  {
    "name": "My Island Designs",
    "description": "Internet Consultants",
    "phone": "(321) 301-4797",
    "address": "517 N Courtenay Pkwy  Merritt Island, FL 32953",
    "location": "Hendry"
  },
  {
    "name": "Shawk Technology Inc.",
    "description": "Internet Marketing & Advertising",
    "phone": "(321) 506-9345",
    "address": "330 Alabama Ave  Merritt Island, FL 32953",
    "location": "Hendry"
  },
  {
    "name": "Adfactor, Inc.",
    "description": "Internet Marketing & Advertising",
    "phone": "(877) 328-7552",
    "address": "1129 N Courtenay Pkwy  Merritt Island, FL 32953",
    "location": "Hendry"
  },
  {
    "name": "Portable LED.com",
    "description": "Internet Marketing & Advertising",
    "phone": "(321) 631-6150",
    "address": "1740 Huntington Ln  Rockledge, FL 32955",
    "location": "Hendry"
  },
  {
    "name": "WebBaze",
    "description": "Web Site Design & Services",
    "phone": "(321) 298-2533",
    "address": "000 Murrell Rd  Rockledge, FL 32955",
    "location": "Hendry"
  },
  {
    "name": "Mtrb Inc",
    "description": "Marketing Consultants",
    "phone": "(321) 453-6068",
    "address": "327 Magnolia Ave  Merritt Island, FL 32952",
    "location": "Hendry"
  },
  {
    "name": "PIP Marketing, Signs, Print",
    "description": "Printing Services",
    "phone": "(321) 452-2800",
    "address": "275 Magnolia Ave Ste 2  Merritt Island, FL 32952",
    "location": "Hendry"
  },
  {
    "name": "The Timeless CEO",
    "description": "Directory & Guide Advertising",
    "phone": "(321) 408-7612",
    "address": "1175 N Courtenay Pkwy Ste 4A  Merritt Island, FL 32953",
    "location": "Hendry"
  },
  {
    "name": "Moetto Mobile Marketing",
    "description": "Coupon Advertising",
    "phone": "(321) 345-6630",
    "address": "915 N Courtenay Pkwy  Merritt Island, FL 32953",
    "location": "Hendry"
  },
  {
    "name": "Just Face It Media",
    "description": "Marketing Consultants",
    "phone": "(321) 474-7409",
    "address": "137 S Courtenay Pkwy # 604  Merritt Island, FL 32952",
    "location": "Hendry"
  },
  {
    "name": "JDot Media",
    "description": "Aerial Photographers",
    "phone": "(813) 618-3908",
    "address": "937 Yorktowne Dr  Rockledge, FL 32955",
    "location": "Hendry"
  },
  {
    "name": "Dragonfly Web Solutions LLC",
    "description": "Business & Trade Organizations",
    "phone": "(321) 505-9212",
    "address": "PO Box 560894  Rockledge, FL 32956",
    "location": "Hendry"
  },
  {
    "name": "Dentist Finder US",
    "description": "Internet Marketing & Advertising",
    "phone": "(321) 305-4588",
    "address": "819 Topaz Dr  Rockledge, FL 32955",
    "location": "Hendry"
  },
  {
    "name": "Onsite123.com",
    "description": "Internet Marketing & Advertising",
    "phone": "(321) 392-0697",
    "address": "2552 Meadow Ln  Cocoa, FL 32926",
    "location": "Hendry"
  },
  {
    "name": "Allegra Design Print Mail",
    "description": "Printing Services",
    "phone": "(321) 632-7272",
    "address": "2040 Murrell Rd  Rockledge, FL 32955",
    "location": "Hendry"
  },
  {
    "name": "Adverleads",
    "description": "Internet Marketing & Advertising",
    "phone": "(321) 693-0963",
    "address": "2944 Matthew Dr  Rockledge, FL 32955",
    "location": "Hendry"
  },
  {
    "name": "AutoUpLinkUSA Of Florida",
    "description": "Internet Marketing & Advertising",
    "phone": "(800) 443-2139",
    "address": "1720 bridgeport cir  Rockledge, FL 32955",
    "location": "Hendry"
  },
  {
    "name": "Cmfmc Inc",
    "description": "Marketing Consultants",
    "phone": "(321) 454-6814",
    "address": "3765 Sierra Dr  Merritt Island, FL 32953",
    "location": "Hendry"
  },
  {
    "name": "Acquatic Plant Technolgy",
    "description": "Market Research & Analysis",
    "phone": "(321) 638-4300",
    "address": "365 Gus Hipp Blvd  Rockledge, FL 32955",
    "location": "Hendry"
  },
  {
    "name": "Azurea Inc",
    "description": "Market Research & Analysis",
    "phone": "(321) 631-0610",
    "address": "365 Gus Hipp Blvd  Rockledge, FL 32955",
    "location": "Hendry"
  },
  {
    "name": "Db Environmental Inc",
    "description": "Market Research & Analysis",
    "phone": "(321) 639-4896",
    "address": "365 Gus Hipp Blvd  Rockledge, FL 32955",
    "location": "Hendry"
  },
  {
    "name": "Madhouse Media Company",
    "description": "Internet Marketing & Advertising",
    "phone": "(561) 339-9654",
    "address": "1892 Sun Gazer Dr  Rockledge, FL 32955",
    "location": "Hendry"
  },
  {
    "name": "Brevard Graphics",
    "description": "Internet Marketing & Advertising",
    "phone": "(321) 368-2744",
    "address": "524 Glenbrook Cir  Rockledge, FL 32955",
    "location": "Hendry"
  },
  {
    "name": "ShopinPal, Inc.",
    "description": "Internet Marketing & Advertising",
    "phone": "(321) 617-5696",
    "address": "328 Brookcrest Cir  Rockledge, FL 32955",
    "location": "Hendry"
  },
  {
    "name": "Nuance",
    "description": "Marketing Consultants",
    "phone": "(321) 349-2562",
    "address": "1960 Porpoise St  Merritt Island, FL 32952",
    "location": "Hendry"
  },
  {
    "name": "Viera Networks",
    "description": "Internet Consultants",
    "phone": "(321) 622-3309",
    "address": "3810 Murrell Rd Suite 201  Rockledge, FL 32955",
    "location": "Hendry"
  },
  {
    "name": "Space Coast Sales",
    "description": "Internet Marketing & Advertising",
    "phone": "(321) 453-7627",
    "address": "1635 Yates Dr  Merritt Island, FL 32952",
    "location": "Hendry"
  },
  {
    "name": "Senior-Linx",
    "description": "Consultants Referral Service",
    "phone": "(321) 474-8289",
    "address": "PO Box 540704  Merritt Island, FL 32954",
    "location": "Hendry"
  },
  {
    "name": "V Enterprises",
    "description": "Direct Marketing Services",
    "phone": "(321) 632-6642",
    "address": "6380 Aberfoyle Ave  Cocoa, FL 32927",
    "location": "Hendry"
  },
  {
    "name": "Qwiklight Digital Marketing Agency",
    "description": "Marketing Consultants",
    "phone": "(321) 505-3649",
    "address": "7065 Kaylor Ave  Cocoa, FL 32927",
    "location": "Hendry"
  },
  {
    "name": "TipTopWebsite.com",
    "description": "Internet Marketing & Advertising",
    "phone": "(800) 753-5129",
    "address": "2023 N Atlantic Ave  Cocoa Beach, FL 32931",
    "location": "Hendry"
  },
  {
    "name": "Jet Press",
    "description": "Printing Services",
    "phone": "(321) 783-5555",
    "address": "250 N Atlantic Ave  Cocoa Beach, FL 32931",
    "location": "Hendry"
  },
  {
    "name": "LocaliQ",
    "description": "Advertising Agencies",
    "phone": "(877) 525-6084",
    "address": "1005 Viera Blvd Unit 101  Viera, FL 32955",
    "location": "Hendry"
  },
  {
    "name": "Brevard Insurance & Marketing, Inc.",
    "description": "Insurance",
    "phone": "(321) 783-2404",
    "address": "PO Box 320770  Cocoa Beach, FL 32932",
    "location": "Hendry"
  },
  {
    "name": "Cocoa Beach Marketing Inc",
    "description": "Marketing Consultants",
    "phone": "(321) 784-3223",
    "address": "3670 N Atlantic Ave  Cocoa Beach, FL 32931",
    "location": "Hendry"
  },
  {
    "name": "Cocoa Beach Marketing",
    "description": "Marketing Consultants",
    "phone": "(321) 784-0946",
    "address": "4151 N Atlantic Ave  Cocoa Beach, FL 32931",
    "location": "Hendry"
  },
  {
    "name": "Premier Marketing Group",
    "description": "Marketing Consultants",
    "phone": "(321) 868-4858",
    "address": "1485 N Atlantic Ave Ste 201  Cocoa Beach, FL 32931",
    "location": "Hendry"
  },
  {
    "name": "QMtel Communications",
    "description": "Computer Software & Services",
    "phone": "(321) 323-1436",
    "address": "1980 N Atlantic Ave #121  Cocoa Beach, FL 32931",
    "location": "Hendry"
  },
  {
    "name": "Justsmallbiz Marketing",
    "description": "Marketing Consultants",
    "phone": "(321) 613-8476",
    "address": "830 N Atlantic Ave  Cocoa Beach, FL 32931",
    "location": "Hendry"
  },
  {
    "name": "9 Mile Media",
    "description": "Internet Marketing & Advertising",
    "phone": "(321) 613-4805",
    "address": "103 Cleveland Ave  Cocoa Beach, FL 32931",
    "location": "Hendry"
  },
  {
    "name": "Cocoa Beach Mar Keting In",
    "description": "Marketing Consultants",
    "phone": "(321) 784-3223",
    "address": "7099 N Atlantic Ave  Cape Canaveral, FL 32920",
    "location": "Hendry"
  },
  {
    "name": "Digimarcon",
    "description": "Marketing Consultants",
    "phone": "(800) 805-5385",
    "address": "9050 Discovery Rd  Cape Canaveral, FL 32920",
    "location": "Hendry"
  },
  {
    "name": "Digital Blades Marketing",
    "description": "Internet Marketing & Advertising",
    "phone": "(321) 613-8451",
    "address": "428 S Orlando Avenue Unit C  Cocoa Beach, FL 32931",
    "location": "Hendry"
  },
  {
    "name": "Drumup Media Group",
    "description": "Internet Marketing & Advertising",
    "phone": "(321) 505-4583",
    "address": "1048 Carriage Hill Road  Melbourne, FL 32940",
    "location": "Hendry"
  },
  {
    "name": "Yellow Page Directory Service Inc",
    "description": "Directory & Guide Advertising",
    "phone": "(321) 254-6012",
    "address": "640 Classic Ct  Melbourne, FL 32940",
    "location": "Hendry"
  },
  {
    "name": "Certified Internet Solutions",
    "description": "Internet Consultants",
    "phone": "(321) 412-6658",
    "address": "530 Wickham Lakes Dr  Melbourne, FL 32940",
    "location": "Hendry"
  },
  {
    "name": "All Media Graphics",
    "description": "Editorial & Publication Services",
    "phone": "(321) 698-1550",
    "address": "7777 N Wickham Rd Ste 12-124  Melbourne, FL 32940",
    "location": "Hendry"
  },
  {
    "name": "SearhCred Inc.",
    "description": "Internet Marketing & Advertising",
    "phone": "(855) 736-2723",
    "address": "7777 N Wickham Rd  Melbourne, FL 32940",
    "location": "Hendry"
  },
  {
    "name": "Mad Hatter Promotions",
    "description": "Internet Marketing & Advertising",
    "phone": "(321) 543-1346",
    "address": "340 Myrtlewood Rd  Melbourne, FL 32940",
    "location": "Hendry"
  },
  {
    "name": "M.I.T. Mobile Integrated Technologies",
    "description": "Marketing Consultants",
    "phone": "(321) 412-6667",
    "address": "201 Plantation Club Dr Apt 105  Melbourne, FL 32940",
    "location": "Hendry"
  },
  {
    "name": "Cycn Management & Marketing Inc",
    "description": "Marketing Consultants",
    "phone": "(321) 757-4017",
    "address": "3270 Suntree Blvd Ste 1101  Melbourne, FL 32940",
    "location": "Hendry"
  },
  {
    "name": "Brevard Marketing",
    "description": "Marketing Consultants",
    "phone": "(321) 837-9850",
    "address": "7025 N Wickham Rd Ste 111  Melbourne, FL 32940",
    "location": "Hendry"
  },
  {
    "name": "Invision Multimedia",
    "description": "Internet Marketing & Advertising",
    "phone": "(321) 253-1000",
    "address": "6300 N Wickham Rd  Melbourne, FL 32940",
    "location": "Hendry"
  },
  {
    "name": "P1studios.Com",
    "description": "Marketing Consultants",
    "phone": "(954) 510-6216",
    "address": "1203 Vestavia Cir  Melbourne, FL 32940",
    "location": "Hendry"
  },
  {
    "name": "Space Coast Business Media",
    "description": "Marketing Consultants",
    "phone": "(321) 622-5986",
    "address": "5131 Industry Dr Ste 107  Melbourne, FL 32940",
    "location": "Hendry"
  },
  {
    "name": "DeSantis Digital Works LLC",
    "description": "Internet Marketing & Advertising",
    "phone": "(321) 626-4724",
    "address": "2725 Center Pl  Melbourne, FL 32940",
    "location": "Hendry"
  },
  {
    "name": "Laura Sasaninejad",
    "description": "Marketing Consultants",
    "phone": "(540) 915-2874",
    "address": "5305 Wendy Lee Dr  Titusville, FL 32780",
    "location": "Hendry"
  },
  {
    "name": "Reuben Marketing Services",
    "description": "Internet Marketing & Advertising",
    "phone": "(321) 593-0346",
    "address": "4990 Sharlene Dr  Titusville, FL 32780",
    "location": "Hendry"
  },
  {
    "name": "The Print Alien",
    "description": "Internet Marketing & Advertising",
    "phone": "(321) 837-9569",
    "address": "224 Cheney Hwy  Titusville, FL 32780",
    "location": "Hendry"
  },
  {
    "name": "Front Page Solution",
    "description": "Internet Marketing & Advertising",
    "phone": "(321) 505-7932",
    "address": "4100 N Wickham Rd Ste 107A-198  Melbourne, FL 32935",
    "location": "Hendry"
  },
  {
    "name": "Big B Marketing",
    "description": "Internet Marketing & Advertising",
    "phone": "(321) 775-3995",
    "address": "455 Atlantis Dr  Satellite Beach, FL 32937",
    "location": "Hendry"
  },
  {
    "name": "Ward & Comp",
    "description": "Marketing Consultants",
    "phone": "(321) 289-1490",
    "address": "2323 S Washington Ave Ste 102  Titusville, FL 32780",
    "location": "Hendry"
  },
  {
    "name": "Mtn Advertising",
    "description": "Advertising Agencies",
    "phone": "(321) 779-1010",
    "address": "1355 S Patrick Dr  Satellite Beach, FL 32937",
    "location": "Hendry"
  }
]
