[
  {
    "name": "Miatacorral.com",
    "description": "Internet Marketing & Advertising",
    "phone": "(352) 201-7014",
    "address": "8463 N Carl G Rose Hwy  Hernando, FL 34442",
    "location": "Hernando"
  },
  {
    "name": "The Lam Group",
    "description": "Marketing Consultants",
    "phone": "(352) 560-0000",
    "address": "2875 E Timberwood Ct  Hernando, FL 34442",
    "location": "Hernando"
  },
  {
    "name": "Bnn Marketing",
    "description": "Marketing Consultants",
    "phone": "(352) 249-7287",
    "address": "1556 N Mccovey Pt  Hernando, FL 34442",
    "location": "Hernando"
  },
  {
    "name": "Douglife Marketing Agency",
    "description": "Web Site Design & Services",
    "phone": "(352) 419-1880",
    "address": "308 S Osceola Ave  Inverness, FL 34452",
    "location": "Hernando"
  },
  {
    "name": "Citrus Marketing & Design",
    "description": "Internet Marketing & Advertising",
    "phone": "(352) 212-7409",
    "address": "PO Box 1481  Inverness, FL 34451",
    "location": "Hernando"
  },
  {
    "name": "The French Designs Factory",
    "description": "Internet Marketing & Advertising",
    "phone": "(407) 844-9758",
    "address": "5702 N Claremont Dr  Citrus Springs, FL 34434",
    "location": "Hernando"
  },
  {
    "name": "Morgantowns.com",
    "description": "Internet Marketing & Advertising",
    "phone": "(304) 594-3700",
    "address": "2286 N Brentwood Cir  Lecanto, FL 34461",
    "location": "Hernando"
  },
  {
    "name": "ARA Marketing",
    "description": "Marketing Consultants",
    "phone": "(352) 419-8375",
    "address": "3822 E Gulf To Lake Hwy  Inverness, FL 34453",
    "location": "Hernando"
  },
  {
    "name": "Legendary Marketing",
    "description": "Marketing Programs & Services",
    "phone": "(352) 527-3553",
    "address": "3729 S Lecanto Hwy  Lecanto, FL 34461",
    "location": "Hernando"
  },
  {
    "name": "Focusup Digital Marketing",
    "description": "Marketing Programs & Services",
    "phone": "(352) 605-6035",
    "address": "7768 N Sarazen Dr  Citrus Springs, FL 34434",
    "location": "Hernando"
  },
  {
    "name": "Champs Software Inc",
    "description": "Marketing Programs & Services",
    "phone": "(352) 795-2362",
    "address": "1255 N Vantage Point Dr  Crystal River, FL 34429",
    "location": "Hernando"
  },
  {
    "name": "Practice42",
    "description": "Internet Marketing & Advertising",
    "phone": "(850) 933-5072",
    "address": "6752 W Gulf To Lake Hwy Ste 328  Crystal River, FL 34429",
    "location": "Hernando"
  },
  {
    "name": "Adversion Yaratıcı Reklam Ajansı",
    "description": "Advertising Agencies",
    "phone": "(212) 931-0863",
    "address": "Katipmustadaçelebi Mh Anadolu Sk 2/2  Istanbul, AL 34433",
    "location": "Hernando"
  },
  {
    "name": "Local SEO City Pages",
    "description": "Internet Marketing & Advertising",
    "phone": "(407) 906-6951",
    "address": "1033 Lowell Ter.  Inverness, FL 34452",
    "location": "Hernando"
  },
  {
    "name": "Gospel-Family.net",
    "description": "Internet Marketing & Advertising",
    "phone": "(386) 208-4967",
    "address": "797 S Rowe Ter  Lecanto, FL 34461",
    "location": "Hernando"
  },
  {
    "name": "Atlantic.net",
    "description": "Internet Marketing & Advertising",
    "phone": "(562) 903-9550",
    "address": "4250 W Malaluka Cir  Citrus Springs, FL 34433",
    "location": "Hernando"
  },
  {
    "name": "Steeds Solutions - SEO & Digital Marketing Agency",
    "description": "Marketing Programs & Services",
    "phone": "(352) 362-7582",
    "address": "8040 E Partridge Ln  Floral City, FL 34436",
    "location": "Hernando"
  },
  {
    "name": "PMI Pros",
    "description": "Marketing Programs & Services",
    "phone": "(352) 795-5089",
    "address": "1104 SE 2nd St  Crystal River, FL 34429",
    "location": "Hernando"
  },
  {
    "name": "Smg Inc",
    "description": "Marketing Programs & Services",
    "phone": "(352) 563-1793",
    "address": "6844 N Citrus Ave  Crystal River, FL 34428",
    "location": "Hernando"
  },
  {
    "name": "Loyalty Social Marketing",
    "description": "Marketing Programs & Services",
    "phone": "(407) 334-6334",
    "address": "10444 SW 62nd Ct  Ocala, FL 34476",
    "location": "Hernando"
  },
  {
    "name": "Quest4 Market Strategies LLC",
    "description": "Marketing Programs & Services",
    "phone": "(208) 447-9780",
    "address": "1800 SE 160th St  Summerfield, FL 34491",
    "location": "Hernando"
  },
  {
    "name": "Sales Prophet",
    "description": "Marketing Programs & Services",
    "phone": "(352) 758-4217",
    "address": "14 Ryewood Cir  Homosassa, FL 34446",
    "location": "Hernando"
  },
  {
    "name": "Planet Worldwide Productions",
    "description": "Marketing Programs & Services",
    "phone": "(352) 547-0004",
    "address": "11068 SW 109th St  Dunnellon, FL 34432",
    "location": "Hernando"
  },
  {
    "name": "Productiveideas.com",
    "description": "Internet Marketing & Advertising",
    "phone": "(352) 257-0896",
    "address": "249 NE 4th St  Crystal River, FL 34429",
    "location": "Hernando"
  },
  {
    "name": "Charles Mint Studios LLC",
    "description": "Interactive Media",
    "phone": "(888) 398-3503",
    "address": "725 NE 12th St  Crystal River, FL 34428",
    "location": "Hernando"
  },
  {
    "name": "Rebecasplace",
    "description": "Internet Marketing & Advertising",
    "phone": "(352) 322-0904",
    "address": "8857 SW 200th Cir  Dunnellon, FL 34431",
    "location": "Hernando"
  },
  {
    "name": "PostingDiva, Inc.",
    "description": "Internet Marketing & Advertising",
    "phone": "(352) 792-5412",
    "address": "13405 SW 100th St  Dunnellon, FL 34432",
    "location": "Hernando"
  },
  {
    "name": "Instant World Marketing Inc",
    "description": "Internet Directories",
    "phone": "(786) 566-9650",
    "address": "987 N Suncoast Blvd Ste 414  Crystal River, FL 34429",
    "location": "Hernando"
  },
  {
    "name": "Chrisrath.com",
    "description": "Internet Marketing & Advertising",
    "phone": "(727) 851-3404",
    "address": "7519 W Autumn St  Homosassa, FL 34446",
    "location": "Hernando"
  },
  {
    "name": "HPSK Enterprises",
    "description": "Internet Marketing & Advertising",
    "phone": "(508) 523-5445",
    "address": "8022 W Grove St  Homosassa, FL 34446",
    "location": "Hernando"
  },
  {
    "name": "Virtualoffice2U.com",
    "description": "Internet Marketing & Advertising",
    "phone": "(985) 788-7452",
    "address": "8975 W Halls River Rd  Homosassa, FL 34448",
    "location": "Hernando"
  },
  {
    "name": "Takeexit925.com",
    "description": "Internet Marketing & Advertising",
    "phone": "(813) 750-7626",
    "address": "7789 S Suncoast Blvd  Homosassa, FL 34446",
    "location": "Hernando"
  },
  {
    "name": "David Trimble",
    "description": "Internet Marketing & Advertising",
    "phone": "(561) 665-7811",
    "address": "4286 S Purslane Dr  Homosassa, FL 34448",
    "location": "Hernando"
  },
  {
    "name": "Stifflers Property Services",
    "description": "Marketing Consultants",
    "phone": "(352) 364-2207",
    "address": "1288 S Candlenut Ave  Homosassa, FL 34448",
    "location": "Hernando"
  },
  {
    "name": "Vector Marketing",
    "description": "Marketing Consultants",
    "phone": "(352) 503-4930",
    "address": "4550 S Suncoast Blvd  Homosassa, FL 34446",
    "location": "Hernando"
  },
  {
    "name": "Merge Right Marketing",
    "description": "Marketing Consultants",
    "phone": "(352) 575-1102",
    "address": "11100 SW 93rd Court Rd  Ocala, FL 34481",
    "location": "Hernando"
  },
  {
    "name": "Savvy Lead Gen",
    "description": "Marketing Consultants",
    "phone": "(830) 429-4297",
    "address": "3868 SW 109th Ln  Ocala, FL 34476",
    "location": "Hernando"
  }
]
