[
  {
    "name": "Muse on Blast",
    "description": "Marketing Consultants",
    "phone": "(904) 768-9404",
    "address": "1000 Broward Rd  Jacksonville, FL 32218",
    "location": "Highlands"
  },
  {
    "name": "CTI Marketing",
    "description": "Marketing Programs & Services",
    "phone": "(904) 329-7240",
    "address": "2255 Dunn Ave  Jacksonville, FL 32218",
    "location": "Highlands"
  },
  {
    "name": "Showers Financial Services",
    "description": "Marketing Programs & Services",
    "phone": "(904) 330-4051",
    "address": "11365 Blossom Ridge Dr  Jacksonville, FL 32218",
    "location": "Highlands"
  },
  {
    "name": "Protech Armored Products",
    "description": "Marketing Programs & Services",
    "phone": "(904) 741-5400",
    "address": "13386 International Pkwy  Jacksonville, FL 32218",
    "location": "Highlands"
  },
  {
    "name": "Daily Billboard",
    "description": "Marketing Programs & Services",
    "phone": "(904) 281-0000",
    "address": "221 Osceola St  Jacksonville, FL 32204",
    "location": "Highlands"
  },
  {
    "name": "Fidnatis",
    "description": "Marketing Programs & Services",
    "phone": "(904) 741-4548",
    "address": "14601 Whirlwind Ave  Jacksonville, FL 32218",
    "location": "Highlands"
  },
  {
    "name": "The Dempsey Foundation for Life",
    "description": "Marketing Programs & Services",
    "phone": "(904) 418-9096",
    "address": "2500 N Laura St  Jacksonville, FL 32206",
    "location": "Highlands"
  },
  {
    "name": "Sun Media Group",
    "description": "Marketing Programs & Services",
    "phone": "(904) 595-7910",
    "address": "Po Box 3093  Jacksonville, FL 32206",
    "location": "Highlands"
  },
  {
    "name": "Cross Media Marketing",
    "description": "Marketing Programs & Services",
    "phone": "(904) 735-4789",
    "address": "1915 Silver St  Jacksonville, FL 32206",
    "location": "Highlands"
  },
  {
    "name": "Success.Strategies.Digital Marketing",
    "description": "Marketing Programs & Services",
    "phone": "(404) 798-5728",
    "address": "12270 Crossfield Drive  Jacksonville, FL 32219",
    "location": "Highlands"
  },
  {
    "name": "Point Taken Communications",
    "description": "Marketing Programs & Services",
    "phone": "(904) 419-9216",
    "address": "1616 N Market St  Jacksonville, FL 32206",
    "location": "Highlands"
  },
  {
    "name": "SD3 Marketing",
    "description": "Marketing Programs & Services",
    "phone": "(904) 437-6944",
    "address": "731 Duval Station Rd  Jacksonville, FL 32218",
    "location": "Highlands"
  },
  {
    "name": "C 2C Innovative Solutions Inc",
    "description": "Marketing Programs & Services",
    "phone": "(904) 354-0762",
    "address": "301 W Bay St  Jacksonville, FL 32202",
    "location": "Highlands"
  },
  {
    "name": "Vista Marketing Solutions",
    "description": "Marketing Programs & Services",
    "phone": "(904) 900-2244",
    "address": "301 W Bay St  Jacksonville, FL 32202",
    "location": "Highlands"
  },
  {
    "name": "Ingenuity Orthodontic Marketing",
    "description": "Marketing Programs & Services",
    "phone": "(904) 572-4462",
    "address": "220 E Forsyth St  Jacksonville, FL 32202",
    "location": "Highlands"
  },
  {
    "name": "Mad Men Marketing",
    "description": "Marketing Programs & Services",
    "phone": "(904) 355-1766",
    "address": "301 E Bay St  Jacksonville, FL 32202",
    "location": "Highlands"
  },
  {
    "name": "On Ideas Inc",
    "description": "Marketing Programs & Services",
    "phone": "(904) 354-2600",
    "address": "245 Riverside Ave  Jacksonville, FL 32202",
    "location": "Highlands"
  },
  {
    "name": "Triad Marketing Corp",
    "description": "Marketing Programs & Services",
    "phone": "(904) 354-7425",
    "address": "620 Chelsea St  Jacksonville, FL 32204",
    "location": "Highlands"
  },
  {
    "name": "Robin Shepherd Group Ths",
    "description": "Marketing Programs & Services",
    "phone": "(904) 359-0981",
    "address": "1301 Riverplace Blvd  Jacksonville, FL 32207",
    "location": "Highlands"
  },
  {
    "name": "Ascension Marketing Services",
    "description": "Marketing Programs & Services",
    "phone": "(855) 965-3109",
    "address": "1301 Riverplace Blvd  Jacksonville, FL 32207",
    "location": "Highlands"
  }
]
