[
  {
    "name": "Jms",
    "description": "Marketing Programs & Services",
    "phone": "(321) 914-0930",
    "address": "551 S Apollo Blvd Ste 204  Melbourne, FL 32901",
    "location": "Indian_River"
  },
  {
    "name": "Marketing Affiliates",
    "description": "Marketing Programs & Services",
    "phone": "(321) 622-5852",
    "address": "274 N Babcock St  Melbourne, FL 32935",
    "location": "Indian_River"
  },
  {
    "name": "Space Coast Marketing Inc",
    "description": "Marketing Programs & Services",
    "phone": "(321) 848-2353",
    "address": "100 Rialto Pl  Melbourne, FL 32901",
    "location": "Indian_River"
  },
  {
    "name": "Come Write This",
    "description": "Marketing Programs & Services",
    "phone": "(321) 802-3029",
    "address": "Po Box 23029  Melbourne, FL 32902",
    "location": "Indian_River"
  },
  {
    "name": "Push Design and Printing",
    "description": "Marketing Programs & Services",
    "phone": "(321) 591-1645",
    "address": "1101 W Hibiscus Blvd  Melbourne, FL 32901",
    "location": "Indian_River"
  },
  {
    "name": "E & K Marketing Group",
    "description": "Marketing Programs & Services",
    "phone": "(321) 984-8729",
    "address": "1103 W Hibiscus Blvd  Melbourne, FL 32901",
    "location": "Indian_River"
  },
  {
    "name": "Push Marketing",
    "description": "Marketing Programs & Services",
    "phone": "(321) 591-1645",
    "address": "21 E Melbourne Ave  Melbourne, FL 32901",
    "location": "Indian_River"
  },
  {
    "name": "LaunchLocal Marketing",
    "description": "Marketing Programs & Services",
    "phone": "(321) 517-4954",
    "address": "1900 S Harbor City Blvd Ste 302  Melbourne, FL 32901",
    "location": "Indian_River"
  },
  {
    "name": "Millennium Sourcing Group Inc",
    "description": "Marketing Programs & Services",
    "phone": "(321) 956-0408",
    "address": "1900 S Harbor City Blvd  Melbourne, FL 32901",
    "location": "Indian_River"
  },
  {
    "name": "Ewareness Inc",
    "description": "Marketing Programs & Services",
    "phone": "(321) 953-2435",
    "address": "1900 S Harbor City Blvd Ste 122  Melbourne, FL 32901",
    "location": "Indian_River"
  },
  {
    "name": "Brevard Apps",
    "description": "Marketing Programs & Services",
    "phone": "(321) 243-6200",
    "address": "51 NW Carolina St  Melbourne, FL 32904",
    "location": "Indian_River"
  },
  {
    "name": "GridTek Utility Services",
    "description": "Marketing Programs & Services",
    "phone": "(321) 724-1700",
    "address": "1688 W Hibiscus Blvd  Melbourne, FL 32901",
    "location": "Indian_River"
  },
  {
    "name": "Be Wise Marketing",
    "description": "Marketing Programs & Services",
    "phone": "(904) 514-7885",
    "address": "2703 Carlson Circle  Melbourne, FL 32901",
    "location": "Indian_River"
  },
  {
    "name": "BiznessOpt.com, Inc.",
    "description": "Marketing Programs & Services",
    "phone": "(321) 254-3824",
    "address": "2084 Lakeview Dr  Melbourne, FL 32935",
    "location": "Indian_River"
  },
  {
    "name": "Vision Marketing",
    "description": "Marketing Programs & Services",
    "phone": "(321) 725-4480",
    "address": "2108 W New Haven Ave  Melbourne, FL 32904",
    "location": "Indian_River"
  },
  {
    "name": "Karl's Daily Cash Blueprint",
    "description": "Marketing Programs & Services",
    "phone": "(321) 200-2701",
    "address": "2263 W New Haven Ave  Melbourne, FL 32904",
    "location": "Indian_River"
  },
  {
    "name": "Teksita Corporation",
    "description": "Marketing Programs & Services",
    "phone": "(321) 300-6656",
    "address": "870 N Miramar Ave Suite 206  Indialantic, FL 32903",
    "location": "Indian_River"
  },
  {
    "name": "Vox Monkey",
    "description": "Marketing Programs & Services",
    "phone": "(407) 963-8460",
    "address": "390 N Wickham Rd Ste G  Melbourne, FL 32935",
    "location": "Indian_River"
  },
  {
    "name": "DCWebDesign Studio",
    "description": "Marketing Programs & Services",
    "phone": "(321) 446-3183",
    "address": "1861 S Patrick Dr Ste 174  Indian Harbour Beach, FL 32937",
    "location": "Indian_River"
  },
  {
    "name": "International Marketing Service",
    "description": "Marketing Programs & Services",
    "phone": "(321) 723-4290",
    "address": "7715 Progress Cir  West Melbourne, FL 32904",
    "location": "Indian_River"
  },
  {
    "name": "Straight Shot",
    "description": "Marketing Programs & Services",
    "phone": "(321) 253-3412",
    "address": "715 North Dr Ste B  Melbourne, FL 32934",
    "location": "Indian_River"
  },
  {
    "name": "STP Marketing",
    "description": "Marketing Programs & Services",
    "phone": "(321) 296-8135",
    "address": "2915 Kemblewick Dr  Melbourne, FL 32935",
    "location": "Indian_River"
  },
  {
    "name": "Environmental Marketing Services",
    "description": "Marketing Programs & Services",
    "phone": "(204) 952-4709",
    "address": "109 Glenwood Ave  Satellite Beach, FL 32937",
    "location": "Indian_River"
  },
  {
    "name": "Ebove & Beyond",
    "description": "Marketing Programs & Services",
    "phone": "(954) 778-0047",
    "address": "245 Grant Ave  Satellite Beach, FL 32937",
    "location": "Indian_River"
  },
  {
    "name": "Jones & Trevor Marketing",
    "description": "Marketing Programs & Services",
    "phone": "(321) 449-9940",
    "address": "5240 Babcock St NE  Palm Bay, FL 32905",
    "location": "Indian_River"
  },
  {
    "name": "Enlightennent Media Inc",
    "description": "Marketing Programs & Services",
    "phone": "(321) 220-0528",
    "address": "3044 Highway A1a  Melbourne Beach, FL 32951",
    "location": "Indian_River"
  },
  {
    "name": "Southbound Sales & Marketing",
    "description": "Marketing Programs & Services",
    "phone": "(321) 777-3533",
    "address": "537 Hawksbill Island Dr  Satellite Beach, FL 32937",
    "location": "Indian_River"
  },
  {
    "name": "Davenport Marketing",
    "description": "Marketing Programs & Services",
    "phone": "(321) 405-2585",
    "address": "3540 Heartwood Ln  Melbourne, FL 32934",
    "location": "Indian_River"
  },
  {
    "name": "First Wave Marketing",
    "description": "Marketing Programs & Services",
    "phone": "(321) 806-8799",
    "address": "3912 Orchard Dr  Melbourne, FL 32940",
    "location": "Indian_River"
  },
  {
    "name": "SCB Marketing",
    "description": "Marketing Programs & Services",
    "phone": "(321) 622-5986",
    "address": "335 Pineda Ct  Melbourne, FL 32940",
    "location": "Indian_River"
  },
  {
    "name": "Zephyr Studio",
    "description": "Marketing Programs & Services",
    "phone": "(321) 848-6909",
    "address": "6208 Erik Ct  Melbourne, FL 32940",
    "location": "Indian_River"
  },
  {
    "name": "International Direct Marketing",
    "description": "Marketing Programs & Services",
    "phone": "(321) 209-4362",
    "address": "141 Normandy Pl  Melbourne Beach, FL 32951",
    "location": "Indian_River"
  },
  {
    "name": "James Garris Marketing",
    "description": "Marketing Programs & Services",
    "phone": "(321) 405-9851",
    "address": "3425 Bayside Lakes Blvd SE  Palm Bay, FL 32909",
    "location": "Indian_River"
  },
  {
    "name": "Cahill Sales Marketing",
    "description": "Marketing Programs & Services",
    "phone": "(321) 956-0068",
    "address": "143 Hidden Cove Dr  Melbourne Beach, FL 32951",
    "location": "Indian_River"
  },
  {
    "name": "Impact Platforms",
    "description": "Marketing Programs & Services",
    "phone": "(833) 438-4672",
    "address": "1980 N Atlantic Ave  Cocoa Beach, FL 32931",
    "location": "Indian_River"
  },
  {
    "name": "International Minute Press",
    "description": "Marketing Programs & Services",
    "phone": "(321) 242-7766",
    "address": "701 S Apollo Blvd  Melbourne, FL 32901",
    "location": "Indian_River"
  },
  {
    "name": "Accent Technologies Inc",
    "description": "Marketing Programs & Services",
    "phone": "(321) 242-7438",
    "address": "1411 Highland Ave  Melbourne, FL 32935",
    "location": "Indian_River"
  },
  {
    "name": "Valpak of Space Coast FL",
    "description": "Marketing Programs & Services",
    "phone": "(321) 622-8157",
    "address": "1600 Sarno Rd, #119H  Melbourne, FL 32935",
    "location": "Indian_River"
  },
  {
    "name": "Coastal Medical Associates",
    "description": "Marketing Programs & Services",
    "phone": "(321) 821-4444",
    "address": "151 SW Shannon Ave  Melbourne, FL 32904",
    "location": "Indian_River"
  },
  {
    "name": "Promotional Plus Inc.",
    "description": "Marketing Programs & Services",
    "phone": "(321) 327-5694",
    "address": "Po Box 120604  Melbourne, FL 32912",
    "location": "Indian_River"
  },
  {
    "name": "B2K12 Branding Solutions",
    "description": "Marketing Programs & Services",
    "phone": "(321) 200-0427",
    "address": "2165 Avocado Ave  Melbourne, FL 32935",
    "location": "Indian_River"
  },
  {
    "name": "Elite Marketing Pro",
    "description": "Marketing Programs & Services",
    "phone": "(877) 401-3422",
    "address": "274 E Eau Gallie Blvd Ste 375  Indian Harbour Beach, FL 32937",
    "location": "Indian_River"
  },
  {
    "name": "Moana Creative Marketing",
    "description": "Marketing Programs & Services",
    "phone": "(321) 622-0181",
    "address": "1010 Pinetree Dr Apt 205  Indian Harbour Beach, FL 32937",
    "location": "Indian_River"
  },
  {
    "name": "Wolfpack Advising",
    "description": "Marketing Programs & Services",
    "phone": "(321) 209-0953",
    "address": "205 West Dr  Melbourne, FL 32904",
    "location": "Indian_River"
  },
  {
    "name": "Black Tie Digital Marketing",
    "description": "Marketing Programs & Services",
    "phone": "(800) 316-8030",
    "address": "3692 N Wickham Rd Ste A  Melbourne, FL 32935",
    "location": "Indian_River"
  },
  {
    "name": "Dunham Accounting & Business Solutions, Inc.",
    "description": "Marketing Programs & Services",
    "phone": "(321) 622-5094",
    "address": "1127 S Patrick Dr  Satellite Beach, FL 32937",
    "location": "Indian_River"
  },
  {
    "name": "The Paramount Group.us",
    "description": "Marketing Programs & Services",
    "phone": "(321) 238-8225",
    "address": "1110 Highway A1A  Satellite Beach, FL 32937",
    "location": "Indian_River"
  },
  {
    "name": "Mahalo Marketing",
    "description": "Marketing Programs & Services",
    "phone": "(321) 305-3636",
    "address": "607 Manatee Dr  Satellite Beach, FL 32937",
    "location": "Indian_River"
  },
  {
    "name": "P and W Services",
    "description": "Marketing Programs & Services",
    "phone": "(321) 220-8265",
    "address": "2078 Lionel Dr  Melbourne, FL 32940",
    "location": "Indian_River"
  },
  {
    "name": "Jeanos LLC",
    "description": "Marketing Programs & Services",
    "phone": "(321) 205-4334",
    "address": "2023 N Atlantic Ave # 27  Cocoa Beach, FL 32931",
    "location": "Indian_River"
  },
  {
    "name": "Jail Bail Bonds Melbourne",
    "description": "Marketing Consultants",
    "phone": "(321) 307-2165",
    "address": "592 Dr Martin Luther King Jr Blvd  Melbourne, FL 32901",
    "location": "Indian_River"
  },
  {
    "name": "Ebay Enterprise",
    "description": "Marketing Consultants",
    "phone": "(321) 724-8597",
    "address": "915 S Babcock St  Melbourne, FL 32901",
    "location": "Indian_River"
  },
  {
    "name": "YP Marketing Solutions",
    "description": "Directory & Guide Advertising",
    "phone": "(321) 956-5400",
    "address": "100 Rialto Pl Ste 1010  Melbourne, FL 32901",
    "location": "Indian_River"
  },
  {
    "name": "SEO Experts Inc",
    "description": "Internet Marketing & Advertising",
    "phone": "(321) 613-1316",
    "address": "100 Rialto Pl Ste 711  Melbourne, FL 32901",
    "location": "Indian_River"
  },
  {
    "name": "Launchworks Marketing",
    "description": "Internet Marketing & Advertising",
    "phone": "(321) 988-4769",
    "address": "100 Rialto Pl Ste 700  Melbourne, FL 32901",
    "location": "Indian_River"
  },
  {
    "name": "Leaf the Ad",
    "description": "Marketing Consultants",
    "phone": "(321) 600-4132",
    "address": "508 N Harbor City Blvd  Melbourne, FL 32935",
    "location": "Indian_River"
  },
  {
    "name": "W.W Marketing",
    "description": "Marketing Consultants",
    "phone": "(321) 216-5021",
    "address": "650 Strawberry Ln  Melbourne, FL 32901",
    "location": "Indian_River"
  },
  {
    "name": "Marketing World Specialties",
    "description": "Advertising-Promotional Products",
    "phone": "(321) 952-7220",
    "address": "129 W Hibiscus Blvd  Melbourne, FL 32901",
    "location": "Indian_River"
  },
  {
    "name": "Gmrs",
    "description": "Market Research & Analysis",
    "phone": "(321) 674-0729",
    "address": "728 Palmetto Ave  Melbourne, FL 32901",
    "location": "Indian_River"
  },
  {
    "name": "KCC Socal Strategist LLC",
    "description": "Marketing Consultants",
    "phone": "(314) 371-5032",
    "address": "2007 Oak St  Melbourne, FL 32901",
    "location": "Indian_River"
  },
  {
    "name": "Revved UP Marketing",
    "description": "Internet Marketing & Advertising",
    "phone": "(321) 508-5224",
    "address": "212 W New Haven Ave  Melbourne, FL 32901",
    "location": "Indian_River"
  },
  {
    "name": "Fueled on Bacon",
    "description": "Cellular Telephone Service",
    "phone": "(321) 426-0555",
    "address": "1103 W Hibiscus Blvd Ste 408  Melbourne, FL 32901",
    "location": "Indian_River"
  },
  {
    "name": "SEOAmerica Inc.",
    "description": "Internet Consultants",
    "phone": "(321) 676-8714",
    "address": "907 E Strawbridge Ave  Melbourne, FL 32901",
    "location": "Indian_River"
  },
  {
    "name": "Coastal Directory Co",
    "description": "Directory & Guide Advertising",
    "phone": "(321) 308-0624",
    "address": "1900 S Harbor City Blvd  Melbourne, FL 32901",
    "location": "Indian_River"
  },
  {
    "name": "CK Communications",
    "description": "Public Relations Counselors",
    "phone": "(321) 752-5802",
    "address": "457 Montreal Ave  Melbourne, FL 32935",
    "location": "Indian_River"
  },
  {
    "name": "Watertop Unlimited",
    "description": "Public Relations Counselors",
    "phone": "(321) 674-9260",
    "address": "203 E Melbourne Ave  Melbourne, FL 32901",
    "location": "Indian_River"
  },
  {
    "name": "Bulletinboards.com",
    "description": "Internet Marketing & Advertising",
    "phone": "(321) 984-9080",
    "address": "2015 Grant Pl  Melbourne, FL 32901",
    "location": "Indian_River"
  },
  {
    "name": "Sun Marketing Group",
    "description": "Marketing Consultants",
    "phone": "(321) 253-5035",
    "address": "626 Montreal Ave  Melbourne, FL 32935",
    "location": "Indian_River"
  },
  {
    "name": "GYB Marketing Inc.",
    "description": "Coupon Advertising",
    "phone": "(321) 392-3132",
    "address": "1900 S Harbor City Blvd  Melbourne, FL 32901",
    "location": "Indian_River"
  },
  {
    "name": "BeachHappenings.com",
    "description": "Coupon Advertising",
    "phone": "(321) 574-8400",
    "address": "1900 S Harbor City Blvd Ste 231  Melbourne, FL 32901",
    "location": "Indian_River"
  },
  {
    "name": "GO To Market Solutions",
    "description": "Internet Marketing & Advertising",
    "phone": "(321) 821-2345",
    "address": "523 New Haven Ave  Melbourne, FL 32901",
    "location": "Indian_River"
  },
  {
    "name": "Brightbiz Bookkeeping LLC",
    "description": "Bookkeeping",
    "phone": "(321) 917-2430",
    "address": "Po Box 361281  Melbourne, FL 32936",
    "location": "Indian_River"
  },
  {
    "name": "McEnerneygrouprsvp.com",
    "description": "Internet Marketing & Advertising",
    "phone": "(800) 452-6319",
    "address": "2250 Front St  Melbourne, FL 32901",
    "location": "Indian_River"
  },
  {
    "name": "SKDesign Agency Web Design",
    "description": "Web Site Design & Services",
    "phone": "(321) 676-8714",
    "address": "51 NW Carolina St  Melbourne, FL 32904",
    "location": "Indian_River"
  },
  {
    "name": "Mandala Arts LLC",
    "description": "Internet Marketing & Advertising",
    "phone": "(321) 626-3561",
    "address": "1600 Sarno Rd Ste 117  Melbourne, FL 32935",
    "location": "Indian_River"
  },
  {
    "name": "McBride Marketing Group",
    "description": "Advertising Agencies",
    "phone": "(321) 259-1795",
    "address": "668 Law St  Melbourne, FL 32935",
    "location": "Indian_River"
  },
  {
    "name": "McBride Woodbridge Marketing",
    "description": "Advertising Agencies",
    "phone": "(321) 259-1795",
    "address": "668 Law St  Melbourne, FL 32935",
    "location": "Indian_River"
  },
  {
    "name": "Rock Paper Simple",
    "description": "Web Site Design & Services",
    "phone": "(321) 626-2172",
    "address": "1335 Gateway Dr Suite 2007  Melbourne, FL 32901",
    "location": "Indian_River"
  },
  {
    "name": "Camberlion",
    "description": "Marketing Consultants",
    "phone": "(321) 549-8065",
    "address": "2412 Irwin St  Melbourne, FL 32901",
    "location": "Indian_River"
  },
  {
    "name": "SMA Marketing",
    "description": "Marketing Consultants",
    "phone": "(321) 413-3311",
    "address": "2412 Irwin St  Melbourne, FL 32901",
    "location": "Indian_River"
  },
  {
    "name": "H5-Tech Solutions",
    "description": "Internet Marketing & Advertising",
    "phone": "(321) 421-7191",
    "address": "1600 W Eau Gallie Blvd  Melbourne, FL 32935",
    "location": "Indian_River"
  },
  {
    "name": "Abornewords",
    "description": "Internet Marketing & Advertising",
    "phone": "(321) 265-1461",
    "address": "1040 Masterson St  Melbourne, FL 32935",
    "location": "Indian_River"
  },
  {
    "name": "Global Marketing Research Services",
    "description": "Market Research & Analysis",
    "phone": "(321) 723-7013",
    "address": "1507 Aurora Rd Ste C  Melbourne, FL 32935",
    "location": "Indian_River"
  },
  {
    "name": "Global Marketing Research Services - GMRS",
    "description": "Market Research & Analysis",
    "phone": "(321) 723-7013",
    "address": "1507 Aurora Rd  Melbourne, FL 32935",
    "location": "Indian_River"
  },
  {
    "name": "Blue Tangerine",
    "description": "Web Site Design & Services",
    "phone": "(321) 309-6900",
    "address": "2020 W Eau Gallie Blvd Ste 105  Melbourne, FL 32935",
    "location": "Indian_River"
  },
  {
    "name": "Marketing Your Purpose",
    "description": "Marketing Consultants",
    "phone": "(321) 430-3399",
    "address": "2247 W New Haven Ave # 160  Melbourne, FL 32904",
    "location": "Indian_River"
  },
  {
    "name": "Www.woodsimplymade.com",
    "description": "Internet Marketing & Advertising",
    "phone": "(321) 506-4434",
    "address": "692 Atlantis Rd  Melbourne, FL 32904",
    "location": "Indian_River"
  },
  {
    "name": "Kindle Marketing Inc.",
    "description": "Marketing Consultants",
    "phone": "(321) 576-3742",
    "address": "2263 W New Haven Ave  Melbourne, FL 32904",
    "location": "Indian_River"
  },
  {
    "name": "Astro Marketing Inc",
    "description": "Marketing Consultants",
    "phone": "(321) 727-8817",
    "address": "6939 Vickie Cir  Melbourne, FL 32904",
    "location": "Indian_River"
  },
  {
    "name": "Net Force Media",
    "description": "Interactive Media",
    "phone": "(321) 536-1527",
    "address": "290 Paradise Blvd Apt 43  Indialantic, FL 32903",
    "location": "Indian_River"
  },
  {
    "name": "The Florida Design Group",
    "description": "Web Site Design & Services",
    "phone": "(321) 541-1425",
    "address": "218a E Eau Gallie Blvd # 165  Indian Harbour Beach, FL 32937",
    "location": "Indian_River"
  },
  {
    "name": "Express Signs",
    "description": "Signs",
    "phone": "(321) 722-0280",
    "address": "1558 S Wickham Rd  Melbourne, FL 32904",
    "location": "Indian_River"
  },
  {
    "name": "USA Marketing Associates",
    "description": "Marketing Consultants",
    "phone": "(321) 733-0475",
    "address": "630 S Wickham Rd  Melbourne, FL 32904",
    "location": "Indian_River"
  },
  {
    "name": "Push Marketing Inc",
    "description": "Marketing Consultants",
    "phone": "(321) 241-4318",
    "address": "405 N Wickham Rd  Melbourne, FL 32935",
    "location": "Indian_River"
  },
  {
    "name": "E-Commerce",
    "description": "Marketing Consultants",
    "phone": "(321) 622-6375",
    "address": "1270 N Wickham Rd  Melbourne, FL 32935",
    "location": "Indian_River"
  },
  {
    "name": "Nautic Studios",
    "description": "Web Site Hosting",
    "phone": "(321) 684-7460",
    "address": "2800 Aurora Rd STE I  Melbourne, FL 32935",
    "location": "Indian_River"
  },
  {
    "name": "Global Marketing Worldwide Inc",
    "description": "Marketing Consultants",
    "phone": "(321) 610-9992",
    "address": "2800 Aurora Rd  Melbourne, FL 32935",
    "location": "Indian_River"
  },
  {
    "name": "World Search Design",
    "description": "Internet Marketing & Advertising",
    "phone": "(703) 473-8121",
    "address": "520 Conifer St  Melbourne, FL 32904",
    "location": "Indian_River"
  },
  {
    "name": "E-Juice Connoisseur",
    "description": "Advertising-Shoppers Publications",
    "phone": "(321) 432-8631",
    "address": "2364 Eden Park Dr  Melbourne, FL 32935",
    "location": "Indian_River"
  },
  {
    "name": "MudRunFun",
    "description": "Internet Marketing & Advertising",
    "phone": "(321) 591-7199",
    "address": "4325 Canby Dr  Melbourne, FL 32901",
    "location": "Indian_River"
  },
  {
    "name": "321 Webmasters",
    "description": "Web Site Design & Services",
    "phone": "(321) 298-1129",
    "address": "635 Sedgewood Cir  Melbourne, FL 32904",
    "location": "Indian_River"
  },
  {
    "name": "Next Level Digital Media & Marketing",
    "description": "Internet Marketing & Advertising",
    "phone": "(321) 213-3553",
    "address": "255 East Dr Ste L  Melbourne, FL 32904",
    "location": "Indian_River"
  },
  {
    "name": "IMJustice Marketing",
    "description": "Marketing Consultants",
    "phone": "(321) 622-5756",
    "address": "119 Lancha Circle Unit 204  Satellite Beach, FL 32937",
    "location": "Indian_River"
  },
  {
    "name": "CPC The Harrises",
    "description": "Marketing Consultants",
    "phone": "(321) 729-9955",
    "address": "504 Shannon Ave  Melbourne Beach, FL 32951",
    "location": "Indian_River"
  },
  {
    "name": "VERIFIED OPPORTUNITIES",
    "description": "Assembly & Fabricating Service",
    "phone": "(321) 987-7054",
    "address": "G H 3700 Chevelle Dr.  W. Melbourne, FL 32904",
    "location": "Indian_River"
  },
  {
    "name": "Tech-Mark Services",
    "description": "Marketing Consultants",
    "phone": "(321) 409-0064",
    "address": "2720 Fellwood Ln  Melbourne, FL 32904",
    "location": "Indian_River"
  },
  {
    "name": "Nuance",
    "description": "Marketing Consultants",
    "phone": "(321) 253-4986",
    "address": "3984 Pepsi Cola Dr  Melbourne, FL 32934",
    "location": "Indian_River"
  },
  {
    "name": "Outerspection",
    "description": "Internet Marketing & Advertising",
    "phone": "(321) 292-9040",
    "address": "2470 Washington St  Melbourne, FL 32904",
    "location": "Indian_River"
  },
  {
    "name": "Front Page Solution",
    "description": "Internet Marketing & Advertising",
    "phone": "(321) 505-7932",
    "address": "4100 N Wickham Rd Ste 107A-198  Melbourne, FL 32935",
    "location": "Indian_River"
  },
  {
    "name": "Client Connection",
    "description": "Market Research & Analysis",
    "phone": "(321) 723-2000",
    "address": "2835 Ranch Rd  Melbourne, FL 32904",
    "location": "Indian_River"
  },
  {
    "name": "FOR YOU WEB DESIGN",
    "description": "Marketing Consultants",
    "phone": "(321) 837-9964",
    "address": "1500 Woodlake Dr NE  Palm Bay, FL 32905",
    "location": "Indian_River"
  },
  {
    "name": "PIP Marketing, Signs, Print",
    "description": "Printing Services",
    "phone": "(321) 951-4354",
    "address": "1480 Palm Bay Rd  Palm Bay, FL 32905",
    "location": "Indian_River"
  },
  {
    "name": "Blackfin Web Design",
    "description": "Internet Marketing & Advertising",
    "phone": "(321) 536-6176",
    "address": "2475 Palm Bay Rd NE  Palm Bay, FL 32905",
    "location": "Indian_River"
  },
  {
    "name": "Mtn Advertising",
    "description": "Advertising Agencies",
    "phone": "(321) 779-1010",
    "address": "1355 S Patrick Dr  Satellite Beach, FL 32937",
    "location": "Indian_River"
  },
  {
    "name": "Critter Marketing LLC",
    "description": "Internet Marketing & Advertising",
    "phone": "(321) 313-3969",
    "address": "1625 Orange Blossom Trl NE  Palm Bay, FL 32905",
    "location": "Indian_River"
  },
  {
    "name": "Braven Digital",
    "description": "Marketing Consultants",
    "phone": "(321) 339-1080",
    "address": "1370 Highway A1a  Satellite Beach, FL 32937",
    "location": "Indian_River"
  },
  {
    "name": "Out Front Marketing",
    "description": "Marketing Consultants",
    "phone": "(321) 220-5221",
    "address": "1290 Highway A1a  Satellite Beach, FL 32937",
    "location": "Indian_River"
  },
  {
    "name": "International Marketing Services",
    "description": "Marketing Consultants",
    "phone": "(321) 723-4290",
    "address": "1481 Ridge Rd NE  Palm Bay, FL 32905",
    "location": "Indian_River"
  },
  {
    "name": "Big, Business Incentives Group",
    "description": "Business Coaches & Consultants",
    "phone": "(321) 728-0821",
    "address": "684 Port Malabar Blvd NE  Palm Bay, FL 32905",
    "location": "Indian_River"
  },
  {
    "name": "Exit MultiMedia",
    "description": "Internet Marketing & Advertising",
    "phone": "(877) 692-2738",
    "address": "1377 Vater Ave NW  Palm Bay, FL 32907",
    "location": "Indian_River"
  },
  {
    "name": "Big B Marketing",
    "description": "Internet Marketing & Advertising",
    "phone": "(321) 775-3995",
    "address": "455 Atlantis Dr  Satellite Beach, FL 32937",
    "location": "Indian_River"
  },
  {
    "name": "Everythingbrevard.Com",
    "description": "Directory & Guide Advertising",
    "phone": "(321) 676-8920",
    "address": "1511 Masters Rd NW  Palm Bay, FL 32907",
    "location": "Indian_River"
  },
  {
    "name": "DeSantis Digital Works LLC",
    "description": "Internet Marketing & Advertising",
    "phone": "(321) 626-4724",
    "address": "2725 Center Pl  Melbourne, FL 32940",
    "location": "Indian_River"
  },
  {
    "name": "Space Coast Business Media",
    "description": "Marketing Consultants",
    "phone": "(321) 622-5986",
    "address": "5131 Industry Dr Ste 107  Melbourne, FL 32940",
    "location": "Indian_River"
  },
  {
    "name": "Invision Multimedia",
    "description": "Internet Marketing & Advertising",
    "phone": "(321) 253-1000",
    "address": "6300 N Wickham Rd  Melbourne, FL 32940",
    "location": "Indian_River"
  },
  {
    "name": "P1studios.Com",
    "description": "Marketing Consultants",
    "phone": "(954) 510-6216",
    "address": "1203 Vestavia Cir  Melbourne, FL 32940",
    "location": "Indian_River"
  },
  {
    "name": "Allstar Advertising",
    "description": "Internet Marketing & Advertising",
    "phone": "(321) 750-7120",
    "address": "262 Emerson Dr NW  Palm Bay, FL 32907",
    "location": "Indian_River"
  },
  {
    "name": "C Group",
    "description": "Marketing Consultants",
    "phone": "(321) 914-0869",
    "address": "1107 Parkview Ct NE  Palm Bay, FL 32907",
    "location": "Indian_River"
  },
  {
    "name": "Make IT Personal Inc",
    "description": "Marketing Consultants",
    "phone": "(321) 223-2673",
    "address": "790 Delmonico St NE  Palm Bay, FL 32907",
    "location": "Indian_River"
  },
  {
    "name": "Happy2Lend.com",
    "description": "Internet Marketing & Advertising",
    "phone": "(321) 250-6565",
    "address": "6050 Babcock St SE  Palm Bay, FL 32909",
    "location": "Indian_River"
  },
  {
    "name": "Teal Horse Design",
    "description": "Web Site Design & Services",
    "phone": "(321) 508-1523",
    "address": "197 Chestnut Ave NE  Palm Bay, FL 32907",
    "location": "Indian_River"
  },
  {
    "name": "Johndhorsch.Com",
    "description": "Marketing Consultants",
    "phone": "(321) 305-8329",
    "address": "1080 Lynbrook St NW  Palm Bay, FL 32907",
    "location": "Indian_River"
  },
  {
    "name": "freedom office",
    "description": "Internet Marketing & Advertising",
    "phone": "(321) 312-6051",
    "address": "1501 Barton Ave NW  Palm Bay, FL 32907",
    "location": "Indian_River"
  },
  {
    "name": "It's a Game Changer",
    "description": "Marketing Consultants",
    "phone": "(321) 419-7053",
    "address": "57 Emerson Dr NW  Palm Bay, FL 32907",
    "location": "Indian_River"
  },
  {
    "name": "Brevard Marketing",
    "description": "Marketing Consultants",
    "phone": "(321) 837-9850",
    "address": "7025 N Wickham Rd Ste 111  Melbourne, FL 32940",
    "location": "Indian_River"
  },
  {
    "name": "Cycn Management & Marketing Inc",
    "description": "Marketing Consultants",
    "phone": "(321) 757-4017",
    "address": "3270 Suntree Blvd Ste 1101  Melbourne, FL 32940",
    "location": "Indian_River"
  },
  {
    "name": "M.I.T. Mobile Integrated Technologies",
    "description": "Marketing Consultants",
    "phone": "(321) 412-6667",
    "address": "201 Plantation Club Dr Apt 105  Melbourne, FL 32940",
    "location": "Indian_River"
  },
  {
    "name": "Mad Hatter Promotions",
    "description": "Internet Marketing & Advertising",
    "phone": "(321) 543-1346",
    "address": "340 Myrtlewood Rd  Melbourne, FL 32940",
    "location": "Indian_River"
  },
  {
    "name": "All Media Graphics",
    "description": "Editorial & Publication Services",
    "phone": "(321) 698-1550",
    "address": "7777 N Wickham Rd Ste 12-124  Melbourne, FL 32940",
    "location": "Indian_River"
  },
  {
    "name": "SearhCred Inc.",
    "description": "Internet Marketing & Advertising",
    "phone": "(855) 736-2723",
    "address": "7777 N Wickham Rd  Melbourne, FL 32940",
    "location": "Indian_River"
  },
  {
    "name": "Certified Internet Solutions",
    "description": "Internet Consultants",
    "phone": "(321) 412-6658",
    "address": "530 Wickham Lakes Dr  Melbourne, FL 32940",
    "location": "Indian_River"
  },
  {
    "name": "Yellow Page Directory Service Inc",
    "description": "Directory & Guide Advertising",
    "phone": "(321) 254-6012",
    "address": "640 Classic Ct  Melbourne, FL 32940",
    "location": "Indian_River"
  },
  {
    "name": "Drumup Media Group",
    "description": "Internet Marketing & Advertising",
    "phone": "(321) 505-4583",
    "address": "1048 Carriage Hill Road  Melbourne, FL 32940",
    "location": "Indian_River"
  },
  {
    "name": "Access Link International Inc",
    "description": "Marketing Consultants",
    "phone": "(321) 952-2978",
    "address": "211 Cocoa St SE  Palm Bay, FL 32909",
    "location": "Indian_River"
  },
  {
    "name": "Social Marketing Nut, Inc",
    "description": "Marketing Consultants",
    "phone": "(321) 209-0688",
    "address": "PO Box 101245  Palm Bay, FL 32910",
    "location": "Indian_River"
  },
  {
    "name": "LivingSMARTERandSafer",
    "description": "Management Training",
    "phone": "(904) 323-2235",
    "address": "1903 Crane Creek Blvd  Melbourne, FL 32940",
    "location": "Indian_River"
  },
  {
    "name": "Hines International Education & Travelling LLC",
    "description": "Marketing Consultants",
    "phone": "(321) 258-7217",
    "address": "3624 Gatwick Manor Ln  Melbourne, FL 32940",
    "location": "Indian_River"
  },
  {
    "name": "RDE Consulting",
    "description": "Internet Marketing & Advertising",
    "phone": "(321) 426-6447",
    "address": "2791 Quentin Ave SE  Palm Bay, FL 32909",
    "location": "Indian_River"
  },
  {
    "name": "Everythingbrevard.com",
    "description": "Directory & Guide Advertising",
    "phone": "(321) 676-8920",
    "address": "1839 Plantation Cir SE  Palm Bay, FL 32909",
    "location": "Indian_River"
  },
  {
    "name": "Unjghtj.com",
    "description": "Internet Marketing & Advertising",
    "phone": "(318) 891-1122",
    "address": "105 Caledonia Dr  Melbourne Beach, FL 32951",
    "location": "Indian_River"
  },
  {
    "name": "TipTopWebsite.com",
    "description": "Internet Marketing & Advertising",
    "phone": "(800) 753-5129",
    "address": "2023 N Atlantic Ave  Cocoa Beach, FL 32931",
    "location": "Indian_River"
  },
  {
    "name": "Madhouse Media Company",
    "description": "Internet Marketing & Advertising",
    "phone": "(561) 339-9654",
    "address": "1892 Sun Gazer Dr  Rockledge, FL 32955",
    "location": "Indian_River"
  },
  {
    "name": "Jet Press",
    "description": "Printing Services",
    "phone": "(321) 783-5555",
    "address": "250 N Atlantic Ave  Cocoa Beach, FL 32931",
    "location": "Indian_River"
  },
  {
    "name": "LocaliQ",
    "description": "Advertising Agencies",
    "phone": "(877) 525-6084",
    "address": "1005 Viera Blvd Unit 101  Viera, FL 32955",
    "location": "Indian_River"
  },
  {
    "name": "Sewell & Associates",
    "description": "Marketing Consultants",
    "phone": "(321) 432-2031",
    "address": "891 Sandhill Crane Ct  Rockledge, FL 32955",
    "location": "Indian_River"
  },
  {
    "name": "Digital Blades Marketing",
    "description": "Internet Marketing & Advertising",
    "phone": "(321) 613-8451",
    "address": "428 S Orlando Avenue Unit C  Cocoa Beach, FL 32931",
    "location": "Indian_River"
  },
  {
    "name": "Viera Networks",
    "description": "Internet Consultants",
    "phone": "(321) 622-3309",
    "address": "3810 Murrell Rd Suite 201  Rockledge, FL 32955",
    "location": "Indian_River"
  },
  {
    "name": "ShopinPal, Inc.",
    "description": "Internet Marketing & Advertising",
    "phone": "(321) 617-5696",
    "address": "328 Brookcrest Cir  Rockledge, FL 32955",
    "location": "Indian_River"
  },
  {
    "name": "Brevard Graphics",
    "description": "Internet Marketing & Advertising",
    "phone": "(321) 368-2744",
    "address": "524 Glenbrook Cir  Rockledge, FL 32955",
    "location": "Indian_River"
  },
  {
    "name": "Senior-Linx",
    "description": "Consultants Referral Service",
    "phone": "(321) 474-8289",
    "address": "PO Box 540704  Merritt Island, FL 32954",
    "location": "Indian_River"
  },
  {
    "name": "Premier Marketing Group",
    "description": "Marketing Consultants",
    "phone": "(321) 868-4858",
    "address": "503 N Orlando Ave  Cocoa Beach, FL 32931",
    "location": "Indian_River"
  },
  {
    "name": "Brevard Insurance & Marketing, Inc.",
    "description": "Insurance",
    "phone": "(321) 783-2404",
    "address": "PO Box 320770  Cocoa Beach, FL 32932",
    "location": "Indian_River"
  },
  {
    "name": "Justsmallbiz Marketing",
    "description": "Marketing Consultants",
    "phone": "(321) 613-8476",
    "address": "830 N Atlantic Ave  Cocoa Beach, FL 32931",
    "location": "Indian_River"
  },
  {
    "name": "QMtel Communications",
    "description": "Computer Software & Services",
    "phone": "(321) 323-1436",
    "address": "1980 N Atlantic Ave #121  Cocoa Beach, FL 32931",
    "location": "Indian_River"
  }
]
