[
  {
    "name": "Susan Rades Marketing",
    "description": "Marketing Programs & Services",
    "phone": "(407) 579-4393",
    "address": "1150 Woodchuck Ct  Orange City, FL 32763",
    "location": "Jackson"
  },
  {
    "name": "Best Direct Marketing Group",
    "description": "Marketing Programs & Services",
    "phone": "(386) 775-1307",
    "address": "1750 S Volusia Ave Ste 2  Orange City, FL 32763",
    "location": "Jackson"
  },
  {
    "name": "Outsource Initiatives",
    "description": "Marketing Programs & Services",
    "phone": "(407) 279-7373",
    "address": "522 W Fern Dr  Orange City, FL 32763",
    "location": "Jackson"
  },
  {
    "name": "985 West Volusia",
    "description": "Marketing Programs & Services",
    "phone": "(386) 775-2469",
    "address": "937 Harley Strickland Blvd  Orange City, FL 32763",
    "location": "Jackson"
  },
  {
    "name": "Product Review Labs",
    "description": "Marketing Programs & Services",
    "phone": "(352) 559-0001",
    "address": "2578 Enterprise Rd # 104  Orange City, FL 32763",
    "location": "Jackson"
  },
  {
    "name": "Mastermind Web Video Marketing",
    "description": "Marketing Programs & Services",
    "phone": "(386) 747-2161",
    "address": "944 Regatta Bay Dr  Orange City, FL 32763",
    "location": "Jackson"
  },
  {
    "name": "Johnson Marketing",
    "description": "Marketing Programs & Services",
    "phone": "(386) 320-0672",
    "address": "301 N Pine Meadow Dr  Debary, FL 32713",
    "location": "Jackson"
  },
  {
    "name": "LMS Internet Corporation",
    "description": "Marketing Programs & Services",
    "phone": "(386) 490-4025",
    "address": "1609 S State Road 15a Ste 6  Deland, FL 32720",
    "location": "Jackson"
  },
  {
    "name": "Direct Market C Oncepts",
    "description": "Marketing Programs & Services",
    "phone": "(386) 259-4793",
    "address": "667 Deltona Blvd Ste 100  Deltona, FL 32725",
    "location": "Jackson"
  },
  {
    "name": "Tinker Graphics & Marketing",
    "description": "Marketing Programs & Services",
    "phone": "(386) 734-3475",
    "address": "112 W New York Ave  Deland, FL 32720",
    "location": "Jackson"
  },
  {
    "name": "Legacy Marketing Group",
    "description": "Marketing Programs & Services",
    "phone": "(386) 668-9613",
    "address": "269 Palmetto Springs St  Debary, FL 32713",
    "location": "Jackson"
  },
  {
    "name": "Ebony Phillips Marketing",
    "description": "Marketing Programs & Services",
    "phone": "(386) 748-5410",
    "address": "1303 Talton Ave  Deland, FL 32720",
    "location": "Jackson"
  },
  {
    "name": "H & R Unlimited, Inc.",
    "description": "Marketing Programs & Services",
    "phone": "(386) 279-0123",
    "address": "713 W New York Ave  Deland, FL 32720",
    "location": "Jackson"
  },
  {
    "name": "Nationwide Marketing",
    "description": "Marketing Programs & Services",
    "phone": "(800) 783-5615",
    "address": "52 Spring Vista Dr  Debary, FL 32713",
    "location": "Jackson"
  },
  {
    "name": "Brand Marketing & Promotions",
    "description": "Marketing Programs & Services",
    "phone": "(386) 626-2256",
    "address": "416 N Orange Ave  Deland, FL 32720",
    "location": "Jackson"
  },
  {
    "name": "Linda Glover & Associates",
    "description": "Marketing Programs & Services",
    "phone": "(386) 738-4938",
    "address": "631 N Arlington Ave  Deland, FL 32724",
    "location": "Jackson"
  },
  {
    "name": "Your Image Marketing",
    "description": "Marketing Programs & Services",
    "phone": "(386) 742-0424",
    "address": "2773 Thornberry Ct  Deltona, FL 32738",
    "location": "Jackson"
  },
  {
    "name": "Jeg Global Solutions",
    "description": "Marketing Programs & Services",
    "phone": "(386) 259-4671",
    "address": "2495 E Tipton Dr  Deltona, FL 32738",
    "location": "Jackson"
  },
  {
    "name": "Ascendia Digital Marketing Design",
    "description": "Marketing Programs & Services",
    "phone": "(203) 731-9024",
    "address": "2034 5th Ave  Deland, FL 32724",
    "location": "Jackson"
  },
  {
    "name": "Made to Order Marketing",
    "description": "Marketing Programs & Services",
    "phone": "(386) 717-1433",
    "address": "1884 Talmadge St  Deland, FL 32724",
    "location": "Jackson"
  },
  {
    "name": "Progressive Marketing Service",
    "description": "Marketing Programs & Services",
    "phone": "(407) 291-9749",
    "address": "1470 Kastner Pl Ste 100  Sanford, FL 32771",
    "location": "Jackson"
  },
  {
    "name": "Montalvo Marketing",
    "description": "Marketing Programs & Services",
    "phone": "(407) 838-3030",
    "address": "1406 Ashdown Ct  Sanford, FL 32771",
    "location": "Jackson"
  },
  {
    "name": "Pro Elite Marketing & Sales",
    "description": "Marketing Programs & Services",
    "phone": "(407) 324-0675",
    "address": "5341 Fawn Woods Ct  Sanford, FL 32771",
    "location": "Jackson"
  },
  {
    "name": "Artisan Internet Marketing",
    "description": "Marketing Programs & Services",
    "phone": "(352) 729-1042",
    "address": "110 W 1st St  Sanford, FL 32771",
    "location": "Jackson"
  },
  {
    "name": "L A Marketing Co",
    "description": "Marketing Programs & Services",
    "phone": "(321) 363-4043",
    "address": "203 E 3rd St  Sanford, FL 32771",
    "location": "Jackson"
  },
  {
    "name": "Innovative Apps",
    "description": "Marketing Programs & Services",
    "phone": "(407) 942-3246",
    "address": "305 E 4th St unit 101  Sanford, FL 32771",
    "location": "Jackson"
  },
  {
    "name": "LLD Unlimited/The Lady Grey Co",
    "description": "Marketing Programs & Services",
    "phone": "(407) 522-3712",
    "address": "3138 Deer Trl  Deland, FL 32724",
    "location": "Jackson"
  },
  {
    "name": "Creative Printing & Publishing",
    "description": "Marketing Programs & Services",
    "phone": "(407) 302-9147",
    "address": "2300 Old Lake Mary Rd  Sanford, FL 32771",
    "location": "Jackson"
  },
  {
    "name": "Palm Coast Technologies, LLC",
    "description": "Marketing Programs & Services",
    "phone": "(407) 674-2686",
    "address": "5224 W State Road 46 Ste 230  Sanford, FL 32771",
    "location": "Jackson"
  },
  {
    "name": "Sealane Marketing",
    "description": "Marketing Programs & Services",
    "phone": "(407) 831-4003",
    "address": "130 Maritime Dr  Sanford, FL 32771",
    "location": "Jackson"
  },
  {
    "name": "XCel Media Group",
    "description": "Marketing Programs & Services",
    "phone": "(866) 712-5990",
    "address": "5739 Byron Anthony Pl  Sanford, FL 32771",
    "location": "Jackson"
  },
  {
    "name": "Chingding",
    "description": "Marketing Programs & Services",
    "phone": "(407) 592-9356",
    "address": "414 Editha Cir  Sanford, FL 32771",
    "location": "Jackson"
  },
  {
    "name": "Artndisplays",
    "description": "Marketing Programs & Services",
    "phone": "(407) 732-4893",
    "address": "2451 Old Lake Mary Rd  Sanford, FL 32771",
    "location": "Jackson"
  },
  {
    "name": "Ring Marketing Group Inc",
    "description": "Marketing Programs & Services",
    "phone": "(888) 435-3199",
    "address": "1642 W Airport Blvd  Sanford, FL 32773",
    "location": "Jackson"
  },
  {
    "name": "Crank Communications",
    "description": "Marketing Programs & Services",
    "phone": "(407) 830-7312",
    "address": "1135 Townpark Ave Ste 2125  Lake Mary, FL 32746",
    "location": "Jackson"
  },
  {
    "name": "Carma Green Marketing",
    "description": "Marketing Programs & Services",
    "phone": "(407) 732-4194",
    "address": "2913 S Orlando Dr  Sanford, FL 32773",
    "location": "Jackson"
  },
  {
    "name": "Meridian Marketing Group",
    "description": "Marketing Programs & Services",
    "phone": "(407) 444-0320",
    "address": "600 Rinehart Rd  Lake Mary, FL 32746",
    "location": "Jackson"
  },
  {
    "name": "AddSolutions",
    "description": "Marketing Programs & Services",
    "phone": "(407) 562-1705",
    "address": "801 International Pkwy Ste 500  Lake Mary, FL 32746",
    "location": "Jackson"
  },
  {
    "name": "Forte Marketing Inc",
    "description": "Marketing Programs & Services",
    "phone": "(407) 324-4091",
    "address": "8392 Rambling River Dr  Sanford, FL 32771",
    "location": "Jackson"
  },
  {
    "name": "Distrx Inc",
    "description": "Marketing Programs & Services",
    "phone": "(407) 618-1223",
    "address": "2463 River Tree Cir  Sanford, FL 32771",
    "location": "Jackson"
  },
  {
    "name": "Quantum Solutions Inc",
    "description": "Marketing Programs & Services",
    "phone": "(407) 323-7533",
    "address": "1101 Cornwall Rd  Sanford, FL 32773",
    "location": "Jackson"
  },
  {
    "name": "Health Edeals",
    "description": "Marketing Programs & Services",
    "phone": "(407) 499-4069",
    "address": "1000 Primera Blvd  Lake Mary, FL 32746",
    "location": "Jackson"
  },
  {
    "name": "Turner Marketing",
    "description": "Marketing Programs & Services",
    "phone": "(407) 708-1060",
    "address": "522 W Lake Mary Blvd  Sanford, FL 32773",
    "location": "Jackson"
  },
  {
    "name": "A&G Marketing Group by Proforma",
    "description": "Marketing Programs & Services",
    "phone": "(888) 391-5449",
    "address": "142 W Lakeview Ave Ste 1030  Lake Mary, FL 32746",
    "location": "Jackson"
  },
  {
    "name": "Showap Media",
    "description": "Marketing Programs & Services",
    "phone": "(407) 416-0784",
    "address": "6202 Wyndham Crest Blvd  Sanford, FL 32773",
    "location": "Jackson"
  },
  {
    "name": "I & J Auto Market Inc",
    "description": "Marketing Programs & Services",
    "phone": "(407) 302-3316",
    "address": "4044 W Lake Mary Blvd  Lake Mary, FL 32746",
    "location": "Jackson"
  },
  {
    "name": "Maria F Sapkovski Marketing",
    "description": "Marketing Programs & Services",
    "phone": "(917) 733-0387",
    "address": "1125 Pointe Cv  Lake Mary, FL 32746",
    "location": "Jackson"
  },
  {
    "name": "Dme Studios",
    "description": "Marketing Programs & Services",
    "phone": "(407) 271-3218",
    "address": "1091 Greenwood Blvd  Lake Mary, FL 32746",
    "location": "Jackson"
  },
  {
    "name": "TDC Marketing",
    "description": "Marketing Programs & Services",
    "phone": "(352) 735-8064",
    "address": "25514 High Hampton Cir  Sorrento, FL 32776",
    "location": "Jackson"
  },
  {
    "name": "International Telemarketing",
    "description": "Marketing Programs & Services",
    "phone": "(386) 218-6930",
    "address": "243 W Graves Ave  Orange City, FL 32763",
    "location": "Jackson"
  },
  {
    "name": "Direct Sales Marketing of Florida, Inc.",
    "description": "Marketing Programs & Services",
    "phone": "(386) 228-0458",
    "address": "1477 S Leavitt Ave  Orange City, FL 32763",
    "location": "Jackson"
  },
  {
    "name": "MBI Direct Mail, Inc.",
    "description": "Marketing Programs & Services",
    "phone": "(800) 359-4780",
    "address": "710 W New Hampshire Ave  Deland, FL 32720",
    "location": "Jackson"
  },
  {
    "name": "Volusia Contractor Directory",
    "description": "Marketing Programs & Services",
    "phone": "(386) 753-4647",
    "address": "2825 Derby Dr  Deltona, FL 32738",
    "location": "Jackson"
  },
  {
    "name": "Nationwide Small Business Resources",
    "description": "Marketing Programs & Services",
    "phone": "(386) 516-3550",
    "address": "2048 Howland Blvd  Deltona, FL 32738",
    "location": "Jackson"
  },
  {
    "name": "Cruz.MCA",
    "description": "Marketing Programs & Services",
    "phone": "(386) 232-0158",
    "address": "2781 Lafoy ct  Deltona, FL 32738",
    "location": "Jackson"
  },
  {
    "name": "Aerographics",
    "description": "Marketing Programs & Services",
    "phone": "(386) 736-9779",
    "address": "1725 Lexington Ave  Deland, FL 32724",
    "location": "Jackson"
  },
  {
    "name": "Relentless Media",
    "description": "Marketing Programs & Services",
    "phone": "(407) 252-3980",
    "address": "1429 Dolgner Pl  Sanford, FL 32771",
    "location": "Jackson"
  },
  {
    "name": "Adams Marketing Group",
    "description": "Marketing Programs & Services",
    "phone": "(407) 320-0987",
    "address": "3842 Caboose Pl  Sanford, FL 32771",
    "location": "Jackson"
  },
  {
    "name": "Online Tactix, LLC",
    "description": "Marketing Programs & Services",
    "phone": "(888) 541-4447",
    "address": "5224 W State Road 46 # 131  Sanford, FL 32771",
    "location": "Jackson"
  },
  {
    "name": "Get Found By Design",
    "description": "Marketing Programs & Services",
    "phone": "(407) 494-4823",
    "address": "815 S French Ave  Sanford, FL 32771",
    "location": "Jackson"
  },
  {
    "name": "Dealer Funnel",
    "description": "Marketing Programs & Services",
    "phone": "(800) 675-4522",
    "address": "5739 Byron Anthony Pl  Sanford, FL 32771",
    "location": "Jackson"
  },
  {
    "name": "Maus Media Group",
    "description": "Marketing Programs & Services",
    "phone": "(407) 302-5880",
    "address": "1160 Rinehart Rd  Sanford, FL 32771",
    "location": "Jackson"
  },
  {
    "name": "Levitation Studio Inc.",
    "description": "Marketing Programs & Services",
    "phone": "(888) 514-8814",
    "address": "1540 International Pkwy  Lake Mary, FL 32746",
    "location": "Jackson"
  },
  {
    "name": "Pyramid Life Insurance Co",
    "description": "Marketing Programs & Services",
    "phone": "(407) 628-1776",
    "address": "1001 Heathrow Park Ln  Lake Mary, FL 32746",
    "location": "Jackson"
  },
  {
    "name": "Pentagon Consulting Associates Inc",
    "description": "Marketing Programs & Services",
    "phone": "(407) 417-5060",
    "address": "1512 Cherry Ridge Dr  Lake Mary, FL 32746",
    "location": "Jackson"
  },
  {
    "name": "Finastra",
    "description": "Marketing Programs & Services",
    "phone": "(407) 333-0209",
    "address": "744 Primera Blvd  Lake Mary, FL 32746",
    "location": "Jackson"
  },
  {
    "name": "One Source Branding & Media",
    "description": "Marketing Programs & Services",
    "phone": "(321) 441-3160",
    "address": "187 E Crystal Lake Ave Unit 1005  Lake Mary, FL 32746",
    "location": "Jackson"
  },
  {
    "name": "Evok Advertising",
    "description": "Marketing Programs & Services",
    "phone": "(407) 302-4416",
    "address": "152 N 4th St  Lake Mary, FL 32746",
    "location": "Jackson"
  },
  {
    "name": "American Made Digital, LLC",
    "description": "Marketing Programs & Services",
    "phone": "(407) 717-6025",
    "address": "PO Box 950843  Lake Mary, FL 32795",
    "location": "Jackson"
  },
  {
    "name": "Here To Help Marketing",
    "description": "Marketing Programs & Services",
    "phone": "(407) 391-5422",
    "address": "255 Primera Blvd Suite 160  Lake Mary, FL 32746",
    "location": "Jackson"
  },
  {
    "name": "Intersect Media Solutions",
    "description": "Marketing Programs & Services",
    "phone": "(321) 283-5255",
    "address": "610 Crescent Executive Ct Ste 112  Lake Mary, FL 32746",
    "location": "Jackson"
  },
  {
    "name": "Multi Marketing Research Co",
    "description": "Marketing Programs & Services",
    "phone": "(321) 275-0370",
    "address": "125 Middle St  Lake Mary, FL 32746",
    "location": "Jackson"
  },
  {
    "name": "Axel & Associates",
    "description": "Marketing Programs & Services",
    "phone": "(866) 328-4329",
    "address": "175 Middle St Unit 1201  Lake Mary, FL 32746",
    "location": "Jackson"
  },
  {
    "name": "Marchand & Company - Marketing Media",
    "description": "Marketing Programs & Services",
    "phone": "(407) 444-2090",
    "address": "4300 W Lake Mary Blvd  Lake Mary, FL 32746",
    "location": "Jackson"
  },
  {
    "name": "Invent Help",
    "description": "Marketing Programs & Services",
    "phone": "(407) 942-1393",
    "address": "160 International Pkwy Ste 276  Heathrow, FL 32746",
    "location": "Jackson"
  },
  {
    "name": "Precisionplay Media",
    "description": "Marketing Programs & Services",
    "phone": "(407) 805-8800",
    "address": "160 International Pkwy  Lake Mary, FL 32746",
    "location": "Jackson"
  },
  {
    "name": "Fast Lane Promotions",
    "description": "Marketing Programs & Services",
    "phone": "(407) 328-7653",
    "address": "1828 Bridgewater Dr  Lake Mary, FL 32746",
    "location": "Jackson"
  },
  {
    "name": "Full Run",
    "description": "Marketing Programs & Services",
    "phone": "(386) 290-8087",
    "address": "6544 Shahab Ln  Port Orange, FL 32128",
    "location": "Jackson"
  },
  {
    "name": "Copy Cat Copy Centers",
    "description": "Internet Marketing & Advertising",
    "phone": "(386) 218-6878",
    "address": "475 N Volusia Ave  Orange City, FL 32763",
    "location": "Jackson"
  },
  {
    "name": "AFES, LLC",
    "description": "Business Plans Development",
    "phone": "(407) 347-4669",
    "address": "123 N Industrial Dr Ste D  Orange City, FL 32763",
    "location": "Jackson"
  },
  {
    "name": "Little Bell Hospitality Market",
    "description": "Marketing Consultants",
    "phone": "(386) 456-0797",
    "address": "440 Crystal Springs Ct  Orange City, FL 32763",
    "location": "Jackson"
  },
  {
    "name": "Marketing and Professional Services",
    "description": "Marketing Consultants",
    "phone": "(386) 774-4518",
    "address": "550 Foothill Farms Rd  Orange City, FL 32763",
    "location": "Jackson"
  },
  {
    "name": "Air Power Marketing Inc",
    "description": "Marketing Consultants",
    "phone": "(386) 775-3130",
    "address": "1477 S Leavitt Ave  Orange City, FL 32763",
    "location": "Jackson"
  },
  {
    "name": "Cannon Virtual Assistants",
    "description": "Internet Marketing & Advertising",
    "phone": "(386) 463-0700",
    "address": "1452 9th ST  Orange City, FL 32763",
    "location": "Jackson"
  },
  {
    "name": "InFocus Media Group, Inc.",
    "description": "Print Advertising",
    "phone": "(386) 243-9327",
    "address": "683 Williams Ave  Orange City, FL 32763",
    "location": "Jackson"
  },
  {
    "name": "Simplicity Solutions Group",
    "description": "Computer Software Publishers & Developers",
    "phone": "(407) 801-7100",
    "address": "2435 S Volusia Ave Ste D1  Orange City, FL 32763",
    "location": "Jackson"
  },
  {
    "name": "Alps Did IT",
    "description": "Marketing Consultants",
    "phone": "(386) 301-0157",
    "address": "741 Saxon Blvd  Orange City, FL 32763",
    "location": "Jackson"
  },
  {
    "name": "Web Design Deland",
    "description": "Web Site Design & Services",
    "phone": "(386) 690-5581",
    "address": "2170 Deerfoot Trl  Deland, FL 32720",
    "location": "Jackson"
  },
  {
    "name": "Computers for Marketing Corp",
    "description": "Market Research & Analysis",
    "phone": "(386) 774-1191",
    "address": "485 Quail Hill Dr  Debary, FL 32713",
    "location": "Jackson"
  },
  {
    "name": "Four Step Marketing Consultants",
    "description": "Marketing Consultants",
    "phone": "(386) 490-4025",
    "address": "1609 S State Road 15a Ste 6  Deland, FL 32720",
    "location": "Jackson"
  },
  {
    "name": "Dream Network Academy",
    "description": "Direct Marketing Services",
    "phone": "(386) 473-6623",
    "address": "2569 Delbarton Ave  Deltona, FL 32725",
    "location": "Jackson"
  },
  {
    "name": "Wide Fusion",
    "description": "Internet Marketing & Advertising",
    "phone": "(386) 259-9645",
    "address": "1200 Deltona Blvd  Deltona, FL 32725",
    "location": "Jackson"
  },
  {
    "name": "Amp",
    "description": "Business Coaches & Consultants",
    "phone": "(386) 320-0416",
    "address": "87 S Charles Richard Beall Blvd  Debary, FL 32713",
    "location": "Jackson"
  },
  {
    "name": "Out of the Blue Marketing Inc.",
    "description": "Web Site Hosting",
    "phone": "(863) 703-2583",
    "address": "320 S Woodland Blvd  Deland, FL 32720",
    "location": "Jackson"
  },
  {
    "name": "EoVov LLC",
    "description": "Marketing Consultants",
    "phone": "(386) 232-8681",
    "address": "1502 Red Plum Hollow  DeLand, FL 32720",
    "location": "Jackson"
  },
  {
    "name": "LookHowWeirdTheWarmIs.com",
    "description": "Internet Marketing & Advertising",
    "phone": "(386) 734-2691",
    "address": "8 Villa Villar Ct  DeLand, FL 32724",
    "location": "Jackson"
  },
  {
    "name": "Signal Media",
    "description": "Internet Marketing & Advertising",
    "phone": "(407) 476-9358",
    "address": "117 W. Howry Avenue, Ste 2  DeLand, FL 32720",
    "location": "Jackson"
  },
  {
    "name": "Snapt Inc",
    "description": "Internet Marketing & Advertising",
    "phone": "(386) 873-0173",
    "address": "101 N Woodland Blvd Ste 500  Deland, FL 32720",
    "location": "Jackson"
  },
  {
    "name": "Corner Office Enterprises",
    "description": "Business Coaches & Consultants",
    "phone": "(386) 898-2015",
    "address": "101 N Woodland Blvd Ste A305  Deland, FL 32720",
    "location": "Jackson"
  },
  {
    "name": "New York Ave",
    "description": "Internet Marketing & Advertising",
    "phone": "(386) 490-8900",
    "address": "112 W Indiana Ave Ste 206  Deland, FL 32720",
    "location": "Jackson"
  },
  {
    "name": "Hill & Hollis Enterprises",
    "description": "Marketing Consultants",
    "phone": "(386) 279-0123",
    "address": "713 W New York Ave  Deland, FL 32720",
    "location": "Jackson"
  },
  {
    "name": "Cma",
    "description": "Marketing Consultants",
    "phone": "(386) 668-4616",
    "address": "80 Spring Vista Dr Ste 100  Debary, FL 32713",
    "location": "Jackson"
  },
  {
    "name": "Kitching Internet Management Solutions",
    "description": "Internet Marketing & Advertising",
    "phone": "(386) 562-6009",
    "address": "906 E Church St  Deland, FL 32724",
    "location": "Jackson"
  },
  {
    "name": "Empower Network",
    "description": "Internet Marketing & Advertising",
    "phone": "(407) 620-5585",
    "address": "Po Box 390874  Deltona, FL 32739",
    "location": "Jackson"
  },
  {
    "name": "A7 Multimedia",
    "description": "Web Site Hosting",
    "phone": "(386) 453-1464",
    "address": "603 Elkhorn Fern Ln  DeLand, FL 32720",
    "location": "Jackson"
  },
  {
    "name": "Nostressbuyersforyourhouse.com",
    "description": "Internet Marketing & Advertising",
    "phone": "(386) 855-8740",
    "address": "3150 Tiburon Ln  Deltona, FL 32738",
    "location": "Jackson"
  },
  {
    "name": "Say IT Big Orlando",
    "description": "Marketing Consultants",
    "phone": "(786) 383-8649",
    "address": "913 Marlboro Dr  Deland, FL 32724",
    "location": "Jackson"
  },
  {
    "name": "Midland Florida Clinical Research Center",
    "description": "Market Research & Analysis",
    "phone": "(386) 279-6181",
    "address": "665 Peachwood Dr  Deland, FL 32720",
    "location": "Jackson"
  },
  {
    "name": "Pretty Awesome Web Design",
    "description": "Web Site Hosting",
    "phone": "(407) 587-0025",
    "address": "123 N Boulevard Ct  Deland, FL 32720",
    "location": "Jackson"
  },
  {
    "name": "R.T.P Marketing - Rock The Pavement Marketing",
    "description": "Internet Marketing & Advertising",
    "phone": "(386) 400-3986",
    "address": "3072 Courtland Blvd  Deltona, FL 32738",
    "location": "Jackson"
  },
  {
    "name": "Cemco Marketing",
    "description": "Marketing Consultants",
    "phone": "(386) 740-2440",
    "address": "2943 Paolini Dr  Deland, FL 32720",
    "location": "Jackson"
  },
  {
    "name": "StartYourBrandNow.com",
    "description": "Internet Marketing & Advertising",
    "phone": "(386) 222-6484",
    "address": "1702 N Woodland Blvd  Deland, FL 32724",
    "location": "Jackson"
  },
  {
    "name": "Schwab Associates David",
    "description": "Marketing Consultants",
    "phone": "(407) 324-1333",
    "address": "4835 Shoreline Cir  Sanford, FL 32771",
    "location": "Jackson"
  },
  {
    "name": "Sanitizersubscription.com",
    "description": "Internet Marketing & Advertising",
    "phone": "(407) 943-4909",
    "address": "201 N Maple Ave  Sanford, FL 32771",
    "location": "Jackson"
  },
  {
    "name": "L A Marketing Company",
    "description": "Marketing Consultants",
    "phone": "(407) 732-4704",
    "address": "114 W 1st St  Sanford, FL 32771",
    "location": "Jackson"
  },
  {
    "name": "Mychildwins.com",
    "description": "Internet Marketing & Advertising",
    "phone": "(386) 628-0295",
    "address": "1264 Upsala Rd  Sanford, FL 32771",
    "location": "Jackson"
  },
  {
    "name": "Dealzkingzdepot.com",
    "description": "Internet Marketing & Advertising",
    "phone": "(386) 244-9500",
    "address": "401 E 1st St  Sanford, FL 32771",
    "location": "Jackson"
  },
  {
    "name": "Custom Graphic Designs",
    "description": "Print Advertising",
    "phone": "(386) 985-5909",
    "address": "4462 N Us Highway 17  Deland, FL 32720",
    "location": "Jackson"
  },
  {
    "name": "Total Marketing Concepts, Inc.",
    "description": "Telemarketing Services",
    "phone": "(407) 562-3201",
    "address": "1043 Upsala Rd Ste 1053  Sanford, FL 32771",
    "location": "Jackson"
  },
  {
    "name": "Dare to Dream A Gain",
    "description": "Marketing Consultants",
    "phone": "(407) 878-7669",
    "address": "209 San Carlos Ave  Sanford, FL 32771",
    "location": "Jackson"
  },
  {
    "name": "Total Marketing Concepts",
    "description": "Marketing Consultants",
    "phone": "(407) 302-3511",
    "address": "109 Bellagio Cir  Sanford, FL 32771",
    "location": "Jackson"
  },
  {
    "name": "Logogram Inc",
    "description": "Marketing Consultants",
    "phone": "(407) 320-1117",
    "address": "123 Commerce Way  Sanford, FL 32771",
    "location": "Jackson"
  },
  {
    "name": "Devsyntech, Inc.",
    "description": "Internet Marketing & Advertising",
    "phone": "(321) 444-7737",
    "address": "1405 S Locust Ave  Sanford, FL 32771",
    "location": "Jackson"
  },
  {
    "name": "Internet Marketing Directory",
    "description": "Marketing Consultants",
    "phone": "(407) 330-0443",
    "address": "329 Kays Landing Dr  Sanford, FL 32771",
    "location": "Jackson"
  },
  {
    "name": "Cyber Marketing & Research",
    "description": "Marketing Consultants",
    "phone": "(407) 324-2700",
    "address": "2451 Old Lake Mary Rd # 101  Sanford, FL 32771",
    "location": "Jackson"
  },
  {
    "name": "Cyber Marketing",
    "description": "Marketing Consultants",
    "phone": "(407) 324-9100",
    "address": "2380 W 25th St  Sanford, FL 32771",
    "location": "Jackson"
  },
  {
    "name": "Sandara Saints",
    "description": "Internet Marketing & Advertising",
    "phone": "(407) 878-1695",
    "address": "103 Lindsey Way  Sanford, FL 32771",
    "location": "Jackson"
  },
  {
    "name": "Alliance Sales & Marketing NC Inc",
    "description": "Marketing Consultants",
    "phone": "(704) 752-1919",
    "address": "400 Colonial Center Pkwy  Lake Mary, FL 32746",
    "location": "Jackson"
  },
  {
    "name": "Hadley's Market ing",
    "description": "Marketing Consultants",
    "phone": "(407) 878-7779",
    "address": "1013 Windridge Cir  Sanford, FL 32773",
    "location": "Jackson"
  },
  {
    "name": "P5 Systems",
    "description": "Internet Marketing & Advertising",
    "phone": "(407) 362-1933",
    "address": "223 Brightview Dr  Lake Mary, FL 32746",
    "location": "Jackson"
  },
  {
    "name": "Apache Commander",
    "description": "Internet Marketing & Advertising",
    "phone": "(321) 262-6891",
    "address": "2341 Church St  Sanford, FL 32771",
    "location": "Jackson"
  },
  {
    "name": "Checkout Locals",
    "description": "Advertising Agencies",
    "phone": "(407) 777-4506",
    "address": "1540 International Pkwy Suite 2000  Lake Mary, FL 32746",
    "location": "Jackson"
  },
  {
    "name": "Tonic Enterprises",
    "description": "Web Site Design & Services",
    "phone": "(407) 917-7211",
    "address": "1540 International Pkwy Ste 2000  Lake Mary, FL 32746",
    "location": "Jackson"
  },
  {
    "name": "JLS Automotive Marketing Inc.",
    "description": "Internet Marketing & Advertising",
    "phone": "(321) 363-0624",
    "address": "799 Sherbourne Cir  Lake Mary, FL 32746",
    "location": "Jackson"
  },
  {
    "name": "Ithrive Development",
    "description": "Marketing Consultants",
    "phone": "(407) 257-1717",
    "address": "600 Rinehart Rd  Lake Mary, FL 32746",
    "location": "Jackson"
  }
]
