[
  {
    "name": "Matador Creative Inc",
    "description": "Marketing Programs & Services",
    "phone": "(239) 206-6614",
    "address": "228 Sabal Lake Dr  Naples, FL 34104",
    "location": "Levy"
  },
  {
    "name": "Waterline Marketing",
    "description": "Marketing Programs & Services",
    "phone": "(239) 394-9873",
    "address": "13245 Tamiami Trl E  Naples, FL 34114",
    "location": "Levy"
  },
  {
    "name": "Innovative Digital Designs",
    "description": "Marketing Programs & Services",
    "phone": "(239) 398-8057",
    "address": "4001 Santa Barbara Blvd  Naples, FL 34104",
    "location": "Levy"
  },
  {
    "name": "Silver Angel Promotions",
    "description": "Marketing Programs & Services",
    "phone": "(239) 878-5216",
    "address": "281 Stanhope Cir  Naples, FL 34104",
    "location": "Levy"
  },
  {
    "name": "Ferris Marketing",
    "description": "Marketing Programs & Services",
    "phone": "(239) 263-3701",
    "address": "4720 Radio Rd  Naples, FL 34104",
    "location": "Levy"
  },
  {
    "name": "I Pacesetters",
    "description": "Marketing Programs & Services",
    "phone": "(267) 530-6275",
    "address": "9950 Business Cir Ste 14  Naples, FL 34112",
    "location": "Levy"
  },
  {
    "name": "Maverick Mobile Marketing",
    "description": "Marketing Programs & Services",
    "phone": "(239) 234-2390",
    "address": "484 Crossfield Cir  Naples, FL 34104",
    "location": "Levy"
  },
  {
    "name": "Moonlight SEO of Naples",
    "description": "Marketing Programs & Services",
    "phone": "(877) 796-7678",
    "address": "900 6th Ave S  Naples, FL 34102",
    "location": "Levy"
  },
  {
    "name": "PGI Commercial",
    "description": "Marketing Programs & Services",
    "phone": "(239) 263-1808",
    "address": "2640 Golden Gate Pkwy  Naples, FL 34105",
    "location": "Levy"
  },
  {
    "name": "M.D Advertising Services",
    "description": "Marketing Programs & Services",
    "phone": "(239) 285-0760",
    "address": "1921 48th St Sw  Naples, FL 34116",
    "location": "Levy"
  },
  {
    "name": "Magic Marketing",
    "description": "Marketing Programs & Services",
    "phone": "(239) 227-0711",
    "address": "1200 diana ave  Naples, FL 34103",
    "location": "Levy"
  },
  {
    "name": "DREAMFly Marketing",
    "description": "Marketing Programs & Services",
    "phone": "(239) 682-0082",
    "address": "6145 Montelena Cir Apt 5102  Naples, FL 34119",
    "location": "Levy"
  },
  {
    "name": "Market Crank Inc",
    "description": "Marketing Programs & Services",
    "phone": "(239) 591-2709",
    "address": "5647 Naples Blvd  Naples, FL 34109",
    "location": "Levy"
  },
  {
    "name": "Hmmm, inc.",
    "description": "Marketing Programs & Services",
    "phone": "(239) 404-5321",
    "address": "4021 Gulf Shore Blvd N Apt 1905  Naples, FL 34103",
    "location": "Levy"
  },
  {
    "name": "Naples SEO Company",
    "description": "Marketing Programs & Services",
    "phone": "(239) 300-5040",
    "address": "4850 Tamiami Trl N Unit 301  Naples, FL 34103",
    "location": "Levy"
  },
  {
    "name": "Digital ShortCutz Marketing Agency",
    "description": "Marketing Programs & Services",
    "phone": "(239) 537-9247",
    "address": "4850 Tamiami Trl N Unit 301  Naples, FL 34103",
    "location": "Levy"
  },
  {
    "name": "TLH Marketing",
    "description": "Marketing Programs & Services",
    "phone": "(239) 592-0060",
    "address": "4851 Tamiami Trl N  Naples, FL 34103",
    "location": "Levy"
  },
  {
    "name": "Smart Marketing",
    "description": "Marketing Programs & Services",
    "phone": "(239) 403-7755",
    "address": "6240 Shirley St  Naples, FL 34109",
    "location": "Levy"
  },
  {
    "name": "Marketcrank Inc",
    "description": "Marketing Programs & Services",
    "phone": "(239) 591-4733",
    "address": "1750 J And C Blvd  Naples, FL 34109",
    "location": "Levy"
  },
  {
    "name": "Digital Response Marketing Group",
    "description": "Marketing Programs & Services",
    "phone": "(239) 963-4649",
    "address": "7221 Mill Run Cir  Naples, FL 34109",
    "location": "Levy"
  },
  {
    "name": "Ad Force Inc",
    "description": "Marketing Programs & Services",
    "phone": "(239) 495-0007",
    "address": "9010 Strada Stell Ct  Naples, FL 34109",
    "location": "Levy"
  },
  {
    "name": "Geared Digital Marketing",
    "description": "Marketing Programs & Services",
    "phone": "(413) 329-1945",
    "address": "2359 Vanderbilt Beach Rd #410E  Naples, FL 34109",
    "location": "Levy"
  },
  {
    "name": "Relevanza",
    "description": "Marketing Programs & Services",
    "phone": "(305) 791-2054",
    "address": "9128 Strada Pl  Naples, FL 34108",
    "location": "Levy"
  },
  {
    "name": "Hamlin Power & Reaves Marketing",
    "description": "Marketing Programs & Services",
    "phone": "(217) 698-2023",
    "address": "9128 Strada Pl  Naples, FL 34108",
    "location": "Levy"
  },
  {
    "name": "Alphatrans Int'l Marketing Inc",
    "description": "Marketing Programs & Services",
    "phone": "(239) 389-1115",
    "address": "380 Seaview Ct  Marco Island, FL 34145",
    "location": "Levy"
  },
  {
    "name": "Hdd Broker",
    "description": "Marketing Programs & Services",
    "phone": "(239) 331-4665",
    "address": "15205 Collier Blvd Ste 104  Naples, FL 34119",
    "location": "Levy"
  },
  {
    "name": "Sunshine Management & Marketing Services",
    "description": "Marketing Programs & Services",
    "phone": "(239) 777-6457",
    "address": "2740 4th Ave SE  Naples, FL 34117",
    "location": "Levy"
  },
  {
    "name": "Glenn Torres | The Godfather Of Marketing",
    "description": "Marketing Programs & Services",
    "phone": "(239) 567-9937",
    "address": "16230 Allura Cir  Naples, FL 34110",
    "location": "Levy"
  },
  {
    "name": "ACD Christian Business Design * Web Media & Coaching",
    "description": "Marketing Programs & Services",
    "phone": "(239) 628-3490",
    "address": "suiteA 561 7th st NW  Naples, FL 34120",
    "location": "Levy"
  },
  {
    "name": "ActiveData Digital Marketing",
    "description": "Marketing Programs & Services",
    "phone": "(239) 465-0310",
    "address": "1004 Collier Center Way Ste 206  Naples, FL 34110",
    "location": "Levy"
  },
  {
    "name": "Clark Empire",
    "description": "Marketing Programs & Services",
    "phone": "(239) 422-9101",
    "address": "2160 Vardin Pl  Naples, FL 34120",
    "location": "Levy"
  },
  {
    "name": "Maximum Potential Marketing",
    "description": "Marketing Programs & Services",
    "phone": "(239) 323-1885",
    "address": "4570 20th St NE  Naples, FL 34120",
    "location": "Levy"
  },
  {
    "name": "Bell Marketing Inc",
    "description": "Marketing Programs & Services",
    "phone": "(239) 571-0615",
    "address": "382 Angler Dr  Goodland, FL 34140",
    "location": "Levy"
  },
  {
    "name": "44i, Inc.",
    "description": "Marketing Programs & Services",
    "phone": "(239) 940-5781",
    "address": "7523 Moorgate Point Way  Naples, FL 34113",
    "location": "Levy"
  },
  {
    "name": "Sunset Marketing",
    "description": "Marketing Programs & Services",
    "phone": "(727) 755-8239",
    "address": "5972 cerromar dr  naples, FL 34112",
    "location": "Levy"
  },
  {
    "name": "Minuteman Press",
    "description": "Marketing Programs & Services",
    "phone": "(239) 261-1198",
    "address": "771 Airport Rd. N. Units 4 & 5  Naples, FL 34104",
    "location": "Levy"
  },
  {
    "name": "Customer Finder Marketing",
    "description": "Marketing Programs & Services",
    "phone": "(727) 642-3315",
    "address": "4001 Santa Barbara Blvd Ste 358  Naples, FL 34104",
    "location": "Levy"
  },
  {
    "name": "Allegra Marketing Print Mail",
    "description": "Marketing Programs & Services",
    "phone": "(239) 643-2442",
    "address": "3930 Domestic Ave  Naples, FL 34104",
    "location": "Levy"
  },
  {
    "name": "Budget Direct Ads",
    "description": "Marketing Programs & Services",
    "phone": "(239) 422-6468",
    "address": "4511 32nd Ave SW  Naples, FL 34116",
    "location": "Levy"
  },
  {
    "name": "Kwik Kopy",
    "description": "Marketing Programs & Services",
    "phone": "(239) 263-2500",
    "address": "350 9th St S  Naples, FL 34102",
    "location": "Levy"
  },
  {
    "name": "Asg",
    "description": "Marketing Programs & Services",
    "phone": "(800) 932-5536",
    "address": "708 Goodlette-Frank Rd N  Naples, FL 34102",
    "location": "Levy"
  },
  {
    "name": "The Drivers World",
    "description": "Marketing Programs & Services",
    "phone": "(630) 489-9339",
    "address": "1766 Bald Eagle Dr  Naples, FL 34105",
    "location": "Levy"
  },
  {
    "name": "The Sailboat Agency",
    "description": "Marketing Programs & Services",
    "phone": "(239) 710-2197",
    "address": "4850 Tamiami Trl N  Naples, FL 34103",
    "location": "Levy"
  },
  {
    "name": "Cheetah Agency",
    "description": "Marketing Programs & Services",
    "phone": "(239) 329-0202",
    "address": "4851 Tamiami Trl N  Naples, FL 34103",
    "location": "Levy"
  },
  {
    "name": "Onfast",
    "description": "Marketing Programs & Services",
    "phone": "(239) 213-9309",
    "address": "5150 Tamiami Trl N Ste 700  Naples, FL 34103",
    "location": "Levy"
  },
  {
    "name": "Astute Marketing and Consulting",
    "description": "Marketing Programs & Services",
    "phone": "(239) 284-2340",
    "address": "2430 Vanderbilt Beach Rd  Naples, FL 34109",
    "location": "Levy"
  },
  {
    "name": "Classy Woman Magazine",
    "description": "Marketing Programs & Services",
    "phone": "(239) 325-1888",
    "address": "999 Vanderbilt Beach Rd Ste 2  Naples, FL 34108",
    "location": "Levy"
  },
  {
    "name": "Discount Emails USA",
    "description": "Marketing Programs & Services",
    "phone": "(239) 248-0049",
    "address": "2290 Saturnia Grande Dr  Naples, FL 34119",
    "location": "Levy"
  },
  {
    "name": "Position Logic",
    "description": "Marketing Programs & Services",
    "phone": "(239) 465-0587",
    "address": "4522 Executive Dr Ste 201  Naples, FL 34119",
    "location": "Levy"
  },
  {
    "name": "B3 Marketing Naples Fl Office",
    "description": "Marketing Programs & Services",
    "phone": "(561) 405-1299",
    "address": "7925 Preserve Cir Apt 328  Naples, FL 34119",
    "location": "Levy"
  },
  {
    "name": "Valpak of Southwest Florida",
    "description": "Marketing Programs & Services",
    "phone": "(239) 594-3531",
    "address": "10681 Airport-Pulling Rd Suite 21  Naples, FL 34109",
    "location": "Levy"
  },
  {
    "name": "Modern Motion",
    "description": "Marketing Programs & Services",
    "phone": "(239) 877-1373",
    "address": "9059 Gervais Cir Apt 1308  Naples, FL 34120",
    "location": "Levy"
  },
  {
    "name": "My Grassroots Marketing",
    "description": "Marketing Programs & Services",
    "phone": "(239) 293-2659",
    "address": "118 S Barfield Dr Ste A  Marco Island, FL 34145",
    "location": "Levy"
  },
  {
    "name": "Naples Promo Deals",
    "description": "Advertising Specialties",
    "phone": "(239) 348-2699",
    "address": "5683 Rattlesnake Hammock Rd  Naples, FL 34113",
    "location": "Levy"
  },
  {
    "name": "Johnthemasterbarber.com",
    "description": "Internet Marketing & Advertising",
    "phone": "(630) 202-3450",
    "address": "101 Champagne Ct  Naples, FL 34112",
    "location": "Levy"
  },
  {
    "name": "Patti Genko Marketing",
    "description": "Internet Marketing & Advertising",
    "phone": "(239) 449-6049",
    "address": "8630 Mustang Dr  Naples, FL 34113",
    "location": "Levy"
  },
  {
    "name": "US CET CORP",
    "description": "Incorporating Companies",
    "phone": "(239) 300-0348",
    "address": "2272 Airport Rd S Ste 210  Naples, FL 34112",
    "location": "Levy"
  },
  {
    "name": "Simplybbguns.com",
    "description": "Internet Marketing & Advertising",
    "phone": "(239) 285-9201",
    "address": "8595 Collier Blvd  Naples, FL 34114",
    "location": "Levy"
  },
  {
    "name": "Lasso Up",
    "description": "Web Site Design & Services",
    "phone": "(888) 700-9412",
    "address": "6229 Union Island Way  Naples, FL 34113",
    "location": "Levy"
  },
  {
    "name": "As Seen On TV Marketing",
    "description": "Marketing Consultants",
    "phone": "(239) 774-3580",
    "address": "7256 Carducci Ct  Naples, FL 34114",
    "location": "Levy"
  },
  {
    "name": "Solve Design Create LLC",
    "description": "Audio-Visual Creative Services",
    "phone": "(239) 963-1213",
    "address": "4888 Davis Blvd Suite 244  Naples, FL 34104",
    "location": "Levy"
  },
  {
    "name": "Draiss Marketing LLC",
    "description": "Marketing Consultants",
    "phone": "(239) 963-4645",
    "address": "1367 Wildwood Lakes Blvd  Naples, FL 34104",
    "location": "Levy"
  },
  {
    "name": "Niko Creatives",
    "description": "Marketing Consultants",
    "phone": "(239) 384-0984",
    "address": "2986 Full Moon Ct  Naples, FL 34112",
    "location": "Levy"
  },
  {
    "name": "Sigma Hospitality Resources",
    "description": "Hotel & Motel Management",
    "phone": "(239) 200-4562",
    "address": "6820 Sterling Greens Pl Apt 105  Naples, FL 34104",
    "location": "Levy"
  },
  {
    "name": "Bi",
    "description": "Marketing Consultants",
    "phone": "(239) 430-0101",
    "address": "3865 Davis Blvd  Naples, FL 34104",
    "location": "Levy"
  },
  {
    "name": "Kis Marketing",
    "description": "Marketing Consultants",
    "phone": "(239) 649-1043",
    "address": "4100 Corporate Sq  Naples, FL 34104",
    "location": "Levy"
  },
  {
    "name": "Concourse Business Services",
    "description": "Bookkeeping",
    "phone": "(239) 348-5030",
    "address": "4100 Corporate Sq Ste 162  Naples, FL 34104",
    "location": "Levy"
  },
  {
    "name": "Errand Family",
    "description": "Internet Marketing & Advertising",
    "phone": "(239) 403-4003",
    "address": "267 Airport Rd S  Naples, FL 34104",
    "location": "Levy"
  },
  {
    "name": "Abaco Marketing and Investment",
    "description": "Marketing Consultants",
    "phone": "(239) 263-0077",
    "address": "125 Airport Pulling Rd N  Naples, FL 34104",
    "location": "Levy"
  },
  {
    "name": "Mindzoo",
    "description": "Marketing Consultants",
    "phone": "(239) 304-9611",
    "address": "3792 Jungle Plum Dr E  Naples, FL 34114",
    "location": "Levy"
  },
  {
    "name": "Maldonado & Associates",
    "description": "Marketing Consultants",
    "phone": "(239) 213-0168",
    "address": "351 Airport Pulling Rd N  Naples, FL 34104",
    "location": "Levy"
  },
  {
    "name": "R G B Internet Systems",
    "description": "Internet Marketing & Advertising",
    "phone": "(239) 403-9966",
    "address": "3050 Horseshoe Dr N Ste 200  Naples, FL 34104",
    "location": "Levy"
  },
  {
    "name": "Vu Studios",
    "description": "Internet Marketing & Advertising",
    "phone": "(239) 228-9300",
    "address": "475 Tamiami Trl N  Naples, FL 34102",
    "location": "Levy"
  },
  {
    "name": "Avenue Visual",
    "description": "Publicity Service",
    "phone": "(239) 961-6810",
    "address": "3606 Enterprise Ave Ste 307  Naples, FL 34104",
    "location": "Levy"
  },
  {
    "name": "239 Marketing",
    "description": "Web Site Design & Services",
    "phone": "(239) 287-7269",
    "address": "3606 Enterprise Ave Ste 385  Naples, FL 34104",
    "location": "Levy"
  },
  {
    "name": "Boardroompr",
    "description": "Advertising Agencies",
    "phone": "(239) 360-9340",
    "address": "3606 Enterprise Ave  Naples, FL 34104",
    "location": "Levy"
  },
  {
    "name": "Coachbarreto.com",
    "description": "Internet Marketing & Advertising",
    "phone": "(239) 777-8453",
    "address": "900 Broad Ave S  Naples, FL 34102",
    "location": "Levy"
  },
  {
    "name": "Social-Impact",
    "description": "Marketing Consultants",
    "phone": "(239) 325-1127",
    "address": "5101 31st Ave SW  Naples, FL 34116",
    "location": "Levy"
  },
  {
    "name": "Bayfront Marketing",
    "description": "Marketing Consultants",
    "phone": "(239) 263-6884",
    "address": "465 Bayfront Pl  Naples, FL 34102",
    "location": "Levy"
  },
  {
    "name": "PKG-Guru.com",
    "description": "Internet Marketing & Advertising",
    "phone": "(239) 398-8211",
    "address": "1231 Silver Lakes Blvd  Naples, FL 34114",
    "location": "Levy"
  },
  {
    "name": "Patten Sales and Marketing",
    "description": "Marketing Consultants",
    "phone": "(239) 963-9783",
    "address": "1100 5th Ave S Ste 404  Naples, FL 34102",
    "location": "Levy"
  },
  {
    "name": "Riptide SEO",
    "description": "Internet Marketing & Advertising",
    "phone": "(239) 330-3824",
    "address": "780 5th Ave S Ste 200  Naples, FL 34102",
    "location": "Levy"
  },
  {
    "name": "Orgetus Inc Marketing Simply Clever",
    "description": "Marketing Consultants",
    "phone": "(239) 674-3887",
    "address": "847 4th Ave S  Naples, FL 34102",
    "location": "Levy"
  },
  {
    "name": "Dbr Marketing Inc",
    "description": "Marketing Consultants",
    "phone": "(239) 261-6800",
    "address": "2840 68th St SW  Naples, FL 34105",
    "location": "Levy"
  },
  {
    "name": "America Cares",
    "description": "Marketing Consultants",
    "phone": "(239) 304-8697",
    "address": "852 1st Ave S Ste 301  Naples, FL 34102",
    "location": "Levy"
  },
  {
    "name": "An Organized You",
    "description": "Data Processing Service",
    "phone": "(239) 248-6655",
    "address": "PO Box 9278  Naples, FL 34101",
    "location": "Levy"
  },
  {
    "name": "Goldengirlssellflorida.com",
    "description": "Internet Marketing & Advertising",
    "phone": "(239) 641-9832",
    "address": "5th Avenue 621 5th Ave S  Naples, FL 34102",
    "location": "Levy"
  },
  {
    "name": "Agingcare.com",
    "description": "Internet Marketing & Advertising",
    "phone": "(239) 594-3202",
    "address": "720 Goodlette-Frank Rd N  Naples, FL 34102",
    "location": "Levy"
  },
  {
    "name": "List Marketing Inc",
    "description": "Marketing Consultants",
    "phone": "(239) 263-4350",
    "address": "555 10th St N  Naples, FL 34102",
    "location": "Levy"
  },
  {
    "name": "C2 Communications",
    "description": "Marketing Consultants",
    "phone": "(239) 431-4646",
    "address": "2590 Golden Gate Pkwy Ste 110  Naples, FL 34105",
    "location": "Levy"
  },
  {
    "name": "Ft Myers Savings Network",
    "description": "Internet Marketing & Advertising",
    "phone": "(941) 677-8658",
    "address": "1185 14th Ave N  Naples, FL 34102",
    "location": "Levy"
  },
  {
    "name": "www.insidetraveltoday.com",
    "description": "Internet Marketing & Advertising",
    "phone": "(239) 692-3355",
    "address": "2697 Poinciana Dr  Naples, FL 34105",
    "location": "Levy"
  },
  {
    "name": "Markit Group",
    "description": "Marketing Consultants",
    "phone": "(239) 676-9756",
    "address": "3200 Bailey Ln  Naples, FL 34105",
    "location": "Levy"
  },
  {
    "name": "Market This",
    "description": "Marketing Consultants",
    "phone": "(239) 431-6524",
    "address": "12859 Carrington Cir Unit 103  Naples, FL 34105",
    "location": "Levy"
  },
  {
    "name": "The Tradewell Group Inc",
    "description": "Marketing Consultants",
    "phone": "(239) 261-4244",
    "address": "1910 Gulf Shore Blvd N  Naples, FL 34102",
    "location": "Levy"
  },
  {
    "name": "Smart Markiting",
    "description": "Product Design, Development & Marketing",
    "phone": "(239) 403-7556",
    "address": "3033 Riviera Dr  Naples, FL 34103",
    "location": "Levy"
  },
  {
    "name": "Elephant Marketing & Media",
    "description": "Advertising Agencies",
    "phone": "(239) 449-6107",
    "address": "3510 Kraft Rd Ste 200  Naples, FL 34105",
    "location": "Levy"
  },
  {
    "name": "Angel Hot Soft",
    "description": "Marketing Consultants",
    "phone": "(239) 234-6578",
    "address": "801 Anchor Rode Dr  Naples, FL 34103",
    "location": "Levy"
  },
  {
    "name": "Resort Marketing Consultants",
    "description": "Marketing Consultants",
    "phone": "(239) 596-7900",
    "address": "3435 Pine Ridge Rd  Naples, FL 34109",
    "location": "Levy"
  },
  {
    "name": "Young and Royal",
    "description": "Marketing Consultants",
    "phone": "(239) 331-8112",
    "address": "12975 Collier Blvd  Naples, FL 34116",
    "location": "Levy"
  },
  {
    "name": "Surf Web Design & Internet Marketing",
    "description": "Internet Marketing & Advertising",
    "phone": "(239) 434-7095",
    "address": "1049 Trail Terrace Dr  Naples, FL 34103",
    "location": "Levy"
  },
  {
    "name": "Motor Club of America (MCA)",
    "description": "Internet Marketing & Advertising",
    "phone": "(850) 792-6622",
    "address": "Amanda Lane  Naples, FL 34109",
    "location": "Levy"
  },
  {
    "name": "Marketing Consultants",
    "description": "Marketing Consultants",
    "phone": "(239) 352-5551",
    "address": "4727 7th Ave SW  Naples, FL 34119",
    "location": "Levy"
  },
  {
    "name": "Business Dynamix Solutions LLC",
    "description": "Business Coaches & Consultants",
    "phone": "(239) 262-1237",
    "address": "4099 Tamiami Trail North, Suite 237  Naples, FL 34103",
    "location": "Levy"
  },
  {
    "name": "Watchdog City",
    "description": "Internet Marketing & Advertising",
    "phone": "(239) 449-8045",
    "address": "4760 Tamiami Trl N Ste 1A  Naples, FL 34103",
    "location": "Levy"
  },
  {
    "name": "PipelinePRO",
    "description": "Web Site Design & Services",
    "phone": "(877) 262-0120",
    "address": "4850 Tamiami Trl N Unit 301  Naples, FL 34103",
    "location": "Levy"
  },
  {
    "name": "Card Web",
    "description": "Market Research & Analysis",
    "phone": "(239) 325-5300",
    "address": "5100 Tamiami Trl N  Naples, FL 34103",
    "location": "Levy"
  },
  {
    "name": "Imedia Corp",
    "description": "Marketing Consultants",
    "phone": "(239) 598-2216",
    "address": "6323 Janes Ln  Naples, FL 34109",
    "location": "Levy"
  },
  {
    "name": "Wbn Marketing",
    "description": "Computer Software Publishers & Developers",
    "phone": "(239) 591-5961",
    "address": "6214 Trail Blvd  Naples, FL 34108",
    "location": "Levy"
  },
  {
    "name": "Protouch Marketing",
    "description": "Marketing Consultants",
    "phone": "(239) 431-7378",
    "address": "6314 Trail Blvd  Naples, FL 34108",
    "location": "Levy"
  },
  {
    "name": "Alpha Web Marketing, LLC",
    "description": "Internet Marketing & Advertising",
    "phone": "(239) 908-6884",
    "address": "2055 Trade Center Way  Naples, FL 34109",
    "location": "Levy"
  },
  {
    "name": "BLU NEXT WEB",
    "description": "Web Site Design & Services",
    "phone": "(239) 287-8105",
    "address": "2205 Arbour Walk Cir Apt 916  Naples, FL 34109",
    "location": "Levy"
  },
  {
    "name": "Nature Trade Ctr Inc",
    "description": "Advertising Specialties",
    "phone": "(239) 592-0753",
    "address": "1915 Trade Center Way  Naples, FL 34109",
    "location": "Levy"
  },
  {
    "name": "Blue Streak Marketing",
    "description": "Marketing Consultants",
    "phone": "(239) 325-1615",
    "address": "1915 Trade Center Way  Naples, FL 34109",
    "location": "Levy"
  },
  {
    "name": "Red BSG USA",
    "description": "Computer Online Services",
    "phone": "(239) 384-0027",
    "address": "2335 Bear Creek Dr  Naples, FL 34109",
    "location": "Levy"
  },
  {
    "name": "GMC Associates Inc",
    "description": "Marketing Consultants",
    "phone": "(239) 591-0700",
    "address": "1786 Trade Center Way  Naples, FL 34109",
    "location": "Levy"
  },
  {
    "name": "Digital Marketing & Imaging",
    "description": "Marketing Consultants",
    "phone": "(239) 597-0002",
    "address": "6729 Autumn Woods Blvd  Naples, FL 34109",
    "location": "Levy"
  },
  {
    "name": "America's Best Real Estate",
    "description": "Sales Promotion Service",
    "phone": "(239) 591-3225",
    "address": "6101 Pelican Bay Blvd Apt 103  Naples, FL 34108",
    "location": "Levy"
  },
  {
    "name": "Trullinger Associates Inc",
    "description": "Market Research & Analysis",
    "phone": "(239) 594-8003",
    "address": "6115 English Oaks Ln  Naples, FL 34119",
    "location": "Levy"
  },
  {
    "name": "Hospital Marketing Solutions LLC",
    "description": "Internet Marketing & Advertising",
    "phone": "(239) 352-9242",
    "address": "2430 Vanderbilt Beach Rd Ste 108  Naples, FL 34109",
    "location": "Levy"
  },
  {
    "name": "EZ Global Marketing",
    "description": "Marketing Consultants",
    "phone": "(470) 236-8398",
    "address": "7550 Mission Hills Dr Ste 306  Naples, FL 34119",
    "location": "Levy"
  },
  {
    "name": "Adsource",
    "description": "Marketing Consultants",
    "phone": "(239) 495-0007",
    "address": "9010 Strada Stell Ct  Naples, FL 34109",
    "location": "Levy"
  },
  {
    "name": "Evolving Brands International",
    "description": "Marketing Consultants",
    "phone": "(239) 888-9256",
    "address": "8871 Ventura Way  Naples, FL 34109",
    "location": "Levy"
  },
  {
    "name": "Crowdreviews.com",
    "description": "Internet Marketing & Advertising",
    "phone": "(239) 234-1996",
    "address": "9045 Strada Stell Ct  Naples, FL 34109",
    "location": "Levy"
  },
  {
    "name": "Koller Marketing Group",
    "description": "Direct Marketing Services",
    "phone": "(239) 293-4659",
    "address": "15582 Summit Place Cir  Naples, FL 34119",
    "location": "Levy"
  },
  {
    "name": "Naples Digital Marketing Agency Fannit",
    "description": "Internet Marketing & Advertising",
    "phone": "(239) 345-3680",
    "address": "811 Wilson Blvd S  Naples, FL 34117",
    "location": "Levy"
  },
  {
    "name": "Reber Thomas Marketing",
    "description": "Marketing Consultants",
    "phone": "(239) 598-9091",
    "address": "1937 Isla De Palma Cir  Naples, FL 34119",
    "location": "Levy"
  },
  {
    "name": "Professional Writing Services",
    "description": "Marketing Consultants",
    "phone": "(407) 738-8445",
    "address": "Po Box 112533  Naples, FL 34108",
    "location": "Levy"
  },
  {
    "name": "EyeMagination",
    "description": "Internet Marketing & Advertising",
    "phone": "(941) 375-0352",
    "address": "1791 Morning Sun Ln  Naples, FL 34119",
    "location": "Levy"
  },
  {
    "name": "A Sound Choice Entertainment",
    "description": "Internet Marketing & Advertising",
    "phone": "(239) 352-9988",
    "address": "14534 Indigo Lakes Cir  Naples, FL 34119",
    "location": "Levy"
  },
  {
    "name": "Effectv",
    "description": "Advertising Agencies",
    "phone": "(888) 877-9799",
    "address": "999 Vanderbilt Beach Rd  Naples, FL 34108",
    "location": "Levy"
  },
  {
    "name": "KNUT",
    "description": "Internet Marketing & Advertising",
    "phone": "(239) 880-5688",
    "address": "999 Vanderbilt Beach Rd Ste 200  Naples, FL 34108",
    "location": "Levy"
  },
  {
    "name": "Primary Resources Inc",
    "description": "Marketing Consultants",
    "phone": "(239) 262-2004",
    "address": "999 Vanderbilt Beach Rd Ste 200  Naples, FL 34108",
    "location": "Levy"
  },
  {
    "name": "AVE MARIA WEB, LLC",
    "description": "Internet Marketing & Advertising",
    "phone": "(239) 675-3080",
    "address": "9128 Strada Pl Ste 10115  Naples, FL 34108",
    "location": "Levy"
  },
  {
    "name": "Search Mavericks",
    "description": "Internet Marketing & Advertising",
    "phone": "(877) 388-1392",
    "address": "9128 Strada Pl  Naples, FL 34108",
    "location": "Levy"
  },
  {
    "name": "DNA",
    "description": "Internet Marketing & Advertising",
    "phone": "(239) 592-4478",
    "address": "2155 Malibu Lake Cir  Naples, FL 34119",
    "location": "Levy"
  },
  {
    "name": "My SEO Social",
    "description": "Internet Marketing & Advertising",
    "phone": "(954) 600-1663",
    "address": "1236 Laurel Ct  Marco Island, FL 34145",
    "location": "Levy"
  },
  {
    "name": "Web by Doug",
    "description": "Internet Marketing & Advertising",
    "phone": "(239) 249-2842",
    "address": "1083 N Collier Blvd # 328  Marco Island, FL 34145",
    "location": "Levy"
  },
  {
    "name": "Bbbi",
    "description": "Marketing Consultants",
    "phone": "(239) 389-9583",
    "address": "583 Tallwood St  Marco Island, FL 34145",
    "location": "Levy"
  },
  {
    "name": "Brian Joseph Studios Naples Web Design",
    "description": "Web Site Design & Services",
    "phone": "(239) 280-1294",
    "address": "1000 8th St NE  Naples, FL 34120",
    "location": "Levy"
  },
  {
    "name": "IntegrityNETwrox",
    "description": "Web Site Hosting",
    "phone": "(239) 354-3017",
    "address": "5633 Strand Blvd Ste 314  Naples, FL 34110",
    "location": "Levy"
  },
  {
    "name": "Bluematter",
    "description": "Marketing Consultants",
    "phone": "(800) 759-9412",
    "address": "4500 Executive Dr  Naples, FL 34119",
    "location": "Levy"
  },
  {
    "name": "Activedata Mobile",
    "description": "Marketing Consultants",
    "phone": "(239) 631-5292",
    "address": "4500 Executive Dr Ste 230  Naples, FL 34119",
    "location": "Levy"
  },
  {
    "name": "1-800-GRANOLA.com",
    "description": "Marketing Consultants",
    "phone": "(800) 472-6652",
    "address": "15275 Collier Blvd Suite 201-222  Naples, FL 34119",
    "location": "Levy"
  },
  {
    "name": "Kfe Consulting",
    "description": "Marketing Consultants",
    "phone": "(239) 450-9072",
    "address": "4289 Court Ln  Naples, FL 34109",
    "location": "Levy"
  },
  {
    "name": "Bisnista Michelle Inc.",
    "description": "Business Coaches & Consultants",
    "phone": "(850) 966-3010",
    "address": "5660 Strand Court #A204  Naples, FL 34110",
    "location": "Levy"
  },
  {
    "name": "Smart Spider",
    "description": "Marketing Consultants",
    "phone": "(239) 307-8806",
    "address": "5644 Tavilla Cir Ste 207  Naples, FL 34110",
    "location": "Levy"
  },
  {
    "name": "Rusty Hat Enterprises",
    "description": "Internet Marketing & Advertising",
    "phone": "(239) 287-0193",
    "address": "460 Launch Cir Apt 303  Naples, FL 34108",
    "location": "Levy"
  },
  {
    "name": "Webpuzzlemaster Digital Marketing Agency",
    "description": "Marketing Consultants",
    "phone": "(239) 293-7695",
    "address": "15275 Collier Blvd Ste 201/207  Naples, FL 34119",
    "location": "Levy"
  },
  {
    "name": "WBN Marketing",
    "description": "Internet Marketing & Advertising",
    "phone": "(239) 919-0933",
    "address": "15275 Collier Blvd  Naples, FL 34119",
    "location": "Levy"
  },
  {
    "name": "B-Squared Advertising",
    "description": "Print Advertising",
    "phone": "(239) 593-3600",
    "address": "5675 Strand Ct  Naples, FL 34110",
    "location": "Levy"
  },
  {
    "name": "Chaos Marketing",
    "description": "Marketing Consultants",
    "phone": "(239) 431-8182",
    "address": "5625 Strand Blvd Ste 508  Naples, FL 34110",
    "location": "Levy"
  },
  {
    "name": "Distributor Partners of America",
    "description": "Marketing Consultants",
    "phone": "(239) 593-0111",
    "address": "5633 Strand Blvd  Naples, FL 34110",
    "location": "Levy"
  },
  {
    "name": "Coral Canyon",
    "description": "Internet Marketing & Advertising",
    "phone": "(239) 571-7518",
    "address": "164 Coral Vine Dr  Naples, FL 34110",
    "location": "Levy"
  },
  {
    "name": "O K Koral Marketing",
    "description": "Marketing Consultants",
    "phone": "(239) 250-0071",
    "address": "11398 Phoenix Way  Naples, FL 34119",
    "location": "Levy"
  },
  {
    "name": "Over 2 Social",
    "description": "Marketing Consultants",
    "phone": "(239) 234-2444",
    "address": "1185 Immokalee Rd  Naples, FL 34110",
    "location": "Levy"
  },
  {
    "name": "Blackfrog Agency",
    "description": "Advertising Agencies",
    "phone": "(888) 799-6003",
    "address": "2211 Noble Ct  Naples, FL 34110",
    "location": "Levy"
  },
  {
    "name": "1800Towsafe.com",
    "description": "Internet Marketing & Advertising",
    "phone": "(239) 321-5514",
    "address": "13260 Immokalee Rd  Naples, FL 34120",
    "location": "Levy"
  },
  {
    "name": "Access Marketing Services",
    "description": "Direct Mail Advertising",
    "phone": "(239) 254-0175",
    "address": "1085 Business Ln Ste 4  Naples, FL 34110",
    "location": "Levy"
  },
  {
    "name": "Proforma Dynamic Image",
    "description": "Advertising-Promotional Products",
    "phone": "(239) 592-0086",
    "address": "3160 Orange Grove Trl  Naples, FL 34120",
    "location": "Levy"
  },
  {
    "name": "Social Plug",
    "description": "Internet Marketing & Advertising",
    "phone": "(239) 877-4424",
    "address": "2172 Vardin pl  Naples, FL 34120",
    "location": "Levy"
  },
  {
    "name": "Lisa Wilkinson, Creative Consultant",
    "description": "Copy Writers",
    "phone": "(239) 438-8133",
    "address": "2540 27th Ave NE  Naples, FL 34120",
    "location": "Levy"
  },
  {
    "name": "Avon Calling",
    "description": "Marketing Consultants",
    "phone": "(239) 352-3372",
    "address": "4220 22nd St NE  Naples, FL 34120",
    "location": "Levy"
  },
  {
    "name": "Forkdevils Interactive",
    "description": "Marketing Consultants",
    "phone": "(239) 961-5903",
    "address": "136 Marco Villas S  Marco Island, FL 34145",
    "location": "Levy"
  },
  {
    "name": "Dream Maker",
    "description": "Marketing Consultants",
    "phone": "(239) 389-0089",
    "address": "2040 Sheffield Ave  Marco Island, FL 34145",
    "location": "Levy"
  },
  {
    "name": "Get Social Marco",
    "description": "Internet Marketing & Advertising",
    "phone": "(239) 777-2364",
    "address": "1721 San Marco Rd  Marco Island, FL 34145",
    "location": "Levy"
  },
  {
    "name": "Fresh Catch Marketing",
    "description": "Public Relations Counselors",
    "phone": "(239) 389-0317",
    "address": "599 S Collier Blvd Ste 217  Marco Island, FL 34145",
    "location": "Levy"
  },
  {
    "name": "Gear Promotions",
    "description": "Advertising-Promotional Products",
    "phone": "(239) 389-6156",
    "address": "991 Mendel Ave  Marco Island, FL 34145",
    "location": "Levy"
  },
  {
    "name": "Davis Productions Inc",
    "description": "Marketing Consultants",
    "phone": "(239) 389-9583",
    "address": "830 Inlet Dr  Marco Island, FL 34145",
    "location": "Levy"
  },
  {
    "name": "Snookhooker",
    "description": "Internet Marketing & Advertising",
    "phone": "(908) 675-6700",
    "address": "385 Angler Dr  Goodland, FL 34140",
    "location": "Levy"
  }
]
