[
  {
    "name": "Oso Marketing",
    "description": "Marketing Programs & Services",
    "phone": "(847) 922-3994",
    "address": "600 Florida Ave  Cocoa, FL 32923",
    "location": "Liberty"
  },
  {
    "name": "M B Marketing & Manufacturing Co",
    "description": "Marketing Programs & Services",
    "phone": "(321) 631-7688",
    "address": "322 Clearlake Rd  Cocoa, FL 32922",
    "location": "Liberty"
  },
  {
    "name": "Lead Machine",
    "description": "Marketing Programs & Services",
    "phone": "(321) 373-3536",
    "address": "234 E Merritt Island Cswy  Merritt Island, FL 32952",
    "location": "Liberty"
  },
  {
    "name": "Zephyr Studio",
    "description": "Marketing Programs & Services",
    "phone": "(321) 848-6909",
    "address": "6208 Erik Ct  Melbourne, FL 32940",
    "location": "Liberty"
  },
  {
    "name": "Microwave Component Marketing Inc",
    "description": "Marketing Programs & Services",
    "phone": "(321) 452-0358",
    "address": "750 Venetian Way  Merritt Island, FL 32953",
    "location": "Liberty"
  },
  {
    "name": "SCB Marketing",
    "description": "Marketing Programs & Services",
    "phone": "(321) 622-5986",
    "address": "335 Pineda Ct  Melbourne, FL 32940",
    "location": "Liberty"
  },
  {
    "name": "Roswell US",
    "description": "Marketing Programs & Services",
    "phone": "(321) 639-0893",
    "address": "3370 Grissom Pkwy  Cocoa, FL 32926",
    "location": "Liberty"
  },
  {
    "name": "Impact Platforms",
    "description": "Marketing Programs & Services",
    "phone": "(833) 438-4672",
    "address": "1980 N Atlantic Ave  Cocoa Beach, FL 32931",
    "location": "Liberty"
  },
  {
    "name": "Westgate Marketing",
    "description": "Marketing Programs & Services",
    "phone": "(407) 351-3351",
    "address": "401 Meade Ave  Cocoa Beach, FL 32931",
    "location": "Liberty"
  },
  {
    "name": "Jones & Trevor Marketing",
    "description": "Marketing Programs & Services",
    "phone": "(321) 986-8501",
    "address": "4774 Navaho Trl  Merritt Island, FL 32953",
    "location": "Liberty"
  },
  {
    "name": "Florida SEO",
    "description": "Marketing Programs & Services",
    "phone": "(321) 613-2524",
    "address": "201 International Dr  Cape Canaveral, FL 32920",
    "location": "Liberty"
  },
  {
    "name": "First Wave Marketing",
    "description": "Marketing Programs & Services",
    "phone": "(321) 806-8799",
    "address": "3912 Orchard Dr  Melbourne, FL 32940",
    "location": "Liberty"
  },
  {
    "name": "Davenport Marketing",
    "description": "Marketing Programs & Services",
    "phone": "(321) 405-2585",
    "address": "3540 Heartwood Ln  Melbourne, FL 32934",
    "location": "Liberty"
  },
  {
    "name": "GYB Marketing Inc",
    "description": "Marketing Programs & Services",
    "phone": "(321) 392-3132",
    "address": "8501 Astronaut Blvd Ste 5  Cape Canaveral, FL 32920",
    "location": "Liberty"
  },
  {
    "name": "Totall Recall I Nc",
    "description": "Marketing Programs & Services",
    "phone": "(321) 613-2115",
    "address": "395 Harbor Dr  Cape Canaveral, FL 32920",
    "location": "Liberty"
  },
  {
    "name": "Buzz Local",
    "description": "Marketing Programs & Services",
    "phone": "(850) 819-4736",
    "address": "6411 Cable Ave  Cocoa, FL 32927",
    "location": "Liberty"
  },
  {
    "name": "Southbound Sales & Marketing",
    "description": "Marketing Programs & Services",
    "phone": "(321) 777-3533",
    "address": "537 Hawksbill Island Dr  Satellite Beach, FL 32937",
    "location": "Liberty"
  },
  {
    "name": "STP Marketing",
    "description": "Marketing Programs & Services",
    "phone": "(321) 296-8135",
    "address": "2915 Kemblewick Dr  Melbourne, FL 32935",
    "location": "Liberty"
  },
  {
    "name": "Ebove & Beyond",
    "description": "Marketing Programs & Services",
    "phone": "(954) 778-0047",
    "address": "245 Grant Ave  Satellite Beach, FL 32937",
    "location": "Liberty"
  },
  {
    "name": "Environmental Marketing Services",
    "description": "Marketing Programs & Services",
    "phone": "(204) 952-4709",
    "address": "109 Glenwood Ave  Satellite Beach, FL 32937",
    "location": "Liberty"
  },
  {
    "name": "BiznessOpt.com, Inc.",
    "description": "Marketing Programs & Services",
    "phone": "(321) 254-3824",
    "address": "2084 Lakeview Dr  Melbourne, FL 32935",
    "location": "Liberty"
  },
  {
    "name": "Straight Shot",
    "description": "Marketing Programs & Services",
    "phone": "(321) 253-3412",
    "address": "715 North Dr Ste B  Melbourne, FL 32934",
    "location": "Liberty"
  },
  {
    "name": "DCWebDesign Studio",
    "description": "Marketing Programs & Services",
    "phone": "(321) 446-3183",
    "address": "1861 S Patrick Dr Ste 174  Indian Harbour Beach, FL 32937",
    "location": "Liberty"
  },
  {
    "name": "Vox Monkey",
    "description": "Marketing Programs & Services",
    "phone": "(407) 963-8460",
    "address": "390 N Wickham Rd Ste G  Melbourne, FL 32935",
    "location": "Liberty"
  },
  {
    "name": "International Marketing Service",
    "description": "Marketing Programs & Services",
    "phone": "(321) 723-4290",
    "address": "7715 Progress Cir  West Melbourne, FL 32904",
    "location": "Liberty"
  },
  {
    "name": "Marketing Affiliates",
    "description": "Marketing Programs & Services",
    "phone": "(321) 622-5852",
    "address": "274 N Babcock St  Melbourne, FL 32935",
    "location": "Liberty"
  },
  {
    "name": "Jms",
    "description": "Marketing Programs & Services",
    "phone": "(321) 914-0930",
    "address": "551 S Apollo Blvd Ste 204  Melbourne, FL 32901",
    "location": "Liberty"
  },
  {
    "name": "GridTek Utility Services",
    "description": "Marketing Programs & Services",
    "phone": "(321) 724-1700",
    "address": "1688 W Hibiscus Blvd  Melbourne, FL 32901",
    "location": "Liberty"
  },
  {
    "name": "E & K Marketing Group",
    "description": "Marketing Programs & Services",
    "phone": "(321) 984-8729",
    "address": "1103 W Hibiscus Blvd  Melbourne, FL 32901",
    "location": "Liberty"
  },
  {
    "name": "Push Design and Printing",
    "description": "Marketing Programs & Services",
    "phone": "(321) 591-1645",
    "address": "1101 W Hibiscus Blvd  Melbourne, FL 32901",
    "location": "Liberty"
  },
  {
    "name": "Space Coast Marketing Inc",
    "description": "Marketing Programs & Services",
    "phone": "(321) 848-2353",
    "address": "100 Rialto Pl  Melbourne, FL 32901",
    "location": "Liberty"
  },
  {
    "name": "Come Write This",
    "description": "Marketing Programs & Services",
    "phone": "(321) 802-3029",
    "address": "Po Box 23029  Melbourne, FL 32902",
    "location": "Liberty"
  },
  {
    "name": "P and W Services",
    "description": "Marketing Programs & Services",
    "phone": "(321) 220-8265",
    "address": "2078 Lionel Dr  Melbourne, FL 32940",
    "location": "Liberty"
  },
  {
    "name": "Brandt Ronat & Company",
    "description": "Marketing Programs & Services",
    "phone": "(321) 453-3101",
    "address": "60 McLeod St  Merritt Island, FL 32953",
    "location": "Liberty"
  },
  {
    "name": "Video Display Corporation",
    "description": "Marketing Programs & Services",
    "phone": "(321) 784-4427",
    "address": "5155 King St  Cocoa, FL 32926",
    "location": "Liberty"
  },
  {
    "name": "Mds Vacation Marketing",
    "description": "Marketing Programs & Services",
    "phone": "(321) 305-6969",
    "address": "273 Crockett Blvd  Merritt Island, FL 32953",
    "location": "Liberty"
  },
  {
    "name": "Jeanos LLC",
    "description": "Marketing Programs & Services",
    "phone": "(321) 205-4334",
    "address": "2023 N Atlantic Ave # 27  Cocoa Beach, FL 32931",
    "location": "Liberty"
  },
  {
    "name": "Space Coast City Guide",
    "description": "Marketing Programs & Services",
    "phone": "(321) 544-3440",
    "address": "8934 Puerto Del Rio Dr Unit 204  Cape Canaveral, FL 32920",
    "location": "Liberty"
  },
  {
    "name": "Crowder and Company, LLC",
    "description": "Marketing Programs & Services",
    "phone": "(321) 216-3112",
    "address": "8501 Astronaut Blvd  Cape Canaveral, FL 32920",
    "location": "Liberty"
  },
  {
    "name": "SPACE COAST COUPONS Inc.",
    "description": "Marketing Programs & Services",
    "phone": "(321) 268-7667",
    "address": "8501 Astronaut Blvd  Cape Canaveral, FL 32920",
    "location": "Liberty"
  },
  {
    "name": "SPACE COAST SMS Inc. TEXT MESSAGE MARKETING",
    "description": "Marketing Programs & Services",
    "phone": "(321) 438-7325",
    "address": "8501 Astronaut Blvd  Cape Canaveral, FL 32920",
    "location": "Liberty"
  },
  {
    "name": "Black Tie Digital Marketing",
    "description": "Marketing Programs & Services",
    "phone": "(800) 316-8030",
    "address": "3692 N Wickham Rd Ste A  Melbourne, FL 32935",
    "location": "Liberty"
  },
  {
    "name": "Mahalo Marketing",
    "description": "Marketing Programs & Services",
    "phone": "(321) 305-3636",
    "address": "607 Manatee Dr  Satellite Beach, FL 32937",
    "location": "Liberty"
  },
  {
    "name": "Dunham Accounting & Business Solutions, Inc.",
    "description": "Marketing Programs & Services",
    "phone": "(321) 622-5094",
    "address": "1127 S Patrick Dr  Satellite Beach, FL 32937",
    "location": "Liberty"
  },
  {
    "name": "The Paramount Group.us",
    "description": "Marketing Programs & Services",
    "phone": "(321) 238-8225",
    "address": "1110 Highway A1A  Satellite Beach, FL 32937",
    "location": "Liberty"
  },
  {
    "name": "B2K12 Branding Solutions",
    "description": "Marketing Programs & Services",
    "phone": "(321) 200-0427",
    "address": "2165 Avocado Ave  Melbourne, FL 32935",
    "location": "Liberty"
  },
  {
    "name": "Valpak of Space Coast FL",
    "description": "Marketing Programs & Services",
    "phone": "(321) 622-8157",
    "address": "1600 Sarno Rd, #119H  Melbourne, FL 32935",
    "location": "Liberty"
  },
  {
    "name": "Accent Technologies Inc",
    "description": "Marketing Programs & Services",
    "phone": "(321) 242-7438",
    "address": "1411 Highland Ave  Melbourne, FL 32935",
    "location": "Liberty"
  },
  {
    "name": "Promotional Plus Inc.",
    "description": "Marketing Programs & Services",
    "phone": "(321) 327-5694",
    "address": "Po Box 120604  Melbourne, FL 32912",
    "location": "Liberty"
  },
  {
    "name": "Moana Creative Marketing",
    "description": "Marketing Programs & Services",
    "phone": "(321) 622-0181",
    "address": "1010 Pinetree Dr Apt 205  Indian Harbour Beach, FL 32937",
    "location": "Liberty"
  },
  {
    "name": "Wolfpack Advising",
    "description": "Marketing Programs & Services",
    "phone": "(321) 209-0953",
    "address": "205 West Dr  Melbourne, FL 32904",
    "location": "Liberty"
  },
  {
    "name": "Elite Marketing Pro",
    "description": "Marketing Programs & Services",
    "phone": "(877) 401-3422",
    "address": "274 E Eau Gallie Blvd Ste 375  Indian Harbour Beach, FL 32937",
    "location": "Liberty"
  },
  {
    "name": "International Minute Press",
    "description": "Marketing Programs & Services",
    "phone": "(321) 242-7766",
    "address": "701 S Apollo Blvd  Melbourne, FL 32901",
    "location": "Liberty"
  },
  {
    "name": "AutoUpLinkUSA Of Florida",
    "description": "Internet Marketing & Advertising",
    "phone": "(800) 443-2139",
    "address": "1720 bridgeport cir  Rockledge, FL 32955",
    "location": "Liberty"
  },
  {
    "name": "Adverleads",
    "description": "Internet Marketing & Advertising",
    "phone": "(321) 693-0963",
    "address": "2944 Matthew Dr  Rockledge, FL 32955",
    "location": "Liberty"
  },
  {
    "name": "Dragonfly Web Solutions LLC",
    "description": "Business & Trade Organizations",
    "phone": "(321) 505-9212",
    "address": "PO Box 560894  Rockledge, FL 32956",
    "location": "Liberty"
  },
  {
    "name": "JDot Media",
    "description": "Aerial Photographers",
    "phone": "(813) 618-3908",
    "address": "937 Yorktowne Dr  Rockledge, FL 32955",
    "location": "Liberty"
  },
  {
    "name": "Dentist Finder US",
    "description": "Internet Marketing & Advertising",
    "phone": "(321) 305-4588",
    "address": "819 Topaz Dr  Rockledge, FL 32955",
    "location": "Liberty"
  },
  {
    "name": "Viera Networks",
    "description": "Internet Consultants",
    "phone": "(321) 622-3309",
    "address": "3810 Murrell Rd Suite 201  Rockledge, FL 32955",
    "location": "Liberty"
  },
  {
    "name": "Brevard Graphics",
    "description": "Internet Marketing & Advertising",
    "phone": "(321) 368-2744",
    "address": "524 Glenbrook Cir  Rockledge, FL 32955",
    "location": "Liberty"
  },
  {
    "name": "Allegra Design Print Mail",
    "description": "Printing Services",
    "phone": "(321) 632-7272",
    "address": "2040 Murrell Rd  Rockledge, FL 32955",
    "location": "Liberty"
  },
  {
    "name": "Acquatic Plant Technolgy",
    "description": "Market Research & Analysis",
    "phone": "(321) 638-4300",
    "address": "365 Gus Hipp Blvd  Rockledge, FL 32955",
    "location": "Liberty"
  },
  {
    "name": "Azurea Inc",
    "description": "Market Research & Analysis",
    "phone": "(321) 631-0610",
    "address": "365 Gus Hipp Blvd  Rockledge, FL 32955",
    "location": "Liberty"
  },
  {
    "name": "Db Environmental Inc",
    "description": "Market Research & Analysis",
    "phone": "(321) 639-4896",
    "address": "365 Gus Hipp Blvd  Rockledge, FL 32955",
    "location": "Liberty"
  },
  {
    "name": "ShopinPal, Inc.",
    "description": "Internet Marketing & Advertising",
    "phone": "(321) 617-5696",
    "address": "328 Brookcrest Cir  Rockledge, FL 32955",
    "location": "Liberty"
  },
  {
    "name": "Portable LED.com",
    "description": "Internet Marketing & Advertising",
    "phone": "(321) 631-6150",
    "address": "1740 Huntington Ln  Rockledge, FL 32955",
    "location": "Liberty"
  },
  {
    "name": "Gabrielli Marketing",
    "description": "Internet Marketing & Advertising",
    "phone": "(321) 996-0027",
    "address": "881 Barton Blvd  Rockledge, FL 32955",
    "location": "Liberty"
  },
  {
    "name": "WebBaze",
    "description": "Web Site Design & Services",
    "phone": "(321) 298-2533",
    "address": "000 Murrell Rd  Rockledge, FL 32955",
    "location": "Liberty"
  },
  {
    "name": "Nuance",
    "description": "Marketing Consultants",
    "phone": "(321) 632-2410",
    "address": "1616 Sun Gazer Dr  Rockledge, FL 32955",
    "location": "Liberty"
  },
  {
    "name": "Madhouse Media Company",
    "description": "Internet Marketing & Advertising",
    "phone": "(561) 339-9654",
    "address": "1892 Sun Gazer Dr  Rockledge, FL 32955",
    "location": "Liberty"
  },
  {
    "name": "Hmbaccounting.com",
    "description": "Internet Marketing & Advertising",
    "phone": "(321) 433-1191",
    "address": "976 Brevard Ave  Rockledge, FL 32955",
    "location": "Liberty"
  },
  {
    "name": "Sewell & Associates",
    "description": "Marketing Consultants",
    "phone": "(321) 432-2031",
    "address": "891 Sandhill Crane Ct  Rockledge, FL 32955",
    "location": "Liberty"
  },
  {
    "name": "TYPE AB CREATIVE",
    "description": "Graphic Designers",
    "phone": "(321) 266-9222",
    "address": "633 Brevard Ave Ste B  Cocoa, FL 32922",
    "location": "Liberty"
  },
  {
    "name": "Digi Donkey Web Design",
    "description": "Internet Marketing & Advertising",
    "phone": "(321) 433-0801",
    "address": "315 Brevard Ave  Cocoa, FL 32922",
    "location": "Liberty"
  },
  {
    "name": "Ferrell James G And Associates",
    "description": "Marketing Consultants",
    "phone": "(321) 632-4374",
    "address": "120 Harrison St  Cocoa, FL 32922",
    "location": "Liberty"
  },
  {
    "name": "765 Media LLC",
    "description": "Print Advertising",
    "phone": "(321) 735-9842",
    "address": "252 Brevard Ave  Cocoa, FL 32922",
    "location": "Liberty"
  },
  {
    "name": "Hines International Education & Travelling LLC",
    "description": "Marketing Consultants",
    "phone": "(321) 258-7217",
    "address": "3624 Gatwick Manor Ln  Melbourne, FL 32940",
    "location": "Liberty"
  },
  {
    "name": "LivingSMARTERandSafer",
    "description": "Management Training",
    "phone": "(904) 323-2235",
    "address": "1903 Crane Creek Blvd  Melbourne, FL 32940",
    "location": "Liberty"
  },
  {
    "name": "Matchmaker Business Brokers",
    "description": "Directory & Guide Advertising",
    "phone": "(321) 452-3462",
    "address": "435 Woodland St  Merritt Island, FL 32953",
    "location": "Liberty"
  },
  {
    "name": "My Island Designs",
    "description": "Internet Consultants",
    "phone": "(321) 301-4797",
    "address": "517 N Courtenay Pkwy  Merritt Island, FL 32953",
    "location": "Liberty"
  },
  {
    "name": "Shawk Technology Inc.",
    "description": "Internet Marketing & Advertising",
    "phone": "(321) 506-9345",
    "address": "330 Alabama Ave  Merritt Island, FL 32953",
    "location": "Liberty"
  },
  {
    "name": "Adfactor, Inc.",
    "description": "Internet Marketing & Advertising",
    "phone": "(877) 328-7552",
    "address": "1129 N Courtenay Pkwy  Merritt Island, FL 32953",
    "location": "Liberty"
  },
  {
    "name": "Mtrb Inc",
    "description": "Marketing Consultants",
    "phone": "(321) 453-6068",
    "address": "327 Magnolia Ave  Merritt Island, FL 32952",
    "location": "Liberty"
  },
  {
    "name": "PIP Marketing, Signs, Print",
    "description": "Printing Services",
    "phone": "(321) 452-2800",
    "address": "275 Magnolia Ave Ste 2  Merritt Island, FL 32952",
    "location": "Liberty"
  },
  {
    "name": "Senior-Linx",
    "description": "Consultants Referral Service",
    "phone": "(321) 474-8289",
    "address": "PO Box 540704  Merritt Island, FL 32954",
    "location": "Liberty"
  },
  {
    "name": "Just Face It Media",
    "description": "Marketing Consultants",
    "phone": "(321) 474-7409",
    "address": "137 S Courtenay Pkwy # 604  Merritt Island, FL 32952",
    "location": "Liberty"
  },
  {
    "name": "LocaliQ",
    "description": "Advertising Agencies",
    "phone": "(877) 525-6084",
    "address": "1005 Viera Blvd Unit 101  Viera, FL 32955",
    "location": "Liberty"
  },
  {
    "name": "Florida Digital Media",
    "description": "Web Site Design & Services",
    "phone": "(321) 757-2788",
    "address": "222 Teal Drive  Cocoa, FL 32926",
    "location": "Liberty"
  },
  {
    "name": "Moetto Mobile Marketing",
    "description": "Coupon Advertising",
    "phone": "(321) 345-6630",
    "address": "915 N Courtenay Pkwy  Merritt Island, FL 32953",
    "location": "Liberty"
  },
  {
    "name": "The Timeless CEO",
    "description": "Directory & Guide Advertising",
    "phone": "(321) 408-7612",
    "address": "1175 N Courtenay Pkwy Ste 4A  Merritt Island, FL 32953",
    "location": "Liberty"
  },
  {
    "name": "Drumup Media Group",
    "description": "Internet Marketing & Advertising",
    "phone": "(321) 505-4583",
    "address": "1048 Carriage Hill Road  Melbourne, FL 32940",
    "location": "Liberty"
  },
  {
    "name": "Yellow Page Directory Service Inc",
    "description": "Directory & Guide Advertising",
    "phone": "(321) 254-6012",
    "address": "640 Classic Ct  Melbourne, FL 32940",
    "location": "Liberty"
  },
  {
    "name": "Certified Internet Solutions",
    "description": "Internet Consultants",
    "phone": "(321) 412-6658",
    "address": "530 Wickham Lakes Dr  Melbourne, FL 32940",
    "location": "Liberty"
  },
  {
    "name": "All Media Graphics",
    "description": "Editorial & Publication Services",
    "phone": "(321) 698-1550",
    "address": "7777 N Wickham Rd Ste 12-124  Melbourne, FL 32940",
    "location": "Liberty"
  },
  {
    "name": "SearhCred Inc.",
    "description": "Internet Marketing & Advertising",
    "phone": "(855) 736-2723",
    "address": "7777 N Wickham Rd  Melbourne, FL 32940",
    "location": "Liberty"
  },
  {
    "name": "M.I.T. Mobile Integrated Technologies",
    "description": "Marketing Consultants",
    "phone": "(321) 412-6667",
    "address": "201 Plantation Club Dr Apt 105  Melbourne, FL 32940",
    "location": "Liberty"
  },
  {
    "name": "Mad Hatter Promotions",
    "description": "Internet Marketing & Advertising",
    "phone": "(321) 543-1346",
    "address": "340 Myrtlewood Rd  Melbourne, FL 32940",
    "location": "Liberty"
  },
  {
    "name": "Space Coast Sales",
    "description": "Internet Marketing & Advertising",
    "phone": "(321) 453-7627",
    "address": "1635 Yates Dr  Merritt Island, FL 32952",
    "location": "Liberty"
  },
  {
    "name": "Brevard Insurance & Marketing, Inc.",
    "description": "Insurance",
    "phone": "(321) 783-2404",
    "address": "PO Box 320770  Cocoa Beach, FL 32932",
    "location": "Liberty"
  },
  {
    "name": "Digital Blades Marketing",
    "description": "Internet Marketing & Advertising",
    "phone": "(321) 613-8451",
    "address": "428 S Orlando Avenue Unit C  Cocoa Beach, FL 32931",
    "location": "Liberty"
  },
  {
    "name": "Cycn Management & Marketing Inc",
    "description": "Marketing Consultants",
    "phone": "(321) 757-4017",
    "address": "3270 Suntree Blvd Ste 1101  Melbourne, FL 32940",
    "location": "Liberty"
  },
  {
    "name": "P1studios.Com",
    "description": "Marketing Consultants",
    "phone": "(954) 510-6216",
    "address": "1203 Vestavia Cir  Melbourne, FL 32940",
    "location": "Liberty"
  },
  {
    "name": "Invision Multimedia",
    "description": "Internet Marketing & Advertising",
    "phone": "(321) 253-1000",
    "address": "6300 N Wickham Rd  Melbourne, FL 32940",
    "location": "Liberty"
  },
  {
    "name": "TipTopWebsite.com",
    "description": "Internet Marketing & Advertising",
    "phone": "(800) 753-5129",
    "address": "2023 N Atlantic Ave  Cocoa Beach, FL 32931",
    "location": "Liberty"
  },
  {
    "name": "Jet Press",
    "description": "Printing Services",
    "phone": "(321) 783-5555",
    "address": "250 N Atlantic Ave  Cocoa Beach, FL 32931",
    "location": "Liberty"
  },
  {
    "name": "Onsite123.com",
    "description": "Internet Marketing & Advertising",
    "phone": "(321) 392-0697",
    "address": "2552 Meadow Ln  Cocoa, FL 32926",
    "location": "Liberty"
  },
  {
    "name": "Premier Marketing Group",
    "description": "Marketing Consultants",
    "phone": "(321) 868-4858",
    "address": "503 N Orlando Ave  Cocoa Beach, FL 32931",
    "location": "Liberty"
  },
  {
    "name": "Justsmallbiz Marketing",
    "description": "Marketing Consultants",
    "phone": "(321) 613-8476",
    "address": "830 N Atlantic Ave  Cocoa Beach, FL 32931",
    "location": "Liberty"
  },
  {
    "name": "Cmfmc Inc",
    "description": "Marketing Consultants",
    "phone": "(321) 454-6814",
    "address": "3765 Sierra Dr  Merritt Island, FL 32953",
    "location": "Liberty"
  },
  {
    "name": "QMtel Communications",
    "description": "Computer Software & Services",
    "phone": "(321) 323-1436",
    "address": "1980 N Atlantic Ave #121  Cocoa Beach, FL 32931",
    "location": "Liberty"
  },
  {
    "name": "Cocoa Beach Marketing Inc",
    "description": "Marketing Consultants",
    "phone": "(321) 784-3223",
    "address": "3670 N Atlantic Ave  Cocoa Beach, FL 32931",
    "location": "Liberty"
  },
  {
    "name": "Cocoa Beach Marketing",
    "description": "Marketing Consultants",
    "phone": "(321) 784-0946",
    "address": "4151 N Atlantic Ave  Cocoa Beach, FL 32931",
    "location": "Liberty"
  },
  {
    "name": "9 Mile Media",
    "description": "Internet Marketing & Advertising",
    "phone": "(321) 613-4805",
    "address": "103 Cleveland Ave  Cocoa Beach, FL 32931",
    "location": "Liberty"
  },
  {
    "name": "Cocoa Beach Mar Keting In",
    "description": "Marketing Consultants",
    "phone": "(321) 784-3223",
    "address": "7099 N Atlantic Ave  Cape Canaveral, FL 32920",
    "location": "Liberty"
  },
  {
    "name": "Space Coast Business Media",
    "description": "Marketing Consultants",
    "phone": "(321) 622-5986",
    "address": "5131 Industry Dr Ste 107  Melbourne, FL 32940",
    "location": "Liberty"
  },
  {
    "name": "DeSantis Digital Works LLC",
    "description": "Internet Marketing & Advertising",
    "phone": "(321) 626-4724",
    "address": "2725 Center Pl  Melbourne, FL 32940",
    "location": "Liberty"
  },
  {
    "name": "Front Page Solution",
    "description": "Internet Marketing & Advertising",
    "phone": "(321) 505-7932",
    "address": "4100 N Wickham Rd Ste 107A-198  Melbourne, FL 32935",
    "location": "Liberty"
  },
  {
    "name": "Digimarcon",
    "description": "Marketing Consultants",
    "phone": "(800) 805-5385",
    "address": "9050 Discovery Rd  Cape Canaveral, FL 32920",
    "location": "Liberty"
  },
  {
    "name": "V Enterprises",
    "description": "Direct Marketing Services",
    "phone": "(321) 632-6642",
    "address": "6380 Aberfoyle Ave  Cocoa, FL 32927",
    "location": "Liberty"
  },
  {
    "name": "Big B Marketing",
    "description": "Internet Marketing & Advertising",
    "phone": "(321) 775-3995",
    "address": "455 Atlantis Dr  Satellite Beach, FL 32937",
    "location": "Liberty"
  },
  {
    "name": "E-Juice Connoisseur",
    "description": "Advertising-Shoppers Publications",
    "phone": "(321) 432-8631",
    "address": "2364 Eden Park Dr  Melbourne, FL 32935",
    "location": "Liberty"
  },
  {
    "name": "Mtn Advertising",
    "description": "Advertising Agencies",
    "phone": "(321) 779-1010",
    "address": "1355 S Patrick Dr  Satellite Beach, FL 32937",
    "location": "Liberty"
  },
  {
    "name": "Global Marketing Worldwide Inc",
    "description": "Marketing Consultants",
    "phone": "(321) 610-9992",
    "address": "2800 Aurora Rd  Melbourne, FL 32935",
    "location": "Liberty"
  },
  {
    "name": "Nautic Studios",
    "description": "Web Site Hosting",
    "phone": "(321) 684-7460",
    "address": "2800 Aurora Rd STE I  Melbourne, FL 32935",
    "location": "Liberty"
  },
  {
    "name": "Express Signs",
    "description": "Signs",
    "phone": "(321) 722-0280",
    "address": "1558 S Wickham Rd  Melbourne, FL 32904",
    "location": "Liberty"
  },
  {
    "name": "Qwiklight Digital Marketing Agency",
    "description": "Marketing Consultants",
    "phone": "(321) 505-3649",
    "address": "7065 Kaylor Ave  Cocoa, FL 32927",
    "location": "Liberty"
  },
  {
    "name": "IMJustice Marketing",
    "description": "Marketing Consultants",
    "phone": "(321) 622-5756",
    "address": "119 Lancha Circle Unit 204  Satellite Beach, FL 32937",
    "location": "Liberty"
  },
  {
    "name": "Out Front Marketing",
    "description": "Marketing Consultants",
    "phone": "(321) 220-5221",
    "address": "1290 Highway A1a  Satellite Beach, FL 32937",
    "location": "Liberty"
  },
  {
    "name": "E-Commerce",
    "description": "Marketing Consultants",
    "phone": "(321) 622-6375",
    "address": "1270 N Wickham Rd  Melbourne, FL 32935",
    "location": "Liberty"
  },
  {
    "name": "Braven Digital",
    "description": "Marketing Consultants",
    "phone": "(321) 339-1080",
    "address": "1370 Highway A1a  Satellite Beach, FL 32937",
    "location": "Liberty"
  },
  {
    "name": "Global Marketing Research Services",
    "description": "Market Research & Analysis",
    "phone": "(321) 723-7013",
    "address": "1507 Aurora Rd Ste C  Melbourne, FL 32935",
    "location": "Liberty"
  },
  {
    "name": "Global Marketing Research Services - GMRS",
    "description": "Market Research & Analysis",
    "phone": "(321) 723-7013",
    "address": "1507 Aurora Rd  Melbourne, FL 32935",
    "location": "Liberty"
  },
  {
    "name": "Abornewords",
    "description": "Internet Marketing & Advertising",
    "phone": "(321) 265-1461",
    "address": "1040 Masterson St  Melbourne, FL 32935",
    "location": "Liberty"
  },
  {
    "name": "Blue Tangerine",
    "description": "Web Site Design & Services",
    "phone": "(321) 309-6900",
    "address": "2020 W Eau Gallie Blvd Ste 105  Melbourne, FL 32935",
    "location": "Liberty"
  },
  {
    "name": "H5-Tech Solutions",
    "description": "Internet Marketing & Advertising",
    "phone": "(321) 421-7191",
    "address": "1600 W Eau Gallie Blvd  Melbourne, FL 32935",
    "location": "Liberty"
  },
  {
    "name": "McBride Marketing Group",
    "description": "Advertising Agencies",
    "phone": "(321) 259-1795",
    "address": "668 Law St  Melbourne, FL 32935",
    "location": "Liberty"
  },
  {
    "name": "McBride Woodbridge Marketing",
    "description": "Advertising Agencies",
    "phone": "(321) 259-1795",
    "address": "668 Law St  Melbourne, FL 32935",
    "location": "Liberty"
  },
  {
    "name": "Brightbiz Bookkeeping LLC",
    "description": "Bookkeeping",
    "phone": "(321) 917-2430",
    "address": "Po Box 361281  Melbourne, FL 32936",
    "location": "Liberty"
  },
  {
    "name": "Push Marketing Inc",
    "description": "Marketing Consultants",
    "phone": "(321) 241-4318",
    "address": "405 N Wickham Rd  Melbourne, FL 32935",
    "location": "Liberty"
  },
  {
    "name": "Mandala Arts LLC",
    "description": "Internet Marketing & Advertising",
    "phone": "(321) 626-3561",
    "address": "1600 Sarno Rd Ste 117  Melbourne, FL 32935",
    "location": "Liberty"
  },
  {
    "name": "Sun Marketing Group",
    "description": "Marketing Consultants",
    "phone": "(321) 253-5035",
    "address": "626 Montreal Ave  Melbourne, FL 32935",
    "location": "Liberty"
  },
  {
    "name": "CK Communications",
    "description": "Public Relations Counselors",
    "phone": "(321) 752-5802",
    "address": "457 Montreal Ave  Melbourne, FL 32935",
    "location": "Liberty"
  },
  {
    "name": "Marketing World Specialties",
    "description": "Marketing Consultants",
    "phone": "(321) 421-7515",
    "address": "1360 Sarno Rd  Melbourne, FL 32935",
    "location": "Liberty"
  },
  {
    "name": "Next Level Digital Media & Marketing",
    "description": "Internet Marketing & Advertising",
    "phone": "(321) 213-3553",
    "address": "255 East Dr Ste L  Melbourne, FL 32904",
    "location": "Liberty"
  },
  {
    "name": "Leaf the Ad",
    "description": "Marketing Consultants",
    "phone": "(321) 600-4132",
    "address": "508 N Harbor City Blvd  Melbourne, FL 32935",
    "location": "Liberty"
  },
  {
    "name": "USA Marketing Associates",
    "description": "Marketing Consultants",
    "phone": "(321) 733-0475",
    "address": "630 S Wickham Rd  Melbourne, FL 32904",
    "location": "Liberty"
  },
  {
    "name": "The Florida Design Group",
    "description": "Web Site Design & Services",
    "phone": "(321) 541-1425",
    "address": "218a E Eau Gallie Blvd # 165  Indian Harbour Beach, FL 32937",
    "location": "Liberty"
  },
  {
    "name": "Www.woodsimplymade.com",
    "description": "Internet Marketing & Advertising",
    "phone": "(321) 506-4434",
    "address": "692 Atlantis Rd  Melbourne, FL 32904",
    "location": "Liberty"
  },
  {
    "name": "Astro Marketing Inc",
    "description": "Marketing Consultants",
    "phone": "(321) 727-8817",
    "address": "6939 Vickie Cir  Melbourne, FL 32904",
    "location": "Liberty"
  },
  {
    "name": "World Search Design",
    "description": "Internet Marketing & Advertising",
    "phone": "(703) 473-8121",
    "address": "520 Conifer St  Melbourne, FL 32904",
    "location": "Liberty"
  },
  {
    "name": "Jail Bail Bonds Melbourne",
    "description": "Marketing Consultants",
    "phone": "(321) 307-2165",
    "address": "592 Dr Martin Luther King Jr Blvd  Melbourne, FL 32901",
    "location": "Liberty"
  },
  {
    "name": "Rock Paper Simple",
    "description": "Web Site Design & Services",
    "phone": "(321) 626-2172",
    "address": "1335 Gateway Dr Suite 2007  Melbourne, FL 32901",
    "location": "Liberty"
  },
  {
    "name": "Ebay Enterprise",
    "description": "Marketing Consultants",
    "phone": "(321) 724-8597",
    "address": "915 S Babcock St  Melbourne, FL 32901",
    "location": "Liberty"
  },
  {
    "name": "W.W Marketing",
    "description": "Marketing Consultants",
    "phone": "(321) 216-5021",
    "address": "650 Strawberry Ln  Melbourne, FL 32901",
    "location": "Liberty"
  },
  {
    "name": "Fueled on Bacon",
    "description": "Cellular Telephone Service",
    "phone": "(321) 426-0555",
    "address": "1103 W Hibiscus Blvd Ste 408  Melbourne, FL 32901",
    "location": "Liberty"
  },
  {
    "name": "YP Marketing Solutions",
    "description": "Directory & Guide Advertising",
    "phone": "(321) 956-5400",
    "address": "100 Rialto Pl Ste 1010  Melbourne, FL 32901",
    "location": "Liberty"
  },
  {
    "name": "SEO Experts Inc",
    "description": "Internet Marketing & Advertising",
    "phone": "(321) 613-1316",
    "address": "100 Rialto Pl Ste 711  Melbourne, FL 32901",
    "location": "Liberty"
  },
  {
    "name": "Launchworks Marketing",
    "description": "Internet Marketing & Advertising",
    "phone": "(321) 988-4769",
    "address": "100 Rialto Pl Ste 700  Melbourne, FL 32901",
    "location": "Liberty"
  }
]
