[
  {
    "name": "Davis Marketing Group",
    "description": "Marketing Programs & Services",
    "phone": "(850) 673-9533",
    "address": "128 E Base St  Madison, FL 32340",
    "location": "Madison"
  },
  {
    "name": "Plante Marketing Group Inc",
    "description": "Marketing Programs & Services",
    "phone": "(386) 658-3945",
    "address": "7686 207th Rd  Dowling Park, FL 32060",
    "location": "Madison"
  },
  {
    "name": "1804 Entertainment Alliance",
    "description": "Web Site Hosting",
    "phone": "(866) 937-1804",
    "address": "PO Box 0000  Valdosta, GA 31603",
    "location": "Madison"
  },
  {
    "name": "Anchored Media Marketing",
    "description": "Internet Marketing & Advertising",
    "phone": "(702) 506-2211",
    "address": "4013 Johnston Rd  Valdosta, GA 31606",
    "location": "Madison"
  },
  {
    "name": "Signaturesurveys.com",
    "description": "Internet Marketing & Advertising",
    "phone": "(866) 863-9117",
    "address": "2167 E 21st St  Valdosta, GA 31601",
    "location": "Madison"
  },
  {
    "name": "Hammer Automative Marketing",
    "description": "Computer Software & Services",
    "phone": "(229) 333-8006",
    "address": "3794 Kinderlou Frst  Valdosta, GA 31601",
    "location": "Madison"
  },
  {
    "name": "Envision Marketing Group",
    "description": "Marketing Programs & Services",
    "phone": "(413) 525-6661",
    "address": "2935 N Ashley St  Valdosta, GA 31602",
    "location": "Madison"
  },
  {
    "name": "24-7 Tech",
    "description": "Computers & Computer Equipment-Service & Repair",
    "phone": "(850) 295-1409",
    "address": "301 E Hampton Springs Ave  Perry, FL 32347",
    "location": "Madison"
  },
  {
    "name": "Nick Alan SEO",
    "description": "Internet Marketing & Advertising",
    "phone": "(229) 469-8155",
    "address": "100 N Patterson St # 101  Valdosta, GA 31601",
    "location": "Madison"
  },
  {
    "name": "Acquired Digital Marketing and Advertising",
    "description": "Internet Marketing & Advertising",
    "phone": "(229) 548-0455",
    "address": "3321 N Valdosta Rd  Valdosta, GA 31602",
    "location": "Madison"
  },
  {
    "name": "Fusion Creative Marketing",
    "description": "Advertising Agencies",
    "phone": "(229) 460-0479",
    "address": "210 E Alden Ave  Valdosta, GA 31602",
    "location": "Madison"
  },
  {
    "name": "Crown Produce Market",
    "description": "Direct Marketing Services",
    "phone": "(229) 333-7807",
    "address": "3950 Old Highway 41 N  Valdosta, GA 31602",
    "location": "Madison"
  },
  {
    "name": "Modern Web Design",
    "description": "Internet Marketing & Advertising",
    "phone": "(229) 224-0960",
    "address": "990 S Jefferson St  Monticello, FL 32344",
    "location": "Madison"
  },
  {
    "name": "Safety Hand Rakes",
    "description": "Internet Marketing & Advertising",
    "phone": "(229) 292-8833",
    "address": "1616 Euclid St  Valdosta, GA 31602",
    "location": "Madison"
  },
  {
    "name": "Seorank Agency",
    "description": "Advertising Agencies",
    "phone": "(850) 223-1210",
    "address": "3454 San Pedro Rd  Perry, FL 32347",
    "location": "Madison"
  },
  {
    "name": "Clark's Marketing",
    "description": "Marketing Consultants",
    "phone": "(386) 219-0579",
    "address": "13339 County Road 136  Live Oak, FL 32060",
    "location": "Madison"
  },
  {
    "name": "Image Matters",
    "description": "Marketing Consultants",
    "phone": "(229) 548-2874",
    "address": "112 N Patterson St  Valdosta, GA 31601",
    "location": "Madison"
  },
  {
    "name": "RPM Diagnostics",
    "description": "Business Coaches & Consultants",
    "phone": "(229) 232-5406",
    "address": "509 N Patterson St  Valdosta, GA 31601",
    "location": "Madison"
  },
  {
    "name": "Vector Marketing",
    "description": "Marketing Consultants",
    "phone": "(229) 232-8262",
    "address": "902 N Ashley St  Valdosta, GA 31601",
    "location": "Madison"
  },
  {
    "name": "Economy Transfers",
    "description": "Marketing Consultants",
    "phone": "(229) 232-4375",
    "address": "411 Cowart Ave  Valdosta, GA 31602",
    "location": "Madison"
  },
  {
    "name": "Smp Marketing",
    "description": "Marketing Consultants",
    "phone": "(229) 242-7539",
    "address": "2225 Bemiss Rd  Valdosta, GA 31602",
    "location": "Madison"
  },
  {
    "name": "Affectpoint",
    "description": "Publishers-Directory & Guide",
    "phone": "(229) 539-9504",
    "address": "3700 Bermuda Run Dr  Valdosta, GA 31605",
    "location": "Madison"
  }
]
