[
  {
    "name": "Ustci",
    "description": "Marketing Programs & Services",
    "phone": "(941) 744-1400",
    "address": "2840 Manatee Ave E  Bradenton, FL 34208",
    "location": "Manatee"
  },
  {
    "name": "T J Marketing Inc",
    "description": "Marketing Programs & Services",
    "phone": "(941) 900-2341",
    "address": "1204 44th Ave E  Bradenton, FL 34203",
    "location": "Manatee"
  },
  {
    "name": "Real Authority",
    "description": "Marketing Programs & Services",
    "phone": "(941) 870-2778",
    "address": "1133 Riverscape St  Bradenton, FL 34208",
    "location": "Manatee"
  },
  {
    "name": "AI Marketing Team",
    "description": "Marketing Programs & Services",
    "phone": "(941) 229-1195",
    "address": "2333 53rd Ave E Unit 1735  Oneco, FL 34264",
    "location": "Manatee"
  },
  {
    "name": "JRR Marketing Brokers",
    "description": "Marketing Programs & Services",
    "phone": "(941) 779-8149",
    "address": "1930 24th Ave W  Palmetto, FL 34221",
    "location": "Manatee"
  },
  {
    "name": "Strategic Networks",
    "description": "Marketing Programs & Services",
    "phone": "(941) 363-1638",
    "address": "4112 53rd Ave E  Bradenton, FL 34203",
    "location": "Manatee"
  },
  {
    "name": "Entech North",
    "description": "Marketing Programs & Services",
    "phone": "(866) 800-0026",
    "address": "615 67th Street Cir E  Bradenton, FL 34208",
    "location": "Manatee"
  },
  {
    "name": "TruReach Marketing",
    "description": "Marketing Programs & Services",
    "phone": "(888) 315-4769",
    "address": "7322 Manatee Ave W  Bradenton, FL 34209",
    "location": "Manatee"
  },
  {
    "name": "American Marine",
    "description": "Marketing Programs & Services",
    "phone": "(941) 356-4522",
    "address": "7322 Manatee Ave W  Bradenton, FL 34209",
    "location": "Manatee"
  },
  {
    "name": "Zenith Marketing Group Inc",
    "description": "Marketing Programs & Services",
    "phone": "(732) 577-1400",
    "address": "824 Magellan Dr  Sarasota, FL 34243",
    "location": "Manatee"
  },
  {
    "name": "Twin Towers Trading Corp",
    "description": "Marketing Programs & Services",
    "phone": "(732) 786-8010",
    "address": "7168 15th St E  Sarasota, FL 34243",
    "location": "Manatee"
  },
  {
    "name": "National In-Store",
    "description": "Marketing Programs & Services",
    "phone": "(941) 358-3384",
    "address": "7425 16th St E Ste 101  Sarasota, FL 34243",
    "location": "Manatee"
  },
  {
    "name": "Foundation Marketing Group Inc",
    "description": "Marketing Programs & Services",
    "phone": "(727) 372-4670",
    "address": "8955 Us Highway 301 N  Parrish, FL 34219",
    "location": "Manatee"
  },
  {
    "name": "Vantrum",
    "description": "Marketing Programs & Services",
    "phone": "(941) 200-3737",
    "address": "8720 Port Harbour Pkwy  Bradenton, FL 34212",
    "location": "Manatee"
  },
  {
    "name": "Schroeder Marketing Inc",
    "description": "Marketing Programs & Services",
    "phone": "(941) 708-5243",
    "address": "6155 Aviary Ct  Bradenton, FL 34203",
    "location": "Manatee"
  },
  {
    "name": "Home Care Marketing Pros",
    "description": "Marketing Programs & Services",
    "phone": "(888) 861-2337",
    "address": "230 Sapphire Lake Dr Unit 201  Bradenton, FL 34209",
    "location": "Manatee"
  },
  {
    "name": "PERC",
    "description": "Marketing Programs & Services",
    "phone": "(612) 254-6300",
    "address": "11130 Battery Park Place  Bradenton, FL 34211",
    "location": "Manatee"
  },
  {
    "name": "International Aviation Marketing Inc",
    "description": "Marketing Programs & Services",
    "phone": "(941) 355-5353",
    "address": "8191 N Tamiami Trl Ste 220  Sarasota, FL 34243",
    "location": "Manatee"
  },
  {
    "name": "True Wellness Marketing",
    "description": "Marketing Programs & Services",
    "phone": "(877) 664-4654",
    "address": "1816 57th St Ste A301  Sarasota, FL 34243",
    "location": "Manatee"
  },
  {
    "name": "Milligan, Thomas",
    "description": "Marketing Programs & Services",
    "phone": "(941) 359-0328",
    "address": "1126 Four Seasons Cir Apt 209  Sarasota, FL 34234",
    "location": "Manatee"
  },
  {
    "name": "Sherpa Media",
    "description": "Marketing Programs & Services",
    "phone": "(941) 444-1699",
    "address": "2203 Industrial Blvd  Sarasota, FL 34234",
    "location": "Manatee"
  },
  {
    "name": "Intercon Marketing Inc Contoure",
    "description": "Marketing Programs & Services",
    "phone": "(941) 355-4488",
    "address": "1540 Northgate Blvd  Sarasota, FL 34234",
    "location": "Manatee"
  },
  {
    "name": "Vector Marketing",
    "description": "Marketing Programs & Services",
    "phone": "(941) 358-4929",
    "address": "1939 Northgate Blvd  Sarasota, FL 34234",
    "location": "Manatee"
  },
  {
    "name": "Foster Business Development, LLC",
    "description": "Marketing Programs & Services",
    "phone": "(941) 962-3827",
    "address": "8374 Market St # 189  Lakewood Ranch, FL 34202",
    "location": "Manatee"
  },
  {
    "name": "Daniel DeCaro Real Estate Auction",
    "description": "Marketing Programs & Services",
    "phone": "(941) 504-3555",
    "address": "29 Avenue Of The Flowers  Longboat Key, FL 34228",
    "location": "Manatee"
  },
  {
    "name": "Tweed Marketing, Inc.",
    "description": "Marketing Programs & Services",
    "phone": "(941) 525-0552",
    "address": "1226 N Tamiami Trl  Sarasota, FL 34236",
    "location": "Manatee"
  },
  {
    "name": "Monolith Marketing",
    "description": "Marketing Programs & Services",
    "phone": "(941) 350-5835",
    "address": "1232 Zacchini Ave  Sarasota, FL 34237",
    "location": "Manatee"
  },
  {
    "name": "Barbara Peat consulting",
    "description": "Marketing Programs & Services",
    "phone": "(941) 524-9023",
    "address": "3448 Tallywood Circle  Sarasota, FL 34243",
    "location": "Manatee"
  },
  {
    "name": "Ilandguide Worldwide Inc",
    "description": "Marketing Programs & Services",
    "phone": "(718) 445-7131",
    "address": "677 N Washington Blvd  Sarasota, FL 34236",
    "location": "Manatee"
  },
  {
    "name": "Book Week Partners",
    "description": "Marketing Programs & Services",
    "phone": "(800) 950-2371",
    "address": "677 N Washington Blvd # 31  Sarasota, FL 34236",
    "location": "Manatee"
  },
  {
    "name": "Johnson Marketing Group",
    "description": "Marketing Programs & Services",
    "phone": "(941) 955-3200",
    "address": "1785 6th St  Sarasota, FL 34236",
    "location": "Manatee"
  },
  {
    "name": "C R A Marketing Inc",
    "description": "Marketing Programs & Services",
    "phone": "(941) 955-5585",
    "address": "1401 2nd St  Sarasota, FL 34236",
    "location": "Manatee"
  },
  {
    "name": "Tu Marketing Digital",
    "description": "Marketing Programs & Services",
    "phone": "(727) 564-0631",
    "address": "3167 8th St  Sarasota, FL 34237",
    "location": "Manatee"
  },
  {
    "name": "Expo Marketing",
    "description": "Marketing Programs & Services",
    "phone": "(941) 444-6464",
    "address": "1819 Main St  Sarasota, FL 34236",
    "location": "Manatee"
  },
  {
    "name": "Magnum Marketing PC",
    "description": "Marketing Programs & Services",
    "phone": "(941) 388-7359",
    "address": "1900 Main St  Sarasota, FL 34236",
    "location": "Manatee"
  },
  {
    "name": "Rumble, Inc",
    "description": "Marketing Programs & Services",
    "phone": "(941) 210-0196",
    "address": "444 Gulf Of Mexico Dr  Longboat Key, FL 34228",
    "location": "Manatee"
  },
  {
    "name": "PRO Team Networking",
    "description": "Marketing Programs & Services",
    "phone": "(727) 277-2055",
    "address": "2803 Fruitville Rd  Sarasota, FL 34237",
    "location": "Manatee"
  },
  {
    "name": "Cyber Marketing Services",
    "description": "Marketing Programs & Services",
    "phone": "(941) 702-8389",
    "address": "5343 Paylor Ln  Lakewood Ranch, FL 34240",
    "location": "Manatee"
  },
  {
    "name": "Michel Sport Marketing Inc",
    "description": "Marketing Programs & Services",
    "phone": "(941) 954-3782",
    "address": "201 Bird Key Dr  Sarasota, FL 34236",
    "location": "Manatee"
  },
  {
    "name": "Trump Media & Technology Group Corp",
    "description": "Marketing Programs & Services",
    "phone": "(941) 735-7346",
    "address": "401 N Cattlemen Rd  Sarasota, FL 34232",
    "location": "Manatee"
  },
  {
    "name": "Socially 24/7",
    "description": "Marketing Programs & Services",
    "phone": "(941) 212-0100",
    "address": "1505 Bay View Dr  Sarasota, FL 34239",
    "location": "Manatee"
  },
  {
    "name": "Dealer Rewards",
    "description": "Marketing Programs & Services",
    "phone": "(302) 537-2194",
    "address": "2275 Vihia Vis  Sarasota, FL 34239",
    "location": "Manatee"
  },
  {
    "name": "Trace Marketing Inc",
    "description": "Marketing Programs & Services",
    "phone": "(941) 927-2202",
    "address": "3243 Espanola Dr  Sarasota, FL 34239",
    "location": "Manatee"
  },
  {
    "name": "Shoot the Moon Productions",
    "description": "Marketing Programs & Services",
    "phone": "(941) 378-0099",
    "address": "4025 Linwood St  Sarasota, FL 34232",
    "location": "Manatee"
  },
  {
    "name": "New Lefe Digital Marketing",
    "description": "Marketing Programs & Services",
    "phone": "(941) 706-2249",
    "address": "3933 Breck Ln  Sarasota, FL 34232",
    "location": "Manatee"
  },
  {
    "name": "Menu's R Us",
    "description": "Marketing Programs & Services",
    "phone": "(800) 489-2605",
    "address": "3230 Southgate Cir Suite 140  Sarasota, FL 34239",
    "location": "Manatee"
  },
  {
    "name": "Prospects Plus",
    "description": "Marketing Programs & Services",
    "phone": "(941) 342-9700",
    "address": "5875 Bahia Vista St  Sarasota, FL 34232",
    "location": "Manatee"
  },
  {
    "name": "High Road Marketing",
    "description": "Marketing Programs & Services",
    "phone": "(941) 953-4608",
    "address": "3800 S Tamiami Trl Unit 312  Sarasota, FL 34239",
    "location": "Manatee"
  },
  {
    "name": "Sharper Advertising",
    "description": "Marketing Programs & Services",
    "phone": "(941) 702-8607",
    "address": "1235 Sarasota Center Blvd  Sarasota, FL 34240",
    "location": "Manatee"
  },
  {
    "name": "Marketing Concepts & Designs",
    "description": "Marketing Programs & Services",
    "phone": "(941) 266-8783",
    "address": "4421 Spahn St  Sarasota, FL 34232",
    "location": "Manatee"
  },
  {
    "name": "E Coupons Florida Marketing Grou",
    "description": "Marketing Programs & Services",
    "phone": "(941) 342-0900",
    "address": "6120 Porter Rd  Sarasota, FL 34240",
    "location": "Manatee"
  },
  {
    "name": "CD Central",
    "description": "Marketing Programs & Services",
    "phone": "(941) 925-0800",
    "address": "3322 Bee Ridge Rd Ste 100  Sarasota, FL 34239",
    "location": "Manatee"
  },
  {
    "name": "Sweeney Marketing Group Inc",
    "description": "Marketing Programs & Services",
    "phone": "(941) 371-7010",
    "address": "70 Sarasota Center Blvd  Sarasota, FL 34240",
    "location": "Manatee"
  },
  {
    "name": "Vision Innovations",
    "description": "Marketing Programs & Services",
    "phone": "(941) 377-5900",
    "address": "40 Sarasota Center Blvd  Sarasota, FL 34240",
    "location": "Manatee"
  },
  {
    "name": "Repatron",
    "description": "Marketing Programs & Services",
    "phone": "(941) 363-1014",
    "address": "4411 Bee Ridge Rd  Sarasota, FL 34233",
    "location": "Manatee"
  },
  {
    "name": "Arp Diverse Marketing Consulting",
    "description": "Marketing Programs & Services",
    "phone": "(561) 420-9063",
    "address": "1728 Pinyon Pine Dr  Sarasota, FL 34240",
    "location": "Manatee"
  },
  {
    "name": "Confluent Creative",
    "description": "Marketing Programs & Services",
    "phone": "(941) 722-0317",
    "address": "717 Manatee Ave W Ste 100  Bradenton, FL 34205",
    "location": "Manatee"
  },
  {
    "name": "Deckard & Company",
    "description": "Marketing Programs & Services",
    "phone": "(941) 462-4546",
    "address": "1201 6th Ave W Ste 100  Bradenton, FL 34205",
    "location": "Manatee"
  },
  {
    "name": "Net Sphere",
    "description": "Marketing Programs & Services",
    "phone": "(941) 300-0531",
    "address": "1201 6th Ave W  Bradenton, FL 34205",
    "location": "Manatee"
  },
  {
    "name": "Siesta Digital",
    "description": "Marketing Programs & Services",
    "phone": "(941) 999-3200",
    "address": "4101 Lake Bayshore Dr  Bradenton, FL 34205",
    "location": "Manatee"
  },
  {
    "name": "Purple Gazelle",
    "description": "Marketing Programs & Services",
    "phone": "(941) 840-0755",
    "address": "6212 29th St E  Bradenton, FL 34203",
    "location": "Manatee"
  },
  {
    "name": "NutsITLab, L.L.C.",
    "description": "Marketing Programs & Services",
    "phone": "(941) 524-4401",
    "address": "6150 State Road 70 E  Bradenton, FL 34203",
    "location": "Manatee"
  },
  {
    "name": "Mp Usa",
    "description": "Marketing Programs & Services",
    "phone": "(941) 727-7700",
    "address": "2319 72nd Ave E  Sarasota, FL 34243",
    "location": "Manatee"
  },
  {
    "name": "Minuteman Press",
    "description": "Marketing Programs & Services",
    "phone": "(941) 739-6602",
    "address": "5103 Lena Rd Unit 107  Bradenton, FL 34211",
    "location": "Manatee"
  },
  {
    "name": "Cactus Sky Digital",
    "description": "Marketing Programs & Services",
    "phone": "(941) 756-1932",
    "address": "5454 Lena Rd Unit 104  Bradenton, FL 34211",
    "location": "Manatee"
  },
  {
    "name": "Wedding/Bachelorette Customized Party Goods",
    "description": "Marketing Programs & Services",
    "phone": "(941) 877-0205",
    "address": "12715 Nightshade Place  Bradenton, FL 34202",
    "location": "Manatee"
  },
  {
    "name": "99 Calls",
    "description": "Marketing Programs & Services",
    "phone": "(800) 717-4669",
    "address": "10930 State Road 70 E  Lakewood Ranch, FL 34202",
    "location": "Manatee"
  },
  {
    "name": "Boldindesign",
    "description": "Marketing Programs & Services",
    "phone": "(941) 780-5385",
    "address": "12806 24th Street Cir E  Parrish, FL 34219",
    "location": "Manatee"
  },
  {
    "name": "AMI Creative Studio",
    "description": "Marketing Programs & Services",
    "phone": "(941) 773-9665",
    "address": "3101 Avenue F  Holmes Beach, FL 34217",
    "location": "Manatee"
  },
  {
    "name": "Mail-It",
    "description": "Marketing Programs & Services",
    "phone": "(941) 365-6245",
    "address": "1500 N Washington Blvd  Sarasota, FL 34236",
    "location": "Manatee"
  },
  {
    "name": "Main Street Search Marketing",
    "description": "Marketing Programs & Services",
    "phone": "(844) 326-4080",
    "address": "8130 Lakewood Main St, #321  Lakewood Ranch, FL 34202",
    "location": "Manatee"
  },
  {
    "name": "NetReputation",
    "description": "Marketing Programs & Services",
    "phone": "(941) 229-3696",
    "address": "1100 N Tuttle Ave  Sarasota, FL 34237",
    "location": "Manatee"
  },
  {
    "name": "Relativity SEO",
    "description": "Marketing Programs & Services",
    "phone": "(941) 251-5267",
    "address": "517 72nd St  Holmes Beach, FL 34217",
    "location": "Manatee"
  },
  {
    "name": "Puree Fantastico",
    "description": "Marketing Programs & Services",
    "phone": "(213) 925-1400",
    "address": "700 Cocoanut Ave Unit 420  Sarasota, FL 34236",
    "location": "Manatee"
  },
  {
    "name": "Wilde Productions",
    "description": "Marketing Programs & Services",
    "phone": "(941) 316-9888",
    "address": "461 N Orange Ave  Sarasota, FL 34236",
    "location": "Manatee"
  },
  {
    "name": "Wayne Marketing",
    "description": "Marketing Programs & Services",
    "phone": "(941) 702-2126",
    "address": "1962 Main St  Sarasota, FL 34236",
    "location": "Manatee"
  },
  {
    "name": "Digisphere Marketing Inc",
    "description": "Marketing Programs & Services",
    "phone": "(941) 342-0025",
    "address": "7273 Bee Ridge Rd  Sarasota, FL 34241",
    "location": "Manatee"
  },
  {
    "name": "Spredx",
    "description": "Marketing Programs & Services",
    "phone": "(941) 227-4857",
    "address": "1343 Main St Ste 312  Sarasota, FL 34236",
    "location": "Manatee"
  },
  {
    "name": "Kwik Kopy",
    "description": "Marketing Programs & Services",
    "phone": "(941) 365-2711",
    "address": "1900 Main St  Sarasota, FL 34236",
    "location": "Manatee"
  },
  {
    "name": "Ad Nerds Media",
    "description": "Marketing Programs & Services",
    "phone": "(941) 244-5015",
    "address": "1990 Main St  Sarasota, FL 34236",
    "location": "Manatee"
  },
  {
    "name": "Cheetah Agency",
    "description": "Marketing Programs & Services",
    "phone": "(941) 662-4242",
    "address": "1990 Main St  Sarasota, FL 34236",
    "location": "Manatee"
  },
  {
    "name": "Genesis Marketing",
    "description": "Marketing Programs & Services",
    "phone": "(941) 953-2400",
    "address": "727 S Orange Ave  Sarasota, FL 34236",
    "location": "Manatee"
  },
  {
    "name": "Lakewood Ranch Living Magazine",
    "description": "Marketing Programs & Services",
    "phone": "(941) 545-9772",
    "address": "938 Cronley Pl  Sarasota, FL 34237",
    "location": "Manatee"
  },
  {
    "name": "1 Up Rankings LLC",
    "description": "Marketing Programs & Services",
    "phone": "(941) 227-4850",
    "address": "3341 Gerhardt St  Sarasota, FL 34237",
    "location": "Manatee"
  },
  {
    "name": "Knight Marketing",
    "description": "Marketing Programs & Services",
    "phone": "(941) 361-3070",
    "address": "2032 Hawthorne St  Sarasota, FL 34239",
    "location": "Manatee"
  },
  {
    "name": "Modernized Marketing Methods",
    "description": "Marketing Programs & Services",
    "phone": "(888) 405-8701",
    "address": "Bee Ridge Road  Sarasota, FL 34233",
    "location": "Manatee"
  },
  {
    "name": "Brown Pine Cone",
    "description": "Marketing Programs & Services",
    "phone": "(941) 999-1399",
    "address": "6321 Porter Rd Ste 4  Sarasota, FL 34240",
    "location": "Manatee"
  },
  {
    "name": "Fpra",
    "description": "Marketing Programs & Services",
    "phone": "(941) 365-2135",
    "address": "40 Sarasota Center Blvd  Sarasota, FL 34240",
    "location": "Manatee"
  },
  {
    "name": "Klosable",
    "description": "Marketing Programs & Services",
    "phone": "(941) 247-0100",
    "address": "2201 Cantu Ct Ste 118  Sarasota, FL 34232",
    "location": "Manatee"
  },
  {
    "name": "Dinko Design LLC",
    "description": "Marketing Programs & Services",
    "phone": "(941) 735-8007",
    "address": "8536 Whispering St  Sarasota, FL 34240",
    "location": "Manatee"
  },
  {
    "name": "Brand Story Experts",
    "description": "Marketing Consultants",
    "phone": "(941) 747-7777",
    "address": "1911 Manatee Ave E  Bradenton, FL 34208",
    "location": "Manatee"
  },
  {
    "name": "Certified SEO",
    "description": "Interactive Media",
    "phone": "(941) 201-3294",
    "address": "824 Manatee Ave W  Bradenton, FL 34205",
    "location": "Manatee"
  },
  {
    "name": "D Boi Designs",
    "description": "Internet Marketing & Advertising",
    "phone": "(941) 565-0624",
    "address": "2208 19th St W  Bradenton, FL 34205",
    "location": "Manatee"
  },
  {
    "name": "Starwheel Websites",
    "description": "Web Site Design & Services",
    "phone": "(941) 557-7090",
    "address": "1201 6th Ave W Ste 100  Bradenton, FL 34205",
    "location": "Manatee"
  },
  {
    "name": "RYP Marketing",
    "description": "Internet Marketing & Advertising",
    "phone": "(941) 757-3075",
    "address": "1201 6th Ave W Ste 500c  Bradenton, FL 34205",
    "location": "Manatee"
  },
  {
    "name": "Straight Line Services",
    "description": "Advertising Agencies",
    "phone": "(941) 746-6117",
    "address": "1505 6th Ave W  Bradenton, FL 34205",
    "location": "Manatee"
  },
  {
    "name": "Myteamprints.com",
    "description": "Internet Marketing & Advertising",
    "phone": "(888) 940-9191",
    "address": "2850 Manatee Ave E  Bradenton, FL 34208",
    "location": "Manatee"
  },
  {
    "name": "KRHMYFLABIZ LLC",
    "description": "Telecommunications Consultants",
    "phone": "(941) 479-6164",
    "address": "2309 Manatee Ave W Apt 1  Bradenton, FL 34205",
    "location": "Manatee"
  }
]
