[
  {
    "name": "MCF Management",
    "description": "Marketing Programs & Services",
    "phone": "(305) 396-3936",
    "address": "237 NE 168th Ter  North Miami Beach, FL 33162",
    "location": "Martin"
  },
  {
    "name": "Modern Ways Marketing Inc",
    "description": "Marketing Programs & Services",
    "phone": "(305) 300-9798",
    "address": "16721 NE 6th Ave  North Miami Beach, FL 33162",
    "location": "Martin"
  },
  {
    "name": "TropicExposure,LLC",
    "description": "Marketing Programs & Services",
    "phone": "(754) 300-0799",
    "address": "1301 NE Miami Gardens Dr Ph 1  Miami, FL 33179",
    "location": "Martin"
  },
  {
    "name": "Profitable Promotions from Home.",
    "description": "Marketing Programs & Services",
    "phone": "(404) 838-6848",
    "address": "18035 NW 8th Pl  Miami, FL 33169",
    "location": "Martin"
  },
  {
    "name": "Lex Promotions & Mktng Group",
    "description": "Marketing Programs & Services",
    "phone": "(305) 974-4568",
    "address": "190 NE 199th St  Miami, FL 33179",
    "location": "Martin"
  },
  {
    "name": "Marketing Global Brand Corp",
    "description": "Marketing Programs & Services",
    "phone": "(786) 802-3159",
    "address": "16717 Park Centre Blvd  Miami, FL 33169",
    "location": "Martin"
  },
  {
    "name": "Extreme Advertising",
    "description": "Marketing Programs & Services",
    "phone": "(305) 761-1434",
    "address": "18730 NW 8th Ave  Miami, FL 33169",
    "location": "Martin"
  },
  {
    "name": "MGB Corp",
    "description": "Marketing Programs & Services",
    "phone": "(305) 620-2810",
    "address": "1015 Park Centre Blvd  Miami, FL 33169",
    "location": "Martin"
  },
  {
    "name": "Marketing Global",
    "description": "Marketing Programs & Services",
    "phone": "(305) 620-2810",
    "address": "1015 Park Centre Blvd  Miami, FL 33169",
    "location": "Martin"
  },
  {
    "name": "Remarketing Solutions International",
    "description": "Marketing Programs & Services",
    "phone": "(305) 623-1188",
    "address": "1098 NW 159th Dr  Miami, FL 33169",
    "location": "Martin"
  },
  {
    "name": "T3 - Global LLC",
    "description": "Marketing Programs & Services",
    "phone": "(305) 733-4206",
    "address": "19542 NW 7th Ct  Miami, FL 33169",
    "location": "Martin"
  },
  {
    "name": "Gregory St. Fort",
    "description": "Marketing Programs & Services",
    "phone": "(754) 801-0361",
    "address": "1648 NE 158 St  Miami, FL 33162",
    "location": "Martin"
  },
  {
    "name": "Wrell Inc. - Website Design & Marketing Services",
    "description": "Marketing Programs & Services",
    "phone": "(305) 458-2459",
    "address": "1750 NE 191st St  Miami, FL 33179",
    "location": "Martin"
  },
  {
    "name": "Screen Media Group | Digital Marketing Agency",
    "description": "Marketing Programs & Services",
    "phone": "(754) 300-0366",
    "address": "1835 NE Miami Gardens Dr # 299  Miami, FL 33179",
    "location": "Martin"
  },
  {
    "name": "C M Global Marketing Consultants",
    "description": "Marketing Programs & Services",
    "phone": "(888) 860-7620",
    "address": "1835 NE Miami Gardens Dr  Miami, FL 33179",
    "location": "Martin"
  },
  {
    "name": "United International Marketing",
    "description": "Marketing Programs & Services",
    "phone": "(305) 620-9597",
    "address": "1405 NW 167th St  Miami, FL 33169",
    "location": "Martin"
  },
  {
    "name": "Momentum Marketing Group",
    "description": "Marketing Programs & Services",
    "phone": "(305) 757-5894",
    "address": "1031 Ives Dairy Rd  Miami, FL 33179",
    "location": "Martin"
  },
  {
    "name": "Instant Win Sweepstakes",
    "description": "Marketing Programs & Services",
    "phone": "(786) 348-1674",
    "address": "470 NE 210th Circle Ter  Miami, FL 33179",
    "location": "Martin"
  },
  {
    "name": "Document Imaging in Miami",
    "description": "Marketing Programs & Services",
    "phone": "(954) 858-5752",
    "address": "Miami FL  Miami, FL 33173",
    "location": "Martin"
  },
  {
    "name": "Shemorbent Enterprise",
    "description": "Marketing Programs & Services",
    "phone": "(305) 354-9023",
    "address": "1767 NE 162nd St  North Miami Beach, FL 33162",
    "location": "Martin"
  },
  {
    "name": "Web Fuel Marketing",
    "description": "Marketing Programs & Services",
    "phone": "(954) 258-8333",
    "address": "16876 NE 19th Ave  North Miami Beach, FL 33162",
    "location": "Martin"
  },
  {
    "name": "Happy Days Tours",
    "description": "Marketing Programs & Services",
    "phone": "(305) 384-6110",
    "address": "16300 NE 19th Ave  North Miami Beach, FL 33162",
    "location": "Martin"
  },
  {
    "name": "Milestones Marketing",
    "description": "Marketing Programs & Services",
    "phone": "(305) 459-3320",
    "address": "1990 NE 163rd St  North Miami Beach, FL 33162",
    "location": "Martin"
  },
  {
    "name": "Lightning Marketing",
    "description": "Marketing Programs & Services",
    "phone": "(786) 657-2953",
    "address": "2040 NE 163rd St  North Miami Beach, FL 33162",
    "location": "Martin"
  },
  {
    "name": "Dauerflora Usa Inc.",
    "description": "Marketing Programs & Services",
    "phone": "(305) 654-0703",
    "address": "20725 NE 16th Ave  Miami, FL 33179",
    "location": "Martin"
  },
  {
    "name": "C N S Marketing",
    "description": "Marketing Programs & Services",
    "phone": "(305) 685-0091",
    "address": "14815 NW 11th Ave  Miami, FL 33168",
    "location": "Martin"
  },
  {
    "name": "Prestige Promotions",
    "description": "Marketing Programs & Services",
    "phone": "(305) 956-5974",
    "address": "20259 NE 15th Ct  Miami, FL 33179",
    "location": "Martin"
  },
  {
    "name": "Sci E-Marketing Inc",
    "description": "Marketing Programs & Services",
    "phone": "(305) 651-9311",
    "address": "200 NE 212th St  Miami, FL 33179",
    "location": "Martin"
  },
  {
    "name": "Estrategia Hispana",
    "description": "Marketing Programs & Services",
    "phone": "(786) 320-6877",
    "address": "20725 NE 16th Ave  Miami, FL 33179",
    "location": "Martin"
  },
  {
    "name": "Sell A Boat.com Inc",
    "description": "Marketing Programs & Services",
    "phone": "(305) 936-2489",
    "address": "2125 NE 204th St  Miami, FL 33179",
    "location": "Martin"
  },
  {
    "name": "Kad Marketing Corp",
    "description": "Marketing Programs & Services",
    "phone": "(888) 312-4994",
    "address": "18851 NE 29th Ave Ste 700  Miami, FL 33180",
    "location": "Martin"
  },
  {
    "name": "Corpocall",
    "description": "Marketing Programs & Services",
    "phone": "(786) 427-6666",
    "address": "2999 NE 191st St  Miami, FL 33180",
    "location": "Martin"
  },
  {
    "name": "MLA Consult, Inc",
    "description": "Marketing Programs & Services",
    "phone": "(786) 282-6157",
    "address": "17038 W Dixie Hwy Suite 179  North Miami Beach, FL 33160",
    "location": "Martin"
  },
  {
    "name": "GloberDesign",
    "description": "Marketing Programs & Services",
    "phone": "(800) 454-0049",
    "address": "17071 W Dixie Hwy  North Miami Beach, FL 33160",
    "location": "Martin"
  },
  {
    "name": "Yuka Group Inc",
    "description": "Marketing Programs & Services",
    "phone": "(786) 657-2446",
    "address": "1815 NE 144th St  North Miami, FL 33181",
    "location": "Martin"
  },
  {
    "name": "The Dental Concierge",
    "description": "Marketing Programs & Services",
    "phone": "(800) 723-9513",
    "address": "18117 Biscayne Blvd Ste 3060  Aventura, FL 33160",
    "location": "Martin"
  },
  {
    "name": "Miami Dolphins",
    "description": "Marketing Programs & Services",
    "phone": "(305) 943-8000",
    "address": "347 Don Shula Dr  Miami Gardens, FL 33056",
    "location": "Martin"
  },
  {
    "name": "OptFirst Internet Marketing",
    "description": "Marketing Programs & Services",
    "phone": "(305) 428-2539",
    "address": "620-1 Northeast 126th Street  North Miami, FL 33161",
    "location": "Martin"
  },
  {
    "name": "Cns Marketing Advertising Promotion",
    "description": "Marketing Programs & Services",
    "phone": "(786) 312-1067",
    "address": "13051 NW 7th Ave  North Miami, FL 33168",
    "location": "Martin"
  },
  {
    "name": "Diverse Holdings Marketing & Medical",
    "description": "Marketing Programs & Services",
    "phone": "(786) 303-5065",
    "address": "13899 Biscayne Blvd  North Miami Beach, FL 33181",
    "location": "Martin"
  },
  {
    "name": "Merrill Marketing",
    "description": "Marketing Programs & Services",
    "phone": "(603) 289-8795",
    "address": "2822 NE 187th St  Aventura, FL 33180",
    "location": "Martin"
  },
  {
    "name": "Bioquina Corp",
    "description": "Marketing Programs & Services",
    "phone": "(305) 893-2303",
    "address": "1073 NE 125th St  North Miami, FL 33161",
    "location": "Martin"
  },
  {
    "name": "Nomi",
    "description": "Marketing Programs & Services",
    "phone": "(305) 892-7938",
    "address": "1125 NE 125th St  North Miami, FL 33161",
    "location": "Martin"
  },
  {
    "name": "Industrial Marketing Media",
    "description": "Marketing Programs & Services",
    "phone": "(954) 963-1508",
    "address": "3600 S State Road 7  Miramar, FL 33023",
    "location": "Martin"
  },
  {
    "name": "Advertise In Miami For Free",
    "description": "Marketing Programs & Services",
    "phone": "(305) 654-9370",
    "address": "192 NE 111th St  Miami, FL 33161",
    "location": "Martin"
  },
  {
    "name": "Empire Marketing Productions",
    "description": "Marketing Programs & Services",
    "phone": "(305) 974-0098",
    "address": "3300 NE 192nd St  Miami, FL 33180",
    "location": "Martin"
  },
  {
    "name": "RA Sushi Holding Corp",
    "description": "Marketing Programs & Services",
    "phone": "(305) 593-0770",
    "address": "21500 Biscayne Blvd  Miami, FL 33180",
    "location": "Martin"
  },
  {
    "name": "Semantics Marketing Inc",
    "description": "Marketing Programs & Services",
    "phone": "(305) 792-4053",
    "address": "3181 NE 211th Ter  Miami, FL 33180",
    "location": "Martin"
  },
  {
    "name": "Demir Group International, Inc",
    "description": "Marketing Programs & Services",
    "phone": "(305) 456-7585",
    "address": "10800 Biscayne Blvd  Miami, FL 33161",
    "location": "Martin"
  },
  {
    "name": "Ultimate Software Solution",
    "description": "Marketing Programs & Services",
    "phone": "(305) 688-6258",
    "address": "745 NW 107th St  Miami, FL 33168",
    "location": "Martin"
  },
  {
    "name": "Mastermind Marketing Inc",
    "description": "Marketing Programs & Services",
    "phone": "(954) 274-3204",
    "address": "12355 NE 13th Ave  North Miami, FL 33161",
    "location": "Martin"
  },
  {
    "name": "Zath3201property",
    "description": "Marketing Programs & Services",
    "phone": "(954) 292-1717",
    "address": "3201 NE 183rd St  Aventura, FL 33160",
    "location": "Martin"
  },
  {
    "name": "Dimark Solutions LLC",
    "description": "Marketing Programs & Services",
    "phone": "(305) 469-9392",
    "address": "12550 Biscayne Blvd Ste 409  North Miami, FL 33181",
    "location": "Martin"
  },
  {
    "name": "M J M Global Service",
    "description": "Marketing Programs & Services",
    "phone": "(786) 362-5075",
    "address": "12550 Biscayne Blvd  North Miami, FL 33181",
    "location": "Martin"
  },
  {
    "name": "Sbp Media",
    "description": "Marketing Programs & Services",
    "phone": "(305) 440-5984",
    "address": "16420 NE 35th Ave  North Miami Beach, FL 33160",
    "location": "Martin"
  },
  {
    "name": "CitizenUSA",
    "description": "Marketing Programs & Services",
    "phone": "(305) 895-8975",
    "address": "2350 Arch Creek Dr  North Miami, FL 33181",
    "location": "Martin"
  },
  {
    "name": "iSOURCE MARKETING Inc.",
    "description": "Marketing Programs & Services",
    "phone": "(305) 432-4407",
    "address": "3205 NE 184th St Apt 9206  North Miami Beach, FL 33160",
    "location": "Martin"
  },
  {
    "name": "Progressive Leads",
    "description": "Marketing Programs & Services",
    "phone": "(800) 818-4182",
    "address": "19501 W Country Club Dr  Aventura, FL 33180",
    "location": "Martin"
  },
  {
    "name": "JAMAICA'S PROPERTY MARKETING",
    "description": "Marketing Programs & Services",
    "phone": "(704) 298-9628",
    "address": "19600 NW 30th Pl  Miami Gardens, FL 33056",
    "location": "Martin"
  },
  {
    "name": "Creative Marketing Concepts, Inc.",
    "description": "Marketing Programs & Services",
    "phone": "(305) 936-1035",
    "address": "21355 E Dixie Hwy Ste 106  Aventura, FL 33180",
    "location": "Martin"
  },
  {
    "name": "BNG BRANDING",
    "description": "Marketing Programs & Services",
    "phone": "(954) 734-4139",
    "address": "18725 NW 32nd Pl  Miami Gardens, FL 33056",
    "location": "Martin"
  },
  {
    "name": "Covert Marketing - Internet Marketing Agency",
    "description": "Marketing Programs & Services",
    "phone": "(954) 361-5438",
    "address": "250 174th St Apt 714  Sunny Isles Beach, FL 33160",
    "location": "Martin"
  },
  {
    "name": "Circle of One Marketing",
    "description": "Marketing Programs & Services",
    "phone": "(305) 576-3790",
    "address": "38 NW 105th St  Miami Shores, FL 33150",
    "location": "Martin"
  },
  {
    "name": "Institute For Luxury Home Marketing",
    "description": "Marketing Programs & Services",
    "phone": "(214) 485-3000",
    "address": "17600 Collins Ave  Sunny Isles Beach, FL 33160",
    "location": "Martin"
  },
  {
    "name": "Engine Marketing",
    "description": "Marketing Programs & Services",
    "phone": "(941) 623-2393",
    "address": "3416 W Lake Pl  Miramar, FL 33023",
    "location": "Martin"
  },
  {
    "name": "Creative Gospel 101 (CG101)",
    "description": "Marketing Programs & Services",
    "phone": "(754) 244-6654",
    "address": "3121 SW 64th Ave  Miramar, FL 33023",
    "location": "Martin"
  },
  {
    "name": "Riddims Marketing",
    "description": "Marketing Programs & Services",
    "phone": "(954) 251-1643",
    "address": "6151 Miramar Pkwy  Miramar, FL 33023",
    "location": "Martin"
  },
  {
    "name": "Dumesle Bariento Jean Baptiste",
    "description": "Marketing Programs & Services",
    "phone": "(954) 842-2498",
    "address": "6151 Miramar Pkwy  Miramar, FL 33023",
    "location": "Martin"
  },
  {
    "name": "Team Marketing Group",
    "description": "Marketing Programs & Services",
    "phone": "(754) 210-3600",
    "address": "3107 W Hallandale Beach Blvd  Hallandale, FL 33009",
    "location": "Martin"
  },
  {
    "name": "Get Bizible One Effective",
    "description": "Marketing Programs & Services",
    "phone": "(754) 203-6479",
    "address": "7451 Riviera Blvd  Miramar, FL 33023",
    "location": "Martin"
  },
  {
    "name": "Kissleads Inc",
    "description": "Marketing Programs & Services",
    "phone": "(305) 398-3232",
    "address": "1048 NW 1st Ct  Hallandale Beach, FL 33009",
    "location": "Martin"
  },
  {
    "name": "Waymaker Marketing & Professional Services",
    "description": "Marketing Programs & Services",
    "phone": "(954) 607-9776",
    "address": "4308 Pembroke Rd  Hollywood, FL 33021",
    "location": "Martin"
  },
  {
    "name": "Miami Gardens Observer Inc.",
    "description": "Marketing Programs & Services",
    "phone": "(786) 326-5204",
    "address": "5735 Pembroke Rd  Hollywood, FL 33023",
    "location": "Martin"
  },
  {
    "name": "UMG Marketing Group",
    "description": "Marketing Programs & Services",
    "phone": "(305) 204-1517",
    "address": "800 SE 4th Ave Ste 711  Hallandale Beach, FL 33009",
    "location": "Martin"
  },
  {
    "name": "The Marketing Depo Inc",
    "description": "Marketing Programs & Services",
    "phone": "(954) 251-3404",
    "address": "7971 Riviera Blvd Ste 308  Miramar, FL 33023",
    "location": "Martin"
  },
  {
    "name": "SEO Design Team",
    "description": "Marketing Programs & Services",
    "phone": "(305) 761-6338",
    "address": "19370 Collins Ave  Sunny Isles Beach, FL 33160",
    "location": "Martin"
  },
  {
    "name": "Tortuga Leads",
    "description": "Marketing Programs & Services",
    "phone": "(305) 607-5404",
    "address": "4000 Towerside Terrace  Miami, FL 33138",
    "location": "Martin"
  },
  {
    "name": "Progressive Marketing Solutions",
    "description": "Marketing Programs & Services",
    "phone": "(305) 932-1328",
    "address": "20281 E Country Club Dr  Miami, FL 33180",
    "location": "Martin"
  },
  {
    "name": "Usg International",
    "description": "Marketing Programs & Services",
    "phone": "(305) 688-5228",
    "address": "3001 NW 125th St  Miami, FL 33167",
    "location": "Martin"
  },
  {
    "name": "Wise Pro Solutions",
    "description": "Marketing Programs & Services",
    "phone": "(305) 340-4970",
    "address": "2467 NW 102nd St  Miami, FL 33147",
    "location": "Martin"
  },
  {
    "name": "Mrkt",
    "description": "Marketing Programs & Services",
    "phone": "(305) 572-1800",
    "address": "8325 NE 2nd Ave  Miami, FL 33138",
    "location": "Martin"
  },
  {
    "name": "Meel Corp",
    "description": "Marketing Programs & Services",
    "phone": "(305) 688-9199",
    "address": "11151 NW 36th Ave  Miami, FL 33167",
    "location": "Martin"
  },
  {
    "name": "BBM Marketing",
    "description": "Marketing Programs & Services",
    "phone": "(786) 553-8828",
    "address": "8101 Biscayne Blvd  Miami, FL 33138",
    "location": "Martin"
  },
  {
    "name": "Bosseo",
    "description": "Marketing Programs & Services",
    "phone": "(786) 244-2544",
    "address": "754 NE 81st St  Miami, FL 33138",
    "location": "Martin"
  },
  {
    "name": "Happy Head Marketing",
    "description": "Marketing Programs & Services",
    "phone": "(305) 981-0439",
    "address": "360 NE 75th St  Miami, FL 33138",
    "location": "Martin"
  },
  {
    "name": "Anchor Marketing Inc",
    "description": "Marketing Programs & Services",
    "phone": "(305) 864-4555",
    "address": "1177 Kane Concourse  Bay Harbor Islands, FL 33154",
    "location": "Martin"
  },
  {
    "name": "Up Ideas",
    "description": "Marketing Programs & Services",
    "phone": "(305) 572-5670",
    "address": "1160 Kane Concourse  Bay Harbor Islands, FL 33154",
    "location": "Martin"
  },
  {
    "name": "Balsu USA Inc",
    "description": "Marketing Programs & Services",
    "phone": "(305) 993-5045",
    "address": "1160 Kane Concourse Ste 100A  Bay Harbor Islands, FL 33154",
    "location": "Martin"
  },
  {
    "name": "Empyrean Marketing",
    "description": "Marketing Programs & Services",
    "phone": "(800) 987-6543",
    "address": "1001 91st St  Bay Harbor Islands, FL 33154",
    "location": "Martin"
  },
  {
    "name": "Marketing & Logistic",
    "description": "Marketing Programs & Services",
    "phone": "(786) 458-3082",
    "address": "4955 NW 199th St  Miami Gardens, FL 33055",
    "location": "Martin"
  },
  {
    "name": "Unique Marketing & Signage Corporation",
    "description": "Marketing Programs & Services",
    "phone": "(786) 539-8444",
    "address": "660 E 58th St  Hialeah, FL 33013",
    "location": "Martin"
  },
  {
    "name": "Marketing On-Line Inc",
    "description": "Marketing Programs & Services",
    "phone": "(305) 459-1481",
    "address": "1440 79th Street Cswy  North Bay Village, FL 33141",
    "location": "Martin"
  },
  {
    "name": "Big Thought Media",
    "description": "Marketing Programs & Services",
    "phone": "(954) 654-1578",
    "address": "7950 Tatum Waterway Dr  Miami Beach, FL 33141",
    "location": "Martin"
  },
  {
    "name": "Vericast",
    "description": "Marketing Programs & Services",
    "phone": "(305) 341-9500",
    "address": "5890 NW 163rd St  Miami Lakes, FL 33014",
    "location": "Martin"
  },
  {
    "name": "Valassis",
    "description": "Marketing Programs & Services",
    "phone": "(305) 556-9609",
    "address": "5890 NW 163rd St  Miami Lakes, FL 33014",
    "location": "Martin"
  },
  {
    "name": "Diamedix Corp",
    "description": "Marketing Programs & Services",
    "phone": "(305) 324-2300",
    "address": "14100 NW 57th Ct  Miami Lakes, FL 33014",
    "location": "Martin"
  },
  {
    "name": "Unlimited Marketing",
    "description": "Marketing Programs & Services",
    "phone": "(305) 866-3500",
    "address": "7736 Harding Ave  Miami Beach, FL 33141",
    "location": "Martin"
  },
  {
    "name": "Ink Link Marketing",
    "description": "Marketing Programs & Services",
    "phone": "(305) 631-2577",
    "address": "6073 NW 167th St  Hialeah, FL 33015",
    "location": "Martin"
  },
  {
    "name": "Inm Marketing Inc",
    "description": "Marketing Programs & Services",
    "phone": "(305) 558-2373",
    "address": "5979 NW 151st St Ste 218  Miami Lakes, FL 33014",
    "location": "Martin"
  },
  {
    "name": "HBCQuotes.com",
    "description": "Marketing Programs & Services",
    "phone": "(888) 670-2404",
    "address": "300 S Park Rd Ste 140  Hollywood, FL 33021",
    "location": "Martin"
  },
  {
    "name": "Advance Marketing Plus Corp",
    "description": "Marketing Programs & Services",
    "phone": "(954) 433-1046",
    "address": "10306 Usa Today Way  Miramar, FL 33025",
    "location": "Martin"
  },
  {
    "name": "Angel Heart Life Care Services",
    "description": "Marketing Programs & Services",
    "phone": "(954) 362-4496",
    "address": "6011 Rodman St  Hollywood, FL 33023",
    "location": "Martin"
  },
  {
    "name": "Bee Social Group",
    "description": "Marketing Programs & Services",
    "phone": "(954) 479-2220",
    "address": "4812 Washington St  Hollywood, FL 33021",
    "location": "Martin"
  },
  {
    "name": "Tajh LLc",
    "description": "Marketing Programs & Services",
    "phone": "(954) 654-9869",
    "address": "2962 W Missionwood Ln  Miramar, FL 33025",
    "location": "Martin"
  },
  {
    "name": "Selectedfirms",
    "description": "Marketing Programs & Services",
    "phone": "(305) 447-7908",
    "address": "8648 Windsor Dr  Miramar, FL 33025",
    "location": "Martin"
  },
  {
    "name": "Lor Mike Enterprise Co/",
    "description": "Marketing Programs & Services",
    "phone": "(754) 204-3219",
    "address": "8293 sw 25th ct  Miramar, FL 33025",
    "location": "Martin"
  },
  {
    "name": "Eyg Sales & Marketing",
    "description": "Marketing Programs & Services",
    "phone": "(754) 244-7696",
    "address": "1101 NE 3rd St  Hallandale Beach, FL 33009",
    "location": "Martin"
  },
  {
    "name": "Shooger",
    "description": "Marketing Programs & Services",
    "phone": "(305) 704-7940",
    "address": "4302 Hollywood Blvd  Hollywood, FL 33021",
    "location": "Martin"
  },
  {
    "name": "Soft Marketing Corp",
    "description": "Marketing Programs & Services",
    "phone": "(786) 509-6422",
    "address": "4000 Hollywood Blvd  Hollywood, FL 33021",
    "location": "Martin"
  },
  {
    "name": "SEONext",
    "description": "Marketing Programs & Services",
    "phone": "(888) 752-0099",
    "address": "6030 Hollywood Blvd  Hollywood, FL 33024",
    "location": "Martin"
  },
  {
    "name": "Beafil Inc",
    "description": "Marketing Programs & Services",
    "phone": "(954) 455-5929",
    "address": "1001 N Federal Hwy  Hallandale Beach, FL 33009",
    "location": "Martin"
  },
  {
    "name": "South Florida Video Productions",
    "description": "Marketing Programs & Services",
    "phone": "(954) 593-5809",
    "address": "319 NE 14th Ave  Hallandale Beach, FL 33009",
    "location": "Martin"
  },
  {
    "name": "Women Certified",
    "description": "Marketing Programs & Services",
    "phone": "(954) 922-0846",
    "address": "3440 Hollywood Blvd  Hollywood, FL 33021",
    "location": "Martin"
  },
  {
    "name": "Hanna Marketing Inc",
    "description": "Marketing Programs & Services",
    "phone": "(954) 964-1665",
    "address": "4816 Polk St  Hollywood, FL 33021",
    "location": "Martin"
  },
  {
    "name": "Womencertified Inc",
    "description": "Marketing Programs & Services",
    "phone": "(954) 922-0846",
    "address": "3325 Hollywood Blvd Ste 503  Hollywood, FL 33021",
    "location": "Martin"
  },
  {
    "name": "Direct Connect By Owner",
    "description": "Marketing Programs & Services",
    "phone": "(800) 930-3577",
    "address": "1920 E Hallandale Beach Blvd  Hallandale Beach, FL 33009",
    "location": "Martin"
  },
  {
    "name": "FreeAdvertisingNetwork.org",
    "description": "Marketing Programs & Services",
    "phone": "(954) 864-5578",
    "address": "2080 S Ocean Dr Apt 104  Hallandale Beach, FL 33009",
    "location": "Martin"
  },
  {
    "name": "Human Relationships",
    "description": "Marketing Programs & Services",
    "phone": "(224) 730-1076",
    "address": "1980 S Ocean Dr  Hallandale Beach, FL 33009",
    "location": "Martin"
  },
  {
    "name": "1 Stop Marketing Solutions",
    "description": "Marketing Programs & Services",
    "phone": "(954) 632-3905",
    "address": "528 N Luna Ct  Hollywood, FL 33021",
    "location": "Martin"
  },
  {
    "name": "Meeting Professionals International",
    "description": "Marketing Programs & Services",
    "phone": "(954) 602-8851",
    "address": "501 Diplomat Pkwy  Hallandale Beach, FL 33009",
    "location": "Martin"
  },
  {
    "name": "Click Then Convert",
    "description": "Marketing Programs & Services",
    "phone": "(954) 287-3728",
    "address": "2719 Hollywood Blvd  Hollywood, FL 33020",
    "location": "Martin"
  },
  {
    "name": "Dynamic Marketing Service",
    "description": "Marketing Programs & Services",
    "phone": "(954) 961-1694",
    "address": "4821 Lincoln St  Hollywood, FL 33021",
    "location": "Martin"
  },
  {
    "name": "KFG Ventures",
    "description": "Marketing Programs & Services",
    "phone": "(786) 200-2292",
    "address": "1893 S Ocean Dr Apt 908  Hallandale Beach, FL 33009",
    "location": "Martin"
  },
  {
    "name": "Gcr Acquisitions Incorporated",
    "description": "Marketing Programs & Services",
    "phone": "(954) 362-4279",
    "address": "2500 Hollywood Blvd  Hollywood, FL 33020",
    "location": "Martin"
  },
  {
    "name": "Absolute Internet Marketing Inc",
    "description": "Marketing Programs & Services",
    "phone": "(561) 705-7721",
    "address": "1800 S Ocean Dr  Hallandale Beach, FL 33009",
    "location": "Martin"
  },
  {
    "name": "Super Cool Promos",
    "description": "Marketing Programs & Services",
    "phone": "(305) 299-1918",
    "address": "1004 Yale Dr  Hollywood, FL 33021",
    "location": "Martin"
  },
  {
    "name": "Thelogoboutique.com",
    "description": "Marketing Programs & Services",
    "phone": "(954) 636-1437",
    "address": "140 S Dixie Hwy  Hollywood, FL 33020",
    "location": "Martin"
  },
  {
    "name": "Chroma Marketing",
    "description": "Marketing Programs & Services",
    "phone": "(954) 998-2502",
    "address": "2028 Harrison St  Hollywood, FL 33020",
    "location": "Martin"
  },
  {
    "name": "Salamon Snow Marketing & Advertising",
    "description": "Marketing Programs & Services",
    "phone": "(954) 367-0531",
    "address": "1942 Harrison St  Hollywood, FL 33020",
    "location": "Martin"
  },
  {
    "name": "Miami Marketing Spot",
    "description": "Marketing Programs & Services",
    "phone": "(954) 419-8351",
    "address": "117 N 21st Ave  Hollywood, FL 33020",
    "location": "Martin"
  },
  {
    "name": "SocialNitro",
    "description": "Marketing Programs & Services",
    "phone": "(954) 589-2580",
    "address": "1934 Hollywood Blvd Ste 204  Hollywood, FL 33020",
    "location": "Martin"
  },
  {
    "name": "The Bee Project Hive",
    "description": "Marketing Programs & Services",
    "phone": "(954) 620-7049",
    "address": "1926 Hollywood Blvd  Hollywood, FL 33020",
    "location": "Martin"
  },
  {
    "name": "Opulent Marketing",
    "description": "Marketing Programs & Services",
    "phone": "(305) 527-9776",
    "address": "8531 SW 5th St  Pembroke Pines, FL 33025",
    "location": "Martin"
  },
  {
    "name": "Alchemedia Marketing Inc",
    "description": "Marketing Programs & Services",
    "phone": "(954) 394-4123",
    "address": "7311 Grant Ct  Hollywood, FL 33024",
    "location": "Martin"
  },
  {
    "name": "WAI Global",
    "description": "Marketing Programs & Services",
    "phone": "(610) 395-3730",
    "address": "3300 Corporate Way  Miramar, FL 33025",
    "location": "Martin"
  },
  {
    "name": "Cyborg Instruments",
    "description": "Marketing Programs & Services",
    "phone": "(305) 934-0717",
    "address": "3930 Executive Way  Miramar, FL 33025",
    "location": "Martin"
  },
  {
    "name": "Evalution Entertainment Marketing",
    "description": "Marketing Programs & Services",
    "phone": "(954) 966-7058",
    "address": "3340 Wilson St  Hollywood, FL 33021",
    "location": "Martin"
  },
  {
    "name": "J A C C Marketing Inc",
    "description": "Marketing Programs & Services",
    "phone": "(954) 399-8616",
    "address": "6521 Scott St  Hollywood, FL 33024",
    "location": "Martin"
  },
  {
    "name": "Netcom Solutions",
    "description": "Marketing Programs & Services",
    "phone": "(954) 447-5300",
    "address": "9050 Pines Blvd Ste 385  Pembroke Pines, FL 33024",
    "location": "Martin"
  },
  {
    "name": "Lance Marketing",
    "description": "Marketing Programs & Services",
    "phone": "(954) 437-0700",
    "address": "9050 Pines Blvd  Pembroke Pines, FL 33024",
    "location": "Martin"
  },
  {
    "name": "Mauluna Total Marketing Solution",
    "description": "Marketing Programs & Services",
    "phone": "(954) 857-1314",
    "address": "5600 NE 4th Ave  Miami, FL 33137",
    "location": "Martin"
  },
  {
    "name": "Rethinken",
    "description": "Marketing Programs & Services",
    "phone": "(646) 564-1503",
    "address": "294 NW 54th St  Miami, FL 33127",
    "location": "Martin"
  },
  {
    "name": "Supermarket Creative",
    "description": "Marketing Programs & Services",
    "phone": "(305) 420-5110",
    "address": "45 NE 41st St  Miami, FL 33137",
    "location": "Martin"
  },
  {
    "name": "Ai Disruptive Marketing",
    "description": "Marketing Programs & Services",
    "phone": "(404) 454-2697",
    "address": "4120 NW 3rd Ave  Miami, FL 33127",
    "location": "Martin"
  },
  {
    "name": "Convierte Mas",
    "description": "Marketing Programs & Services",
    "phone": "(757) 908-6472",
    "address": "3933 Biscayne Blvd  Miami, FL 33137",
    "location": "Martin"
  },
  {
    "name": "Seiko Coporation of America",
    "description": "Marketing Programs & Services",
    "phone": "(786) 360-6869",
    "address": "130 NE 40th St  Miami, FL 33137",
    "location": "Martin"
  },
  {
    "name": "International Marketing Group",
    "description": "Marketing Programs & Services",
    "phone": "(786) 584-0090",
    "address": "3635 NE 1st Ave  Miami, FL 33137",
    "location": "Martin"
  },
  {
    "name": "Mattyofit",
    "description": "Marketing Programs & Services",
    "phone": "(786) 882-3821",
    "address": "601 NE 36th St  Miami, FL 33137",
    "location": "Martin"
  },
  {
    "name": "Capture Times",
    "description": "Marketing Programs & Services",
    "phone": "(833) 318-1940",
    "address": "2492 NW 44th St  Miami, FL 33142",
    "location": "Martin"
  },
  {
    "name": "Imagine 360 Marketing",
    "description": "Marketing Programs & Services",
    "phone": "(212) 313-9616",
    "address": "3301 NE 1st Ave  Miami, FL 33137",
    "location": "Martin"
  },
  {
    "name": "Agency Marketing Machine",
    "description": "Marketing Programs & Services",
    "phone": "(786) 322-4999",
    "address": "3050 Biscayne Blvd  Miami, FL 33137",
    "location": "Martin"
  },
  {
    "name": "Family Health Marketing",
    "description": "Marketing Programs & Services",
    "phone": "(305) 631-2949",
    "address": "6001 NW 153rd St  Miami Lakes, FL 33014",
    "location": "Martin"
  },
  {
    "name": "Market Tools",
    "description": "Marketing Programs & Services",
    "phone": "(786) 275-6099",
    "address": "7330 Ocean Ter  Miami Beach, FL 33141",
    "location": "Martin"
  },
  {
    "name": "Alan Mrkt Grp",
    "description": "Marketing Programs & Services",
    "phone": "(786) 800-3140",
    "address": "900 Bay Dr  Miami Beach, FL 33141",
    "location": "Martin"
  },
  {
    "name": "Brand Marketers Inc",
    "description": "Marketing Programs & Services",
    "phone": "(646) 417-8118",
    "address": "220 71st St  Miami Beach, FL 33141",
    "location": "Martin"
  },
  {
    "name": "Seo Komodo",
    "description": "Marketing Programs & Services",
    "phone": "(919) 432-4506",
    "address": "7135 Collins Ave  Miami Beach, FL 33141",
    "location": "Martin"
  },
  {
    "name": "Dpc Marketing Department",
    "description": "Marketing Programs & Services",
    "phone": "(305) 691-5963",
    "address": "1074 E 27th St  Hialeah, FL 33013",
    "location": "Martin"
  },
  {
    "name": "Magris Marketing",
    "description": "Marketing Programs & Services",
    "phone": "(786) 505-1674",
    "address": "6750 NW 186th St  Hialeah, FL 33015",
    "location": "Martin"
  },
  {
    "name": "Salesjoint",
    "description": "Marketing Programs & Services",
    "phone": "(786) 378-9278",
    "address": "7015 NW 173rd Dr  Hialeah, FL 33015",
    "location": "Martin"
  },
  {
    "name": "Serp Co-Hialeah Seo",
    "description": "Marketing Programs & Services",
    "phone": "(855) 818-7951",
    "address": "17225 Nw 78th  Hialeah, FL 33015",
    "location": "Martin"
  },
  {
    "name": "New York Focus",
    "description": "Marketing Programs & Services",
    "phone": "(305) 868-7715",
    "address": "6061 Collins Ave  Miami Beach, FL 33140",
    "location": "Martin"
  },
  {
    "name": "Quest Marketing",
    "description": "Marketing Programs & Services",
    "phone": "(305) 993-1213",
    "address": "5920 Pine Tree Dr  Miami Beach, FL 33140",
    "location": "Martin"
  },
  {
    "name": "LMS Business Management & Marketing Solutions",
    "description": "Marketing Programs & Services",
    "phone": "(786) 356-4021",
    "address": "15476 NW 77th Ct # 261  Hialeah, FL 33016",
    "location": "Martin"
  },
  {
    "name": "Admobilize",
    "description": "Marketing Programs & Services",
    "phone": "(888) 628-7494",
    "address": "7900 Oak Ln Ste 400  Miami Lakes, FL 33016",
    "location": "Martin"
  },
  {
    "name": "Sales of Digital Media Products",
    "description": "Marketing Programs & Services",
    "phone": "(888) 660-8001",
    "address": "7900 Oak Ln #400  Miami Lakes, FL 33016",
    "location": "Martin"
  },
  {
    "name": "Social Caddie Inc",
    "description": "Marketing Programs & Services",
    "phone": "(954) 828-0614",
    "address": "14411 Commerce Way  Miami Lakes, FL 33016",
    "location": "Martin"
  },
  {
    "name": "Marketing Boss Inc",
    "description": "Marketing Programs & Services",
    "phone": "(305) 828-6478",
    "address": "8145 NW 155th St  Miami Lakes, FL 33016",
    "location": "Martin"
  },
  {
    "name": "Harvest Group",
    "description": "Marketing Programs & Services",
    "phone": "(305) 603-8630",
    "address": "4192 W 12th Ave  Hialeah, FL 33012",
    "location": "Martin"
  },
  {
    "name": "Tech Media Marketing Inc",
    "description": "Marketing Programs & Services",
    "phone": "(425) 835-2404",
    "address": "4560 N Meridian Ave  Miami Beach, FL 33140",
    "location": "Martin"
  },
  {
    "name": "Mass Media Marketing Inc",
    "description": "Marketing Programs & Services",
    "phone": "(305) 330-6498",
    "address": "3774 W 12th Ave  Hialeah, FL 33012",
    "location": "Martin"
  },
  {
    "name": "eToorge",
    "description": "Marketing Programs & Services",
    "phone": "(954) 867-8569",
    "address": "3389 Sheridan St Unit 305  Hollywood, FL 33021",
    "location": "Martin"
  },
  {
    "name": "Cuv Marketing Inc",
    "description": "Marketing Programs & Services",
    "phone": "(954) 981-2524",
    "address": "2816 N 46th Ave  Hollywood, FL 33021",
    "location": "Martin"
  },
  {
    "name": "Hanover Marketing & Trade Corp",
    "description": "Marketing Programs & Services",
    "phone": "(954) 925-3596",
    "address": "943 Tyler St  Hollywood, FL 33019",
    "location": "Martin"
  },
  {
    "name": "9 Marketing",
    "description": "Marketing Programs & Services",
    "phone": "(954) 245-2801",
    "address": "3806 Simms St  Hollywood, FL 33021",
    "location": "Martin"
  },
  {
    "name": "Tfc Marketing",
    "description": "Marketing Programs & Services",
    "phone": "(954) 439-0679",
    "address": "3340 Simms St  Hollywood, FL 33021",
    "location": "Martin"
  },
  {
    "name": "Sys Marketing",
    "description": "Marketing Programs & Services",
    "phone": "(954) 505-3404",
    "address": "3424 Red Rd  Miramar, FL 33025",
    "location": "Martin"
  },
  {
    "name": "Bi Worldwide",
    "description": "Marketing Programs & Services",
    "phone": "(952) 835-4800",
    "address": "2750 N 29th Ave  Hollywood, FL 33020",
    "location": "Martin"
  },
  {
    "name": "Residential Commercial",
    "description": "Marketing Programs & Services",
    "phone": "(954) 432-6119",
    "address": "1900 N University Dr Ste 210  Pembroke Pines, FL 33024",
    "location": "Martin"
  },
  {
    "name": "Omg Media Solutions Inc",
    "description": "Marketing Programs & Services",
    "phone": "(954) 534-9630",
    "address": "2104 N Federal Hwy  Hollywood, FL 33020",
    "location": "Martin"
  },
  {
    "name": "Global Presence Marketing",
    "description": "Marketing Programs & Services",
    "phone": "(305) 501-4280",
    "address": "10031 Pines Blvd Ste 220  Pembroke Pines, FL 33024",
    "location": "Martin"
  },
  {
    "name": "Silver Airways",
    "description": "Marketing Programs & Services",
    "phone": "(954) 985-1500",
    "address": "2850 Greene St  Hollywood, FL 33020",
    "location": "Martin"
  },
  {
    "name": "High Tech Marketing Solutions",
    "description": "Marketing Programs & Services",
    "phone": "(866) 696-5050",
    "address": "3610 N 46th Ave  Hollywood, FL 33021",
    "location": "Martin"
  },
  {
    "name": "M Marketing Solutions",
    "description": "Marketing Programs & Services",
    "phone": "(954) 888-8937",
    "address": "1400 Coolidge St  Hollywood, FL 33020",
    "location": "Martin"
  },
  {
    "name": "Bossy & Chic Media, Inc.",
    "description": "Marketing Programs & Services",
    "phone": "(305) 336-9427",
    "address": "1530 SW 109th Ave Apt 204  Pembroke Pines, FL 33025",
    "location": "Martin"
  },
  {
    "name": "TRP Marketing",
    "description": "Marketing Programs & Services",
    "phone": "(954) 239-4510",
    "address": "3918 N 29th Ave  Hollywood, FL 33020",
    "location": "Martin"
  },
  {
    "name": "E Enterprise Solutions",
    "description": "Marketing Programs & Services",
    "phone": "(305) 731-7798",
    "address": "12034 SW 31st Ct  Miramar, FL 33025",
    "location": "Martin"
  },
  {
    "name": "Lead Source Marketing",
    "description": "Marketing Programs & Services",
    "phone": "(954) 791-1717",
    "address": "4485 Stirling Rd  Davie, FL 33314",
    "location": "Martin"
  },
  {
    "name": "James Dawson Securities",
    "description": "Marketing Programs & Services",
    "phone": "(954) 432-1598",
    "address": "11155 SW 5th Pl  Pembroke Pines, FL 33025",
    "location": "Martin"
  },
  {
    "name": "Universal Marketing Services Inc",
    "description": "Marketing Programs & Services",
    "phone": "(954) 926-6976",
    "address": "2850 Evans St  Hollywood, FL 33020",
    "location": "Martin"
  },
  {
    "name": "Jasmin Smith",
    "description": "Marketing Programs & Services",
    "phone": "(844) 267-7299",
    "address": "3190 Stirling Rd  Hollywood, FL 33021",
    "location": "Martin"
  },
  {
    "name": "E Wize Marketing 4 U",
    "description": "Marketing Programs & Services",
    "phone": "(954) 894-7969",
    "address": "2349 Stirling Rd  Fort Lauderdale, FL 33312",
    "location": "Martin"
  },
  {
    "name": "Advisors First Marketing Group",
    "description": "Marketing Programs & Services",
    "phone": "(954) 239-6649",
    "address": "1331 N Palm Ave  Pembroke Pines, FL 33026",
    "location": "Martin"
  },
  {
    "name": "Multaply Inc",
    "description": "Marketing Programs & Services",
    "phone": "(954) 589-2723",
    "address": "731 SW 4th Ter  Dania, FL 33004",
    "location": "Martin"
  },
  {
    "name": "Sidney Klein Enterprises",
    "description": "Marketing Programs & Services",
    "phone": "(954) 353-3816",
    "address": "5679 Park Rd  Fort Lauderdale, FL 33312",
    "location": "Martin"
  },
  {
    "name": "Rodman Marketing Guru",
    "description": "Marketing Programs & Services",
    "phone": "(954) 404-8227",
    "address": "11989 SW 17th Ct  Miramar, FL 33025",
    "location": "Martin"
  },
  {
    "name": "Stirling Marketing",
    "description": "Marketing Programs & Services",
    "phone": "(954) 399-8459",
    "address": "1206 Stirling Rd  Dania, FL 33004",
    "location": "Martin"
  },
  {
    "name": "RCK Social Media Marketing",
    "description": "Marketing Programs & Services",
    "phone": "(954) 270-5724",
    "address": "Sw 54th St  Fort Lauderdale, FL 33314",
    "location": "Martin"
  },
  {
    "name": "Gb Sales and Marketing",
    "description": "Marketing Programs & Services",
    "phone": "(954) 870-5492",
    "address": "4980 SW 52nd St Ste 114  Davie, FL 33314",
    "location": "Martin"
  },
  {
    "name": "Top Ten Website Marketing",
    "description": "Marketing Programs & Services",
    "phone": "(305) 970-5699",
    "address": "4938 SW 33rd Ave  Fort Lauderdale, FL 33312",
    "location": "Martin"
  },
  {
    "name": "Dna Marketing",
    "description": "Marketing Programs & Services",
    "phone": "(954) 534-7642",
    "address": "69 N Federal Hwy  Dania, FL 33004",
    "location": "Martin"
  },
  {
    "name": "Euro Media Solution",
    "description": "Marketing Programs & Services",
    "phone": "(954) 929-0061",
    "address": "225 E Dania Beach Blvd  Dania, FL 33004",
    "location": "Martin"
  },
  {
    "name": "Advances in Marketing Inc",
    "description": "Marketing Programs & Services",
    "phone": "(954) 986-9860",
    "address": "3423 Griffin Rd  Fort Lauderdale, FL 33312",
    "location": "Martin"
  },
  {
    "name": "DJDM SERVICES LLC",
    "description": "Marketing Programs & Services",
    "phone": "(866) 993-5367",
    "address": "12701 SW 14th St, Suite 308  Pembroke Pines, FL 33027",
    "location": "Martin"
  },
  {
    "name": "Power Marketing Inc",
    "description": "Marketing Programs & Services",
    "phone": "(201) 394-5374",
    "address": "10570 Buenos Aires St  Hollywood, FL 33026",
    "location": "Martin"
  },
  {
    "name": "Chiquita Brands",
    "description": "Marketing Programs & Services",
    "phone": "(954) 924-5700",
    "address": "1855 Griffin Rd  Dania, FL 33004",
    "location": "Martin"
  },
  {
    "name": "J. Daniel Company",
    "description": "Marketing Programs & Services",
    "phone": "(305) 717-8439",
    "address": "990 Biscayne Blvd Ste 503  Miami, FL 33132",
    "location": "Martin"
  },
  {
    "name": "Hitex Marketing",
    "description": "Marketing Programs & Services",
    "phone": "(305) 883-4535",
    "address": "7209 NW 54th St  Miami, FL 33166",
    "location": "Martin"
  },
  {
    "name": "NetroStar Inc.",
    "description": "Marketing Programs & Services",
    "phone": "(305) 577-9904",
    "address": "260 NE 17th Ter  Miami, FL 33132",
    "location": "Martin"
  },
  {
    "name": "Imagineer Customer Experience",
    "description": "Marketing Programs & Services",
    "phone": "(305) 600-4344",
    "address": "333 SE 2nd Ave  Miami, FL 33131",
    "location": "Martin"
  },
  {
    "name": "V Digital Services",
    "description": "Marketing Programs & Services",
    "phone": "(305) 290-3886",
    "address": "2750 NW 3rd Ave  Miami, FL 33127",
    "location": "Martin"
  },
  {
    "name": "One Twelfth Inc",
    "description": "Marketing Programs & Services",
    "phone": "(954) 938-1962",
    "address": "2601 NE 2nd Ave  Miami, FL 33137",
    "location": "Martin"
  },
  {
    "name": "Maria Morena",
    "description": "Marketing Programs & Services",
    "phone": "(305) 576-2233",
    "address": "2545 NW 5th Ave  Miami, FL 33127",
    "location": "Martin"
  },
  {
    "name": "Modofi",
    "description": "Marketing Programs & Services",
    "phone": "(850) 750-6636",
    "address": "114 NW 25th St  Miami, FL 33127",
    "location": "Martin"
  },
  {
    "name": "Veritas Marketing and Distribution",
    "description": "Marketing Programs & Services",
    "phone": "(305) 636-5454",
    "address": "1561 NW 28th St  Miami, FL 33142",
    "location": "Martin"
  },
  {
    "name": "Premire Market Corp",
    "description": "Marketing Programs & Services",
    "phone": "(305) 635-8986",
    "address": "2254 NW 28th St  Miami, FL 33142",
    "location": "Martin"
  },
  {
    "name": "Social Hive Agency",
    "description": "Marketing Programs & Services",
    "phone": "(786) 332-6910",
    "address": "2048 NW Miami Ct  Miami, FL 33127",
    "location": "Martin"
  },
  {
    "name": "Greenslant",
    "description": "Marketing Programs & Services",
    "phone": "(305) 209-6833",
    "address": "2001 Biscayne Blvd  Miami, FL 33137",
    "location": "Martin"
  },
  {
    "name": "Live Out Dreams Inc.",
    "description": "Marketing Programs & Services",
    "phone": "(305) 896-7596",
    "address": "1750 N Bayshore Dr Apt 4610  Miami, FL 33132",
    "location": "Martin"
  },
  {
    "name": "WG Studios",
    "description": "Marketing Programs & Services",
    "phone": "(305) 463-9232",
    "address": "1749 NE Miami Ct  Miami, FL 33132",
    "location": "Martin"
  },
  {
    "name": "Email Marketing & More",
    "description": "Marketing Programs & Services",
    "phone": "(786) 348-7729",
    "address": "555 NE 15th St  Miami, FL 33132",
    "location": "Martin"
  },
  {
    "name": "Ang Communications Group Inc",
    "description": "Marketing Programs & Services",
    "phone": "(786) 517-4750",
    "address": "555 NE 15th St  Miami, FL 33132",
    "location": "Martin"
  },
  {
    "name": "Green Marketing",
    "description": "Marketing Programs & Services",
    "phone": "(407) 936-1406",
    "address": "1444 NW 14th Ave  Miami, FL 33125",
    "location": "Martin"
  },
  {
    "name": "Leo Media Marketing",
    "description": "Marketing Programs & Services",
    "phone": "(786) 304-1300",
    "address": "1720 NW North River Dr  Miami, FL 33125",
    "location": "Martin"
  },
  {
    "name": "Itss",
    "description": "Marketing Programs & Services",
    "phone": "(786) 399-6878",
    "address": "7339 NW 66th St  Miami, FL 33166",
    "location": "Martin"
  },
  {
    "name": "HNO Productions Inc",
    "description": "Marketing Programs & Services",
    "phone": "(305) 383-8245",
    "address": "990 Biscayne Blvd Ste 503  Miami, FL 33132",
    "location": "Martin"
  },
  {
    "name": "Tessell Marketing",
    "description": "Marketing Programs & Services",
    "phone": "(305) 517-7255",
    "address": "990 Biscayne Blvd  Miami, FL 33132",
    "location": "Martin"
  },
  {
    "name": "Digilogic Marketing Agencies",
    "description": "Marketing Programs & Services",
    "phone": "(774) 757-2925",
    "address": "218 NW 8th St  Miami, FL 33136",
    "location": "Martin"
  },
  {
    "name": "Florida East Coast Industries",
    "description": "Marketing Programs & Services",
    "phone": "(305) 520-2300",
    "address": "700 NW 1st Ave  Miami, FL 33136",
    "location": "Martin"
  },
  {
    "name": "World of Miniature Bears",
    "description": "Marketing Programs & Services",
    "phone": "(305) 592-7971",
    "address": "8300 NW 68th St  Miami, FL 33166",
    "location": "Martin"
  },
  {
    "name": "X3 Marketing Solutions",
    "description": "Marketing Programs & Services",
    "phone": "(305) 600-5406",
    "address": "111 NE 1st St  Miami, FL 33132",
    "location": "Martin"
  },
  {
    "name": "Mindwarehouse",
    "description": "Marketing Programs & Services",
    "phone": "(786) 571-8660",
    "address": "111 NE 1st St  Miami, FL 33132",
    "location": "Martin"
  },
  {
    "name": "Lemon Yellow",
    "description": "Marketing Programs & Services",
    "phone": "(305) 704-7096",
    "address": "169 E Flagler St  Miami, FL 33131",
    "location": "Martin"
  },
  {
    "name": "UpLevel Flow",
    "description": "Marketing Programs & Services",
    "phone": "(786) 882-7923",
    "address": "66 W Flagler St Ste 900  Miami, FL 33130",
    "location": "Martin"
  },
  {
    "name": "Trueba Media-Digital Marketing Agency",
    "description": "Marketing Programs & Services",
    "phone": "(305) 239-7575",
    "address": "66 W Flagler St  Miami, FL 33130",
    "location": "Martin"
  },
  {
    "name": "Vitalstream Marketing & Consultancy",
    "description": "Marketing Programs & Services",
    "phone": "(786) 699-6839",
    "address": "66 W Flagler St  Miami, FL 33130",
    "location": "Martin"
  },
  {
    "name": "Champions Media Group LLC.",
    "description": "Marketing Programs & Services",
    "phone": "(786) 683-3104",
    "address": "340 W Flagler St Apt 1603  Miami, FL 33130",
    "location": "Martin"
  },
  {
    "name": "Juniper Technology",
    "description": "Marketing Programs & Services",
    "phone": "(305) 755-0251",
    "address": "168 SE 1st St  Miami, FL 33131",
    "location": "Martin"
  },
  {
    "name": "Myadcenter",
    "description": "Marketing Programs & Services",
    "phone": "(888) 676-7866",
    "address": "150 SE 2nd Ave  Miami, FL 33131",
    "location": "Martin"
  },
  {
    "name": "Addone",
    "description": "Marketing Programs & Services",
    "phone": "(786) 360-4940",
    "address": "8399 NW 66th St  Miami, FL 33166",
    "location": "Martin"
  },
  {
    "name": "Green Key Leads",
    "description": "Marketing Programs & Services",
    "phone": "(855) 695-3237",
    "address": "100 SE 2nd St  Miami, FL 33131",
    "location": "Martin"
  },
  {
    "name": "SKL Marketing Inc",
    "description": "Marketing Programs & Services",
    "phone": "(305) 714-9351",
    "address": "200 S Biscayne Blvd  Miami, FL 33131",
    "location": "Martin"
  },
  {
    "name": "Andretti Sports Marketing",
    "description": "Marketing Programs & Services",
    "phone": "(317) 871-2534",
    "address": "201 S Biscayne Blvd  Miami, FL 33131",
    "location": "Martin"
  },
  {
    "name": "MJ REPRESENTATIONS LLC",
    "description": "Marketing Programs & Services",
    "phone": "(305) 531-4542",
    "address": "407 Lincoln Rd  Miami Beach, FL 33139",
    "location": "Martin"
  },
  {
    "name": "Basha Trading Services",
    "description": "Marketing Programs & Services",
    "phone": "(305) 200-5020",
    "address": "526 Hialeah Dr  Hialeah, FL 33010",
    "location": "Martin"
  },
  {
    "name": "Ultimate guide to success 101",
    "description": "Marketing Programs & Services",
    "phone": "(305) 896-5471",
    "address": "2450 W 82nd St  Hialeah, FL 33016",
    "location": "Martin"
  },
  {
    "name": "SEO by Industry",
    "description": "Marketing Programs & Services",
    "phone": "(305) 763-8270",
    "address": "960 Arthur Godfrey Rd  Miami Beach, FL 33140",
    "location": "Martin"
  },
  {
    "name": "Edificando El Arte Fluyen Los",
    "description": "Marketing Programs & Services",
    "phone": "(786) 325-3502",
    "address": "4160 W 16th Ave  Hialeah, FL 33012",
    "location": "Martin"
  },
  {
    "name": "Medsultant Inc",
    "description": "Marketing Programs & Services",
    "phone": "(305) 454-9837",
    "address": "2545 W 80th St  Hialeah, FL 33016",
    "location": "Martin"
  },
  {
    "name": "Make Extra Money Fast",
    "description": "Marketing Programs & Services",
    "phone": "(786) 506-0766",
    "address": "485 Pash E Ho Wa Dr  Hialeah, FL 33010",
    "location": "Martin"
  },
  {
    "name": "Rab Point Advertising",
    "description": "Marketing Programs & Services",
    "phone": "(786) 362-6197",
    "address": "10220 NW 80th Ave  Hialeah Gardens, FL 33016",
    "location": "Martin"
  },
  {
    "name": "Four Vectors",
    "description": "Marketing Programs & Services",
    "phone": "(305) 823-8825",
    "address": "9910 NW 80th Ave  Miami Lakes, FL 33016",
    "location": "Martin"
  },
  {
    "name": "Net Media All",
    "description": "Marketing Programs & Services",
    "phone": "(305) 825-8225",
    "address": "3140 W 84th St  Hialeah, FL 33018",
    "location": "Martin"
  },
  {
    "name": "Act Marketing",
    "description": "Marketing Programs & Services",
    "phone": "(305) 982-8011",
    "address": "4471 NW 36th St  Miami Springs, FL 33166",
    "location": "Martin"
  },
  {
    "name": "MIT World Wide Marketing",
    "description": "Marketing Programs & Services",
    "phone": "(305) 364-7001",
    "address": "3418 W 84th St  Hialeah, FL 33018",
    "location": "Martin"
  },
  {
    "name": "Irevu",
    "description": "Marketing Programs & Services",
    "phone": "(312) 545-0621",
    "address": "2301 Collins Ave  Miami Beach, FL 33139",
    "location": "Martin"
  },
  {
    "name": "OmniFunnel Marketing",
    "description": "Marketing Programs & Services",
    "phone": "(866) 858-2740",
    "address": "1680 Michigan Ave Ste 700  Miami Beach, FL 33139",
    "location": "Martin"
  },
  {
    "name": "Seo By Industry",
    "description": "Marketing Programs & Services",
    "phone": "(305) 763-8270",
    "address": "1680 Michigan Ave  Miami Beach, FL 33139",
    "location": "Martin"
  },
  {
    "name": "Joy Media Works",
    "description": "Marketing Programs & Services",
    "phone": "(786) 623-6203",
    "address": "1205 Lincoln Rd  Miami Beach, FL 33139",
    "location": "Martin"
  },
  {
    "name": "Sbny Marketing",
    "description": "Marketing Programs & Services",
    "phone": "(305) 695-0162",
    "address": "1688 Meridian Ave  Miami Beach, FL 33139",
    "location": "Martin"
  },
  {
    "name": "Pinta-the Art-Cross-Cultural",
    "description": "Marketing Programs & Services",
    "phone": "(305) 615-1111",
    "address": "1111 Lincoln Rd  Miami Beach, FL 33139",
    "location": "Martin"
  },
  {
    "name": "Kramer Specialties, LLC.",
    "description": "Marketing Programs & Services",
    "phone": "(305) 470-6650",
    "address": "1680 Meridian Ave Ste 600  Miami Beach, FL 33139",
    "location": "Martin"
  },
  {
    "name": "Bugattiblancwakesupnow",
    "description": "Marketing Programs & Services",
    "phone": "(786) 374-9264",
    "address": "1508 Bay Rd Apt 414  Miami Beach, FL 33139",
    "location": "Martin"
  },
  {
    "name": "Roofing Marketing Pros",
    "description": "Marketing Programs & Services",
    "phone": "(305) 697-7210",
    "address": "350 Lincoln Rd  Miami Beach, FL 33139",
    "location": "Martin"
  },
  {
    "name": "Meridian Interactive",
    "description": "Marketing Programs & Services",
    "phone": "(212) 961-6346",
    "address": "1330 West Ave  Miami Beach, FL 33139",
    "location": "Martin"
  },
  {
    "name": "One To 1 Marketing",
    "description": "Marketing Programs & Services",
    "phone": "(781) 983-4120",
    "address": "1348 Washington Ave suite 170  Miami Beach, FL 33139",
    "location": "Martin"
  },
  {
    "name": "Mka Marketing Inc",
    "description": "Marketing Programs & Services",
    "phone": "(786) 265-0231",
    "address": "6555 NW 36th St  Virginia Gardens, FL 33166",
    "location": "Martin"
  },
  {
    "name": "Zimo Media",
    "description": "Marketing Programs & Services",
    "phone": "(954) 864-3463",
    "address": "1210 Washington Ave  Miami Beach, FL 33139",
    "location": "Martin"
  },
  {
    "name": "Multicorp Marketing",
    "description": "Marketing Programs & Services",
    "phone": "(305) 722-7241",
    "address": "7814 NW 54th St  Doral, FL 33166",
    "location": "Martin"
  },
  {
    "name": "Idea Depot, Inc.",
    "description": "Marketing Programs & Services",
    "phone": "(954) 478-9029",
    "address": "10480 SW 51st St  Cooper City, FL 33328",
    "location": "Martin"
  },
  {
    "name": "Boom Rewards",
    "description": "Marketing Programs & Services",
    "phone": "(954) 544-4740",
    "address": "9720 Stirling Rd  Hollywood, FL 33024",
    "location": "Martin"
  },
  {
    "name": "Internet Marketing Ppines",
    "description": "Marketing Programs & Services",
    "phone": "(954) 599-8181",
    "address": "11340 NW 23rd St  Pembroke Pines, FL 33026",
    "location": "Martin"
  },
  {
    "name": "Soflo Social Media Productions",
    "description": "Marketing Programs & Services",
    "phone": "(954) 417-9854",
    "address": "10000 Stirling Rd  Hollywood, FL 33024",
    "location": "Martin"
  },
  {
    "name": "Suncoast Marketing, Inc",
    "description": "Marketing Programs & Services",
    "phone": "(954) 583-4351",
    "address": "4001 SW 47th Ave  Davie, FL 33314",
    "location": "Martin"
  },
  {
    "name": "Wee Too",
    "description": "Marketing Programs & Services",
    "phone": "(954) 435-1365",
    "address": "12001 NW 23rd St  Pembroke Pines, FL 33026",
    "location": "Martin"
  }
]
