[
  {
    "name": "The Petermann Corporation",
    "description": "Marketing Programs & Services",
    "phone": "(850) 243-5315",
    "address": "28 Ferry Rd SE  Fort Walton Beach, FL 32548",
    "location": "Okaloosa"
  },
  {
    "name": "A 2 Z Specialty Advertising",
    "description": "Internet Marketing & Advertising",
    "phone": "(850) 654-3080",
    "address": "13 Eglin Parkway NE Suite B  Fort Walton Beach, FL 32548",
    "location": "Okaloosa"
  },
  {
    "name": "Thrifty Nickel",
    "description": "Publishers-Periodical",
    "phone": "(850) 833-2648",
    "address": "133 Eglin Pkwy SE  Fort Walton Beach, FL 32548",
    "location": "Okaloosa"
  },
  {
    "name": "Mcd Productions",
    "description": "Marketing Consultants",
    "phone": "(850) 302-0111",
    "address": "838 Tropic Ave  Fort Walton Beach, FL 32548",
    "location": "Okaloosa"
  },
  {
    "name": "Trophy Center Inc",
    "description": "Awards",
    "phone": "(850) 862-8413",
    "address": "529 Eglin Pkwy NE  Fort Walton Beach, FL 32547",
    "location": "Okaloosa"
  },
  {
    "name": "Emerald Coast Connected",
    "description": "Marketing Programs & Services",
    "phone": "(850) 905-3400",
    "address": "17 Old Ferry Rd  Shalimar, FL 32579",
    "location": "Okaloosa"
  },
  {
    "name": "SBD Marketing",
    "description": "Marketing Programs & Services",
    "phone": "(850) 820-9444",
    "address": "17 Old Ferry Rd  Shalimar, FL 32579",
    "location": "Okaloosa"
  },
  {
    "name": "Kyana Inc",
    "description": "Marketing Programs & Services",
    "phone": "(850) 362-7444",
    "address": "996 Leigh Ann Ln  Fort Walton Beach, FL 32547",
    "location": "Okaloosa"
  },
  {
    "name": "Emerald Coast Marketing Inc",
    "description": "Marketing Programs & Services",
    "phone": "(850) 863-2500",
    "address": "105 Beach Dr  Fort Walton Beach, FL 32547",
    "location": "Okaloosa"
  },
  {
    "name": "Nightown",
    "description": "Marketing Programs & Services",
    "phone": "(850) 424-6961",
    "address": "127 Harbor Blvd  Destin, FL 32541",
    "location": "Okaloosa"
  },
  {
    "name": "Maxzim Marketing Incorporated",
    "description": "Marketing Programs & Services",
    "phone": "(850) 865-9145",
    "address": "2224 S Fairview St  Fort Walton Beach, FL 32548",
    "location": "Okaloosa"
  },
  {
    "name": "Captevrix",
    "description": "Marketing Programs & Services",
    "phone": "(850) 788-2307",
    "address": "1992 Lewis Turner Blvd # 1135  Fort Walton Beach, FL 32547",
    "location": "Okaloosa"
  },
  {
    "name": "D C I Marketing",
    "description": "Marketing Programs & Services",
    "phone": "(850) 650-6602",
    "address": "10 Commerce Dr  Destin, FL 32541",
    "location": "Okaloosa"
  },
  {
    "name": "Emerald Writing Services",
    "description": "Internet Marketing & Advertising",
    "phone": "(850) 420-5592",
    "address": "781 Pine Alley St  Fort Walton Beach, FL 32547",
    "location": "Okaloosa"
  },
  {
    "name": "Living Scents By The Sea",
    "description": "Decorative Ceramic Products",
    "phone": "(916) 307-0397",
    "address": "112 Poquito Rd  Shalimar, FL 32579",
    "location": "Okaloosa"
  },
  {
    "name": "Aqua Resources Corp",
    "description": "Market Research & Analysis",
    "phone": "(770) 592-1014",
    "address": "20 Linwood Rd NW  Fort Walton Beach, FL 32547",
    "location": "Okaloosa"
  },
  {
    "name": "Gap Creek Media",
    "description": "Internet Marketing & Advertising",
    "phone": "(850) 629-9561",
    "address": "-  Fort Walton Beach, FL 32547",
    "location": "Okaloosa"
  },
  {
    "name": "Emerald Coast Deals",
    "description": "Internet Marketing & Advertising",
    "phone": "(850) 362-6484",
    "address": "94 Ready Ave NW  Fort Walton Beach, FL 32548",
    "location": "Okaloosa"
  },
  {
    "name": "Allied Marketing Ins Group",
    "description": "Marketing Consultants",
    "phone": "(850) 226-8189",
    "address": "151 Mary Esther Blvd  Mary Esther, FL 32569",
    "location": "Okaloosa"
  },
  {
    "name": "Creative Media Imaging",
    "description": "Marketing Consultants",
    "phone": "(850) 745-4127",
    "address": "548 Mary Esther Cut Off NW Ofc NW  Fort Walton Beach, FL 32548",
    "location": "Okaloosa"
  },
  {
    "name": "Peppercorn Marketing Inc",
    "description": "Marketing Consultants",
    "phone": "(850) 864-2251",
    "address": "25 Racetrack Rd NE  Fort Walton Beach, FL 32547",
    "location": "Okaloosa"
  },
  {
    "name": "Destin Internet Marketing",
    "description": "Marketing Consultants",
    "phone": "(850) 460-2443",
    "address": "215 Mountain Dr  Destin, FL 32541",
    "location": "Okaloosa"
  },
  {
    "name": "16th Services Marketing & Publicity",
    "description": "Marketing Programs & Services",
    "phone": "(850) 884-3820",
    "address": "145 Letourneau Cir  Hurlburt Field, FL 32544",
    "location": "Okaloosa"
  },
  {
    "name": "Twinning Pros",
    "description": "Marketing Programs & Services",
    "phone": "(850) 696-0906",
    "address": "775 Gulf Shore Dr  Destin, FL 32541",
    "location": "Okaloosa"
  },
  {
    "name": "The Franatics",
    "description": "Marketing Programs & Services",
    "phone": "(850) 898-1296",
    "address": "543 Harbor Blvd Ste 403  Destin, FL 32541",
    "location": "Okaloosa"
  },
  {
    "name": "Active Marketing Group Inc",
    "description": "Marketing Programs & Services",
    "phone": "(850) 424-3044",
    "address": "4640 Gulfstarr Dr  Destin, FL 32541",
    "location": "Okaloosa"
  },
  {
    "name": "TEXT TO GROW",
    "description": "Coupon Advertising",
    "phone": "(850) 218-9976",
    "address": "1650 W Highway 98  Mary Esther, FL 32569",
    "location": "Okaloosa"
  },
  {
    "name": "K Moody Marketing & Web Design",
    "description": "Web Site Design & Services",
    "phone": "(850) 777-3333",
    "address": "34990 Emerald Coast Pkwy Ste 304  Destin, FL 32541",
    "location": "Okaloosa"
  },
  {
    "name": "Finfrock Marketing",
    "description": "Advertising Agencies",
    "phone": "(850) 253-7466",
    "address": "34990 Emerald Coast Pkwy Ste 321  Destin, FL 32541",
    "location": "Okaloosa"
  },
  {
    "name": "G6 Technical Solutions",
    "description": "Computer Network Design & Systems",
    "phone": "(850) 737-1687",
    "address": "838 Airport Rd  Destin, FL 32541",
    "location": "Okaloosa"
  },
  {
    "name": "Susa Speed Marketing",
    "description": "Sales Promotion Service",
    "phone": "(305) 563-7872",
    "address": "Po Box 1257  Destin, FL 32540",
    "location": "Okaloosa"
  },
  {
    "name": "CartoBlue",
    "description": "Interactive Media",
    "phone": "(800) 838-4675",
    "address": "4300 Legendary Dr Ste 214  Destin, FL 32541",
    "location": "Okaloosa"
  },
  {
    "name": "Dex",
    "description": "Directory & Guide Advertising",
    "phone": "(800) 998-9798",
    "address": "4300 Legendary Dr Ste 214  Destin, FL 32541",
    "location": "Okaloosa"
  },
  {
    "name": "Financial Marketing Inc",
    "description": "Advertising Agencies",
    "phone": "(850) 654-1200",
    "address": "4481 Legendary Dr  Destin, FL 32541",
    "location": "Okaloosa"
  },
  {
    "name": "Global Retail Marketing Inc",
    "description": "Business Coaches & Consultants",
    "phone": "(850) 837-5221",
    "address": "416 Windjammer Ct  Destin, FL 32541",
    "location": "Okaloosa"
  },
  {
    "name": "Hana Lee Salon Marketing",
    "description": "Marketing Programs & Services",
    "phone": "(850) 737-7548",
    "address": "322 Miramar Beach Dr  Miramar Beach, FL 32550",
    "location": "Okaloosa"
  },
  {
    "name": "Homepocket",
    "description": "Marketing Programs & Services",
    "phone": "(855) 547-6253",
    "address": "495 Grand Blvd  Miramar Beach, FL 32550",
    "location": "Okaloosa"
  },
  {
    "name": "Cocard PBS",
    "description": "Marketing Programs & Services",
    "phone": "(850) 424-7520",
    "address": "200 Business Centre Dr  Miramar Beach, FL 32550",
    "location": "Okaloosa"
  },
  {
    "name": "Fresh Start Marketing Inc",
    "description": "Marketing Programs & Services",
    "phone": "(850) 424-7520",
    "address": "200 Business Centre Dr  Miramar Beach, FL 32550",
    "location": "Okaloosa"
  },
  {
    "name": "Zen Co Inc",
    "description": "Marketing Programs & Services",
    "phone": "(850) 344-0224",
    "address": "9375 Us Highway 98 W  Miramar Beach, FL 32550",
    "location": "Okaloosa"
  },
  {
    "name": "AutomotiveOnly.com",
    "description": "Marketing Programs & Services",
    "phone": "(800) 591-5719",
    "address": "495 Grand Blvd  Miramar Beach, FL 32550",
    "location": "Okaloosa"
  },
  {
    "name": "Proffitt PR",
    "description": "Marketing Programs & Services",
    "phone": "(850) 460-7777",
    "address": "9375 Us Highway 98 W Ste 24  Miramar Beach, FL 32550",
    "location": "Okaloosa"
  },
  {
    "name": "Focal Point eSolutions, LLC",
    "description": "Internet Marketing & Advertising",
    "phone": "(850) 428-1467",
    "address": "495 Grand Blvd Ste 206  Miramar Beach, FL 32550",
    "location": "Okaloosa"
  },
  {
    "name": "Red Fish Digital Marketing, LLC.",
    "description": "Internet Marketing & Advertising",
    "phone": "(850) 426-4110",
    "address": "1512 John Sims Pkwy E # 357  Niceville, FL 32578",
    "location": "Okaloosa"
  },
  {
    "name": "Noo Fx",
    "description": "Market Research & Analysis",
    "phone": "(973) 998-5488",
    "address": "1261 Deerwood Dr  Miramar Beach, FL 32550",
    "location": "Okaloosa"
  },
  {
    "name": "Pelican Design Group",
    "description": "Internet Marketing & Advertising",
    "phone": "(850) 502-4330",
    "address": "1045 Cocobolo Dr  Santa Rosa Beach, FL 32459",
    "location": "Okaloosa"
  },
  {
    "name": "Adcentuate",
    "description": "Internet Marketing & Advertising",
    "phone": "(850) 424-1331",
    "address": "495 Grand Blvd Ste 206  Miramar Beach, FL 32550",
    "location": "Okaloosa"
  },
  {
    "name": "Infomedia",
    "description": "Web Site Design & Services",
    "phone": "(850) 316-4244",
    "address": "495 Grand Blvd  Miramar Beach, FL 32550",
    "location": "Okaloosa"
  },
  {
    "name": "Victory Digital Marketing Inc.",
    "description": "Marketing Consultants",
    "phone": "(850) 533-3759",
    "address": "11275 Us Highway 98 W  Miramar Beach, FL 32550",
    "location": "Okaloosa"
  },
  {
    "name": "W Herndon Consulting",
    "description": "Business Coaches & Consultants",
    "phone": "(850) 710-5256",
    "address": "224 Hideaway Bay Dr  Miramar Beach, FL 32550",
    "location": "Okaloosa"
  },
  {
    "name": "Copy Systems Business Center",
    "description": "Commercial Artists",
    "phone": "(850) 279-9100",
    "address": "4821 Us Hwy 98 W  Santa Rosa Beach, FL 32459",
    "location": "Okaloosa"
  },
  {
    "name": "Printers of Pensacola",
    "description": "Marketing Programs & Services",
    "phone": "(850) 434-2588",
    "address": "1207 W Garden St  Pensacola, FL 32502",
    "location": "Okaloosa"
  }
]
