[
  {
    "name": "Phalanx Media Group, LLC",
    "description": "Marketing Programs & Services",
    "phone": "(561) 729-7005",
    "address": "515 N Flagler Dr, Suite P-300  West Palm Beach, FL 33401",
    "location": "Palm_Beach"
  },
  {
    "name": "Mirror Mirror Imagination Group",
    "description": "Marketing Programs & Services",
    "phone": "(347) 421-7598",
    "address": "205 Worth Ave  Palm Beach, FL 33480",
    "location": "Palm_Beach"
  },
  {
    "name": "Gorilla Digital",
    "description": "Marketing Programs & Services",
    "phone": "(561) 220-2336",
    "address": "120 S Dixie Hwy  West Palm Beach, FL 33401",
    "location": "Palm_Beach"
  },
  {
    "name": "SEO.co | An SEO & SEM Company",
    "description": "Marketing Programs & Services",
    "phone": "(877) 545-4769",
    "address": "700 S Rosemary Ave Ste 204  West Palm Beach, FL 33401",
    "location": "Palm_Beach"
  },
  {
    "name": "Ryan William's Agency",
    "description": "Marketing Programs & Services",
    "phone": "(561) 588-6336",
    "address": "1014 North Olive Avenue  West Palm Beach, FL 33401",
    "location": "Palm_Beach"
  },
  {
    "name": "Rennova Health, Inc",
    "description": "Marketing Programs & Services",
    "phone": "(561) 855-1626",
    "address": "400 S Australian Ave  West Palm Beach, FL 33401",
    "location": "Palm_Beach"
  },
  {
    "name": "Sole Searching LLC",
    "description": "Marketing Programs & Services",
    "phone": "(561) 951-7585",
    "address": "1125 Douglass Ave  West Palm Beach, FL 33401",
    "location": "Palm_Beach"
  },
  {
    "name": "Dima Marketing",
    "description": "Marketing Programs & Services",
    "phone": "(561) 249-6427",
    "address": "224 Datura St Ste 809  West Palm Beach, FL 33401",
    "location": "Palm_Beach"
  },
  {
    "name": "PMP Marketing Group",
    "description": "Marketing Programs & Services",
    "phone": "(561) 337-3957",
    "address": "330 Clematis St  West Palm Beach, FL 33401",
    "location": "Palm_Beach"
  },
  {
    "name": "Johnston Marketing Group",
    "description": "Marketing Programs & Services",
    "phone": "(561) 203-5630",
    "address": "700 S Rosemary Ave  West Palm Beach, FL 33401",
    "location": "Palm_Beach"
  },
  {
    "name": "Infinity Direct Marketing Inc.",
    "description": "Marketing Programs & Services",
    "phone": "(321) 352-4674",
    "address": "401 N Rosemary Ave  West Palm Beach, FL 33401",
    "location": "Palm_Beach"
  },
  {
    "name": "Sunshine Advance Corporation",
    "description": "Marketing Programs & Services",
    "phone": "(561) 691-1552",
    "address": "319 Clematis St Ste 708  West Palm Beach, FL 33401",
    "location": "Palm_Beach"
  },
  {
    "name": "Palm Beach County Convention-Discover the Palm Beaches FL",
    "description": "Marketing Programs & Services",
    "phone": "(800) 554-7256",
    "address": "401 N Flagler Dr  West Palm Beach, FL 33401",
    "location": "Palm_Beach"
  },
  {
    "name": "VSP Marketing Graphic Group",
    "description": "Marketing Programs & Services",
    "phone": "(561) 228-1611",
    "address": "515 N Flagler Dr  West Palm Beach, FL 33401",
    "location": "Palm_Beach"
  },
  {
    "name": "BLACK MEDIA NETWORK",
    "description": "Marketing Programs & Services",
    "phone": "(954) 865-6595",
    "address": "515 N Flagler Dr  West Palm Beach, FL 33401",
    "location": "Palm_Beach"
  },
  {
    "name": "Michelson, Tracey",
    "description": "Marketing Programs & Services",
    "phone": "(847) 345-9168",
    "address": "1011 1/2 N Olive Ave  West Palm Beach, FL 33401",
    "location": "Palm_Beach"
  },
  {
    "name": "NFT Marketing",
    "description": "Marketing Programs & Services",
    "phone": "(561) 296-0929",
    "address": "500 S Australian Ave  West Palm Beach, FL 33401",
    "location": "Palm_Beach"
  },
  {
    "name": "Cornelius Marketing",
    "description": "Marketing Programs & Services",
    "phone": "(561) 547-3889",
    "address": "3474 S Ocean Blvd Apt 13  Palm Beach, FL 33480",
    "location": "Palm_Beach"
  },
  {
    "name": "Gps Public Relations",
    "description": "Marketing Programs & Services",
    "phone": "(561) 201-6021",
    "address": "610 Clematis St  West Palm Beach, FL 33401",
    "location": "Palm_Beach"
  },
  {
    "name": "Digital Resource",
    "description": "Marketing Programs & Services",
    "phone": "(561) 429-2585",
    "address": "100 S Dixie Hwy Ste 303  West Palm Beach, FL 33401",
    "location": "Palm_Beach"
  },
  {
    "name": "Internet Marketing Services Inc.",
    "description": "Marketing Programs & Services",
    "phone": "(561) 370-7366",
    "address": "515 N Flagler Dr Ste P300  West Palm Beach, FL 33401",
    "location": "Palm_Beach"
  },
  {
    "name": "Pathos",
    "description": "Marketing Programs & Services",
    "phone": "(561) 688-2880",
    "address": "319 Clematis St Ste 110  West Palm Beach, FL 33401",
    "location": "Palm_Beach"
  },
  {
    "name": "Loudr A Bottom Line Agency - West Palm Beach, FL",
    "description": "Marketing Programs & Services",
    "phone": "(561) 791-6295",
    "address": "100 S Dixie Hwy Ste 200-202  West Palm Beach, FL 33401",
    "location": "Palm_Beach"
  },
  {
    "name": "Think Freely Marketing Group",
    "description": "Marketing Programs & Services",
    "phone": "(561) 293-3009",
    "address": "500 S Australian Ave  West Palm Beach, FL 33401",
    "location": "Palm_Beach"
  },
  {
    "name": "Minuteman Press",
    "description": "Marketing Programs & Services",
    "phone": "(561) 655-5355",
    "address": "2822 S Dixie Hwy  West Palm Beach, FL 33405",
    "location": "Palm_Beach"
  },
  {
    "name": "Clever Maniacs Inc.",
    "description": "Marketing Programs & Services",
    "phone": "(855) 411-5628",
    "address": "777 South Flagler Drive Suite 800, West Tower  West Palm Beach, FL 33401",
    "location": "Palm_Beach"
  },
  {
    "name": "Digital Target Marketing",
    "description": "Marketing Programs & Services",
    "phone": "(561) 797-6870",
    "address": "224 Datura St Ste 1300  West Palm Beach, FL 33401",
    "location": "Palm_Beach"
  },
  {
    "name": "Rigstar Media",
    "description": "Marketing Programs & Services",
    "phone": "(855) 474-4782",
    "address": "401 N Rosemary Ave  West Palm Beach, FL 33401",
    "location": "Palm_Beach"
  },
  {
    "name": "Javita Independent Distributor",
    "description": "Marketing Programs & Services",
    "phone": "(305) 771-4777",
    "address": "Dixie Highway  West Palm Beach, FL 33401",
    "location": "Palm_Beach"
  },
  {
    "name": "Ad Therapy Inc",
    "description": "Marketing Programs & Services",
    "phone": "(561) 588-6336",
    "address": "1804 N Dixie Hwy  West Palm Beach, FL 33407",
    "location": "Palm_Beach"
  },
  {
    "name": "Webmaster For Hire",
    "description": "Internet Marketing & Advertising",
    "phone": "(561) 822-9931",
    "address": "301 Clematis St Ste 3000  West Palm Beach, FL 33401",
    "location": "Palm_Beach"
  },
  {
    "name": "CRL Media Multicultural Advertising & PR",
    "description": "Public Relations Counselors",
    "phone": "(561) 855-2144",
    "address": "301 Clematis St  West Palm Beach, FL 33401",
    "location": "Palm_Beach"
  },
  {
    "name": "BIP media",
    "description": "Internet Marketing & Advertising",
    "phone": "(305) 340-2398",
    "address": "424 Hampton Rd  West Palm Beach, FL 33405",
    "location": "Palm_Beach"
  },
  {
    "name": "Naked Digital",
    "description": "Web Site Design & Services",
    "phone": "(561) 899-0761",
    "address": "410 Evernia St., Ste. 104  West Palm Beach, FL 33401",
    "location": "Palm_Beach"
  },
  {
    "name": "Media Giant Design",
    "description": "Internet Marketing & Advertising",
    "phone": "(561) 247-2894",
    "address": "700 S Rosemary Ave Ste 204L4  West Palm Beach, FL 33401",
    "location": "Palm_Beach"
  },
  {
    "name": "Reputation 1",
    "description": "Internet Marketing & Advertising",
    "phone": "(561) 249-6103",
    "address": "Serving South East Florida  West Palm Beach, FL 33401",
    "location": "Palm_Beach"
  },
  {
    "name": "Script Rx Incorporated",
    "description": "Computer Software Publishers & Developers",
    "phone": "(561) 805-5935",
    "address": "312 Clematis St Ste 301  West Palm Beach, FL 33401",
    "location": "Palm_Beach"
  },
  {
    "name": "Softline Solutions",
    "description": "Internet Marketing & Advertising",
    "phone": "(888) 335-2226",
    "address": "700 S Rosemary Ave Ste 204-A1  West Palm Beach, FL 33401",
    "location": "Palm_Beach"
  },
  {
    "name": "Seongo",
    "description": "Internet Marketing & Advertising",
    "phone": "(973) 600-4468",
    "address": "2118 Florida Ave  West Palm Beach, FL 33401",
    "location": "Palm_Beach"
  },
  {
    "name": "Boardroompr",
    "description": "Advertising Agencies",
    "phone": "(561) 708-4683",
    "address": "777 S Flagler Dr  West Palm Beach, FL 33401",
    "location": "Palm_Beach"
  },
  {
    "name": "Halo Technologies LLC - 3D Printing",
    "description": "Business Coaches & Consultants",
    "phone": "(561) 530-7689",
    "address": "224 Datura St Ste 402  West Palm Beach, FL 33401",
    "location": "Palm_Beach"
  },
  {
    "name": "Moving Minds",
    "description": "Marketing Consultants",
    "phone": "(800) 420-7026",
    "address": "700 S Rosemary Ave Ste 204  West Palm Beach, FL 33401",
    "location": "Palm_Beach"
  },
  {
    "name": "The Bart Organization, Inc.",
    "description": "Marketing Consultants",
    "phone": "(678) 471-4871",
    "address": "403 S Sapodilla Ave  West Palm Beach, FL 33401",
    "location": "Palm_Beach"
  },
  {
    "name": "Digital Elevator",
    "description": "Internet Marketing & Advertising",
    "phone": "(561) 692-3719",
    "address": "301 N Clematis St, #3000  West Palm Beach, FL 33401",
    "location": "Palm_Beach"
  },
  {
    "name": "Adiste Marketing",
    "description": "Internet Marketing & Advertising",
    "phone": "(561) 935-4852",
    "address": "301 Clematis St Ste 4000  West Palm Beach, FL 33401",
    "location": "Palm_Beach"
  },
  {
    "name": "Inbound Authority",
    "description": "Internet Marketing & Advertising",
    "phone": "(561) 223-1736",
    "address": "1106 Florida Ave  West Palm Beach, FL 33401",
    "location": "Palm_Beach"
  },
  {
    "name": "National Wealth Center",
    "description": "Internet Consultants",
    "phone": "(561) 876-3648",
    "address": "P..O Box 4929  West Palm Beach, FL 33401",
    "location": "Palm_Beach"
  },
  {
    "name": "FunnelVision - Online Marketing",
    "description": "Internet Marketing & Advertising",
    "phone": "(561) 513-0236",
    "address": "300 S. Australian Ave., Suite 1503  West Palm Beach, FL 33401",
    "location": "Palm_Beach"
  },
  {
    "name": "Think Virtual Fieldwork",
    "description": "Market Research & Analysis",
    "phone": "(212) 699-1901",
    "address": "205 Worth Ave  Palm Beach, FL 33480",
    "location": "Palm_Beach"
  },
  {
    "name": "Lewis SEO",
    "description": "Internet Marketing & Advertising",
    "phone": "(561) 232-3635",
    "address": "400 Royal Palm Way  Palm Beach, FL 33480",
    "location": "Palm_Beach"
  },
  {
    "name": "Askart.com",
    "description": "Internet Marketing & Advertising",
    "phone": "(800) 857-4301",
    "address": "211 Worth Ave  Palm Beach, FL 33480",
    "location": "Palm_Beach"
  },
  {
    "name": "SoFla Networking",
    "description": "Internet Marketing & Advertising",
    "phone": "(561) 827-5694",
    "address": "222 Lakeview Ave Ste 160-258  West Palm Beach, FL 33401",
    "location": "Palm_Beach"
  },
  {
    "name": "Consult PR.net",
    "description": "Internet Marketing & Advertising",
    "phone": "(561) 444-7265",
    "address": "301 Clematis Street  West Palm Beach, FL 33401",
    "location": "Palm_Beach"
  },
  {
    "name": "Collectors Net",
    "description": "Internet Marketing & Advertising",
    "phone": "(561) 318-6217",
    "address": "331 Clematis St  West Palm Beach, FL 33401",
    "location": "Palm_Beach"
  },
  {
    "name": "1Db.com",
    "description": "Internet Marketing & Advertising",
    "phone": "(561) 515-3200",
    "address": "515 N Flagler Dr  West Palm Beach, FL 33401",
    "location": "Palm_Beach"
  },
  {
    "name": "Hiredyou.com",
    "description": "Internet Marketing & Advertising",
    "phone": "(561) 360-5964",
    "address": "515 N Flagler Dr  West Palm Beach, FL 33401",
    "location": "Palm_Beach"
  },
  {
    "name": "Construction Story",
    "description": "Internet Marketing & Advertising",
    "phone": "(561) 355-2368",
    "address": "205 N Dixie Hwy  West Palm Beach, FL 33401",
    "location": "Palm_Beach"
  },
  {
    "name": "Art Tech Studio",
    "description": "Internet Consultants",
    "phone": "(561) 358-2259",
    "address": "460 S Rosemary Ave  West Palm Beach, FL 33401",
    "location": "Palm_Beach"
  },
  {
    "name": "SEO Marketing Miami",
    "description": "Internet Marketing & Advertising",
    "phone": "(786) 708-8111",
    "address": "524 Datura St  West Palm Beach, FL 33401",
    "location": "Palm_Beach"
  },
  {
    "name": "Palmbeachjewelers.com",
    "description": "Internet Marketing & Advertising",
    "phone": "(561) 655-0729",
    "address": "1803 N Flagler Dr  West Palm Beach, FL 33407",
    "location": "Palm_Beach"
  },
  {
    "name": "Pr Luxury",
    "description": "Marketing Consultants",
    "phone": "(561) 328-3605",
    "address": "205 Worth Ave  Palm Beach, FL 33480",
    "location": "Palm_Beach"
  },
  {
    "name": "Z World Marketing",
    "description": "Marketing Consultants",
    "phone": "(561) 835-1933",
    "address": "525 S Flagler Dr  West Palm Beach, FL 33401",
    "location": "Palm_Beach"
  },
  {
    "name": "Primacy",
    "description": "Marketing Consultants",
    "phone": "(561) 354-1300",
    "address": "525 S Flagler Dr  West Palm Beach, FL 33401",
    "location": "Palm_Beach"
  },
  {
    "name": "Sharp Think",
    "description": "Marketing Consultants",
    "phone": "(212) 829-0002",
    "address": "220 Sunrise Ave  Palm Beach, FL 33480",
    "location": "Palm_Beach"
  },
  {
    "name": "Double A Marketing",
    "description": "Marketing Consultants",
    "phone": "(561) 623-0868",
    "address": "105 S Narcissus Ave  West Palm Beach, FL 33401",
    "location": "Palm_Beach"
  },
  {
    "name": "Lombardo & Partners",
    "description": "Advertising Agencies",
    "phone": "(561) 557-4950",
    "address": "222 Clematis St  West Palm Beach, FL 33401",
    "location": "Palm_Beach"
  },
  {
    "name": "SoVi Digital",
    "description": "Advertising Agencies",
    "phone": "(561) 544-7999",
    "address": "319 Clematis St  West Palm Beach, FL 33401",
    "location": "Palm_Beach"
  },
  {
    "name": "Magical Touch Marketing",
    "description": "Marketing Consultants",
    "phone": "(954) 320-6108",
    "address": "515 N Flagler Dr Ste P300  West Palm Beach, FL 33401",
    "location": "Palm_Beach"
  },
  {
    "name": "Progressive Marketing",
    "description": "Marketing Consultants",
    "phone": "(561) 886-9718",
    "address": "515 N Flagler Dr Ste P300  West Palm Beach, FL 33401",
    "location": "Palm_Beach"
  },
  {
    "name": "Unique Visions",
    "description": "Advertising Agencies",
    "phone": "(561) 247-3630",
    "address": "1109 Florida Ave  West Palm Beach, FL 33401",
    "location": "Palm_Beach"
  },
  {
    "name": "Power Marketing Academy",
    "description": "Marketing Consultants",
    "phone": "(561) 650-1315",
    "address": "701 S Rosemary Ave Apt 313  West Palm Beach, FL 33401",
    "location": "Palm_Beach"
  },
  {
    "name": "Bright Eyes Marketing",
    "description": "Marketing Consultants",
    "phone": "(561) 721-9311",
    "address": "616 Clearwater Park Rd  West Palm Beach, FL 33401",
    "location": "Palm_Beach"
  },
  {
    "name": "West Palm Beach Digital Marketing",
    "description": "Marketing Consultants",
    "phone": "(561) 782-4080",
    "address": "1525 N Flagler Dr  West Palm Beach, FL 33401",
    "location": "Palm_Beach"
  },
  {
    "name": "Marketing Concepts Inc",
    "description": "Marketing Consultants",
    "phone": "(561) 655-1333",
    "address": "1804 N Dixie Hwy  West Palm Beach, FL 33407",
    "location": "Palm_Beach"
  },
  {
    "name": "Beach Labs, Inc.",
    "description": "Marketing Consultants",
    "phone": "(561) 408-5147",
    "address": "3450 S Ocean Blvd Apt 122  Palm Beach, FL 33480",
    "location": "Palm_Beach"
  },
  {
    "name": "Roofing Unlimited & Sheet Metal",
    "description": "Cranes",
    "phone": "(561) 855-0335",
    "address": "1146 53rd Ct N  Mangonia Park, FL 33407",
    "location": "Palm_Beach"
  },
  {
    "name": "Viseo Marketing Solutions",
    "description": "Marketing Programs & Services",
    "phone": "(561) 203-4285",
    "address": "259 Courtney Lakes Cir Apt 206  West Palm Beach, FL 33401",
    "location": "Palm_Beach"
  },
  {
    "name": "Fairway Finders",
    "description": "Marketing Programs & Services",
    "phone": "(561) 404-7966",
    "address": "1750 N Florida Mango Rd  West Palm Beach, FL 33409",
    "location": "Palm_Beach"
  },
  {
    "name": "HiRISE Digital Corp.",
    "description": "Marketing Programs & Services",
    "phone": "(561) 376-5673",
    "address": "1645 Palm Beach Lakes Blvd Ste 1200  West Palm Beach, FL 33401",
    "location": "Palm_Beach"
  },
  {
    "name": "Gottfried Marketing",
    "description": "Marketing Programs & Services",
    "phone": "(561) 662-2273",
    "address": "1645 Palm Beach Lakes Blvd  West Palm Beach, FL 33401",
    "location": "Palm_Beach"
  },
  {
    "name": "PTM Marketing",
    "description": "Marketing Programs & Services",
    "phone": "(561) 223-2966",
    "address": "1711 Worthington Rd  West Palm Beach, FL 33409",
    "location": "Palm_Beach"
  },
  {
    "name": "Jw",
    "description": "Marketing Programs & Services",
    "phone": "(561) 588-0808",
    "address": "365 Linda Ln  West Palm Beach, FL 33405",
    "location": "Palm_Beach"
  },
  {
    "name": "Isis Power Marketing Inc.",
    "description": "Marketing Programs & Services",
    "phone": "(561) 689-6999",
    "address": "2300 palm beach lakes blvd  West Palm Beach, FL 33409",
    "location": "Palm_Beach"
  },
  {
    "name": "Saling on Blue Waters",
    "description": "Marketing Programs & Services",
    "phone": "(561) 906-2583",
    "address": "2910 N Flagler Dr  West Palm Beach, FL 33407",
    "location": "Palm_Beach"
  },
  {
    "name": "Level 1 Marketing",
    "description": "Marketing Programs & Services",
    "phone": "(561) 935-1960",
    "address": "1665 Palm Beach Lakes Blvd  West Palm Beach, FL 33401",
    "location": "Palm_Beach"
  },
  {
    "name": "Achieve",
    "description": "Marketing Programs & Services",
    "phone": "(317) 637-3000",
    "address": "2000 Palm Beach Lakes Blvd  West Palm Beach, FL 33409",
    "location": "Palm_Beach"
  },
  {
    "name": "Postific - Social Media Management Tool",
    "description": "Marketing Programs & Services",
    "phone": "(989) 750-3697",
    "address": "PALM Beach Lakes Blvd Fl  West Palm Beach, FL 33401",
    "location": "Palm_Beach"
  },
  {
    "name": "Mao Web Solutions",
    "description": "Marketing Programs & Services",
    "phone": "(561) 906-8797",
    "address": "650 Pacific Grove Dr Unit 1  West Palm Beach, FL 33401",
    "location": "Palm_Beach"
  },
  {
    "name": "The Digital Intellect",
    "description": "Marketing Programs & Services",
    "phone": "(561) 677-9656",
    "address": "2090 Palm Beach Lakes Blvd Ste 800  West Palm Beach, FL 33409",
    "location": "Palm_Beach"
  },
  {
    "name": "Self Made Empire of Florida",
    "description": "Marketing Programs & Services",
    "phone": "(561) 768-3710",
    "address": "1210 Palm Beach Lakes Blvd Apt E7  West Palm Beach, FL 33401",
    "location": "Palm_Beach"
  },
  {
    "name": "Boom Media",
    "description": "Marketing Programs & Services",
    "phone": "(888) 525-2666",
    "address": "720 Bunker Road  West Palm Beach, FL 33405",
    "location": "Palm_Beach"
  },
  {
    "name": "Imaginow Consulting Group Fl",
    "description": "Marketing Programs & Services",
    "phone": "(561) 517-8910",
    "address": "2930 Okeechobee Blvd  West Palm Beach, FL 33409",
    "location": "Palm_Beach"
  },
  {
    "name": "La Vine Charities",
    "description": "Marketing Programs & Services",
    "phone": "(561) 531-7222",
    "address": "385 Valley Forge rd  West Palm Beach, FL 33405",
    "location": "Palm_Beach"
  },
  {
    "name": "Highland Products Group",
    "description": "Marketing Programs & Services",
    "phone": "(561) 338-7422",
    "address": "931 Village Blvd  West Palm Beach, FL 33409",
    "location": "Palm_Beach"
  },
  {
    "name": "Web LLC",
    "description": "Marketing Programs & Services",
    "phone": "(800) 980-7288",
    "address": "1213 50th St  West Palm Beach, FL 33407",
    "location": "Palm_Beach"
  },
  {
    "name": "SLP Media Group",
    "description": "Public Relations Counselors",
    "phone": "(866) 944-8571",
    "address": "931 Village Blvd Ste 905-359  West Palm Beach, FL 33409",
    "location": "Palm_Beach"
  },
  {
    "name": "YP Marketing Solutions",
    "description": "Directory & Guide Advertising",
    "phone": "(561) 688-5500",
    "address": "2000 Palm Beach Lakes Blvd Ste 203  West Palm Beach, FL 33409",
    "location": "Palm_Beach"
  },
  {
    "name": "That Agency",
    "description": "Internet Marketing & Advertising",
    "phone": "(561) 832-6262",
    "address": "2000 Palm Beach Lakes Blvd Ste 601  West Palm Beach, FL 33409",
    "location": "Palm_Beach"
  },
  {
    "name": "Anderson Research",
    "description": "Market Research & Analysis",
    "phone": "(561) 389-5579",
    "address": "6410 S Olive Ave  West Palm Beach, FL 33405",
    "location": "Palm_Beach"
  },
  {
    "name": "Comprehensive Clinical Research",
    "description": "Market Research & Analysis",
    "phone": "(561) 478-3177",
    "address": "603 Village Blvd  West Palm Beach, FL 33409",
    "location": "Palm_Beach"
  },
  {
    "name": "ilocal SEO",
    "description": "Internet Marketing & Advertising",
    "phone": "(305) 239-8505",
    "address": "Pine Terrace  West Palm Beach, FL 33405",
    "location": "Palm_Beach"
  },
  {
    "name": "Onesta Digital Marketing",
    "description": "Internet Marketing & Advertising",
    "phone": "(561) 714-3898",
    "address": "201 Lainhart Ct  West Palm Beach, FL 33409",
    "location": "Palm_Beach"
  },
  {
    "name": "Digital Emotions Agency",
    "description": "Internet Marketing & Advertising",
    "phone": "(561) 598-0087",
    "address": "2000 Presidential Way  West Palm Beach, FL 33401",
    "location": "Palm_Beach"
  },
  {
    "name": "New Epic Media",
    "description": "Internet Marketing & Advertising",
    "phone": "(561) 282-0365",
    "address": "2000 Palm Beach Lakes Blvd  West Palm Beach, FL 33409",
    "location": "Palm_Beach"
  },
  {
    "name": "West Palm Beach Website Design",
    "description": "Web Site Design & Services",
    "phone": "(561) 231-0080",
    "address": "2000 Palm Beach Lakes Blvd 2nd Fl  West Palm Beach, FL 33409",
    "location": "Palm_Beach"
  },
  {
    "name": "Digital Arts Enterprises",
    "description": "Internet Marketing & Advertising",
    "phone": "(877) 504-5682",
    "address": "2300 Palm Beach Lakes Blvd Suite 200F  West Palm Beach, FL 33409",
    "location": "Palm_Beach"
  },
  {
    "name": "Minding My Business",
    "description": "Advertising Agencies",
    "phone": "(561) 463-0542",
    "address": "235 Courtney Lakes Cir  West Palm Beach, FL 33401",
    "location": "Palm_Beach"
  },
  {
    "name": "Effectv",
    "description": "Advertising Agencies",
    "phone": "(888) 877-9799",
    "address": "1700 Palm Beach Lakes Blvd Ste 900  West Palm Beach, FL 33401",
    "location": "Palm_Beach"
  },
  {
    "name": "Oceanside Research",
    "description": "Market Research & Analysis",
    "phone": "(561) 389-5579",
    "address": "6410 S Olive Ave  West Palm Beach, FL 33405",
    "location": "Palm_Beach"
  },
  {
    "name": "Mediasophia",
    "description": "Internet Marketing & Advertising",
    "phone": "(877) 825-9020",
    "address": "321 Palmetto St  West Palm Beach, FL 33405",
    "location": "Palm_Beach"
  },
  {
    "name": "Palm Beach Focus",
    "description": "Market Research & Analysis",
    "phone": "(561) 640-3242",
    "address": "1655 Palm Beach Lakes Blvd Ste 203  West Palm Beach, FL 33401",
    "location": "Palm_Beach"
  },
  {
    "name": "Palm Beach Research Center",
    "description": "Market Research & Analysis",
    "phone": "(561) 689-0606",
    "address": "1897 Palm Beach Lakes Blvd Ste 120  West Palm Beach, FL 33409",
    "location": "Palm_Beach"
  },
  {
    "name": "A Classified Marketplace",
    "description": "Directory & Guide Advertising",
    "phone": "(800) 914-4705",
    "address": "Po Box 7432  West Palm Beach, FL 33405",
    "location": "Palm_Beach"
  },
  {
    "name": "Etrend",
    "description": "Internet Marketing & Advertising",
    "phone": "(954) 300-1187",
    "address": "1645 Palm Beach Lakes Blvd  West Palm Beach, FL 33401",
    "location": "Palm_Beach"
  },
  {
    "name": "Pbapprs.com",
    "description": "Internet Marketing & Advertising",
    "phone": "(561) 689-8608",
    "address": "1300 Old Congress Ave  West Palm Beach, FL 33409",
    "location": "Palm_Beach"
  },
  {
    "name": "Skipthediploma.com Inc",
    "description": "Internet Marketing & Advertising",
    "phone": "(561) 318-7513",
    "address": "5523 Columbus Rd  West Palm Beach, FL 33405",
    "location": "Palm_Beach"
  },
  {
    "name": "Advanced Website Designs Corp",
    "description": "Internet Marketing & Advertising",
    "phone": "(561) 626-2729",
    "address": "Palm Beach Lakes Blvd  West Palm Beach, FL 33401",
    "location": "Palm_Beach"
  },
  {
    "name": "S & S Marketing Inc",
    "description": "Marketing Consultants",
    "phone": "(561) 684-7471",
    "address": "1750 N Florida Mango Rd  West Palm Beach, FL 33409",
    "location": "Palm_Beach"
  },
  {
    "name": "Charles River Marketing",
    "description": "Marketing Consultants",
    "phone": "(561) 687-8586",
    "address": "1750 N Florida Mango Rd  West Palm Beach, FL 33409",
    "location": "Palm_Beach"
  },
  {
    "name": "Future Direct, Inc.",
    "description": "Business Coaches & Consultants",
    "phone": "(855) 463-3764",
    "address": "2000 N Florida Mango Rd Ste 207  West Palm Beach, FL 33409",
    "location": "Palm_Beach"
  },
  {
    "name": "West Palm Beach Graphics",
    "description": "Graphic Designers",
    "phone": "(561) 615-2600",
    "address": "1689 Latham Rd  West Palm Beach, FL 33409",
    "location": "Palm_Beach"
  },
  {
    "name": "Making Today Better PR & Marketing",
    "description": "Marketing Consultants",
    "phone": "(561) 616-3395",
    "address": "1550 Latham Rd  West Palm Beach, FL 33409",
    "location": "Palm_Beach"
  },
  {
    "name": "School Sports Media",
    "description": "Marketing Consultants",
    "phone": "(877) 452-0953",
    "address": "1675 Palm Beach Lakes Blvd  West Palm Beach, FL 33401",
    "location": "Palm_Beach"
  },
  {
    "name": "Absolute Marketing and Management",
    "description": "Business Coaches & Consultants",
    "phone": "(561) 855-2297",
    "address": "900 Osceola Dr  West Palm Beach, FL 33409",
    "location": "Palm_Beach"
  },
  {
    "name": "International Research Specialist Inc.",
    "description": "Marketing Consultants",
    "phone": "(561) 842-0606",
    "address": "2001 Palm Beach Lakes Blvd Ste 302  West Palm Beach, FL 33409",
    "location": "Palm_Beach"
  },
  {
    "name": "Vector Marketing",
    "description": "Marketing Consultants",
    "phone": "(561) 232-2979",
    "address": "2300 Palm Beach Lakes Blvd Ste 102  West Palm Beach, FL 33409",
    "location": "Palm_Beach"
  },
  {
    "name": "The Boner Group",
    "description": "Marketing Consultants",
    "phone": "(561) 688-2880",
    "address": "440 Columbia Dr Ste 105  West Palm Beach, FL 33409",
    "location": "Palm_Beach"
  },
  {
    "name": "Gene Eherenfeldt",
    "description": "Marketing Consultants",
    "phone": "(561) 630-6550",
    "address": "931 Village Blvd  West Palm Beach, FL 33409",
    "location": "Palm_Beach"
  },
  {
    "name": "Interstate Marketing Consultants",
    "description": "Marketing Consultants",
    "phone": "(844) 213-4100",
    "address": "931 Village Blvd  West Palm Beach, FL 33409",
    "location": "Palm_Beach"
  },
  {
    "name": "Olivo",
    "description": "Marketing Consultants",
    "phone": "(561) 689-7238",
    "address": "15104 Glenmoor Dr  West Palm Beach, FL 33409",
    "location": "Palm_Beach"
  },
  {
    "name": "Advertising and Marketing Solutions",
    "description": "Marketing Programs & Services",
    "phone": "(718) 600-5014",
    "address": "3900 Haverhill Rd N Unit 223542  West Palm Beach, FL 33422",
    "location": "Palm_Beach"
  },
  {
    "name": "J & S Marketing",
    "description": "Marketing Programs & Services",
    "phone": "(561) 799-1188",
    "address": "7711 N Military Trl  West Palm Beach, FL 33410",
    "location": "Palm_Beach"
  },
  {
    "name": "Palm Beach Clipper",
    "description": "Marketing Programs & Services",
    "phone": "(561) 541-8108",
    "address": "4260 Leo Ln  Riviera Beach, FL 33410",
    "location": "Palm_Beach"
  },
  {
    "name": "MegaShark Tech",
    "description": "Marketing Programs & Services",
    "phone": "(561) 247-5312",
    "address": "1248 S Military Trl  West Palm Beach, FL 33415",
    "location": "Palm_Beach"
  },
  {
    "name": "Mikes Local Leads",
    "description": "Marketing Programs & Services",
    "phone": "(561) 581-2125",
    "address": "2651 Muskegon Way  West Palm Beach, FL 33411",
    "location": "Palm_Beach"
  },
  {
    "name": "Strategic Marketing",
    "description": "Marketing Programs & Services",
    "phone": "(561) 688-8155",
    "address": "2541 Metrocentre Blvd  West Palm Beach, FL 33407",
    "location": "Palm_Beach"
  },
  {
    "name": "Brian Marketing Group",
    "description": "Marketing Programs & Services",
    "phone": "(561) 645-0669",
    "address": "155 E Blue Heron Blvd  Riviera Beach, FL 33404",
    "location": "Palm_Beach"
  },
  {
    "name": "Big Digital Graphics",
    "description": "Marketing Programs & Services",
    "phone": "(561) 844-4708",
    "address": "1335 Old Dixie Hwy Unit 4  Lake Park, FL 33403",
    "location": "Palm_Beach"
  },
  {
    "name": "WhatzOnebayy",
    "description": "Marketing Programs & Services",
    "phone": "(561) 506-8528",
    "address": "3771 Mil Run Ct  Greenacres, FL 33463",
    "location": "Palm_Beach"
  },
  {
    "name": "Gale Force Digital Technologies",
    "description": "Marketing Programs & Services",
    "phone": "(561) 688-8155",
    "address": "8895 N Military Trl  West Palm Beach, FL 33410",
    "location": "Palm_Beach"
  },
  {
    "name": "Steve Zanotti",
    "description": "Marketing Programs & Services",
    "phone": "(561) 774-0767",
    "address": "2549 Forest Hill Blvd  West Palm Beach, FL 33406",
    "location": "Palm_Beach"
  },
  {
    "name": "P & L Advertising and Marketing",
    "description": "Marketing Programs & Services",
    "phone": "(561) 660-8539",
    "address": "4500 Belvedere Rd Ste G  Haverhill, FL 33415",
    "location": "Palm_Beach"
  },
  {
    "name": "Dolce Vita Marketing",
    "description": "Marketing Programs & Services",
    "phone": "(561) 848-0266",
    "address": "155 S Ocean Ave  Palm Beach Shores, FL 33404",
    "location": "Palm_Beach"
  },
  {
    "name": "Vedado of Palm Beach",
    "description": "Marketing Programs & Services",
    "phone": "(561) 432-7424",
    "address": "1336 S Military Trl  West Palm Beach, FL 33415",
    "location": "Palm_Beach"
  },
  {
    "name": "Quigley Marketing Group",
    "description": "Marketing Programs & Services",
    "phone": "(561) 232-3160",
    "address": "2041 Vista Pkwy  West Palm Beach, FL 33411",
    "location": "Palm_Beach"
  },
  {
    "name": "Marketing Services",
    "description": "Marketing Programs & Services",
    "phone": "(561) 328-9451",
    "address": "5350 10th Ave N  Greenacres, FL 33463",
    "location": "Palm_Beach"
  },
  {
    "name": "AlphaAndOmegaCompWebServ",
    "description": "Marketing Programs & Services",
    "phone": "(305) 206-7403",
    "address": "4611 Kirk Rd  Lake Worth, FL 33461",
    "location": "Palm_Beach"
  },
  {
    "name": "Tactical Marketing & Seo",
    "description": "Marketing Programs & Services",
    "phone": "(844) 285-5381",
    "address": "4256 Melaleuca Ln  Lake Worth, FL 33461",
    "location": "Palm_Beach"
  },
  {
    "name": "Tropicaletrade",
    "description": "Marketing Programs & Services",
    "phone": "(772) 618-3605",
    "address": "4200 Community Dr  West Palm Beach, FL 33409",
    "location": "Palm_Beach"
  },
  {
    "name": "Elite Travel Group",
    "description": "Marketing Programs & Services",
    "phone": "(833) 629-1035",
    "address": "1489 N Military Trl  West Palm Beach, FL 33409",
    "location": "Palm_Beach"
  },
  {
    "name": "Cross Industry Marketing LLC",
    "description": "Marketing Programs & Services",
    "phone": "(954) 289-3427",
    "address": "4157 winnipeg way  West Palm Beach, FL 33409",
    "location": "Palm_Beach"
  },
  {
    "name": "Walmart",
    "description": "Marketing Programs & Services",
    "phone": "(786) 631-7870",
    "address": "834 Blue Ridge Cir  West Palm Beach, FL 33409",
    "location": "Palm_Beach"
  },
  {
    "name": "Baikal Marketing Group",
    "description": "Marketing Programs & Services",
    "phone": "(561) 855-4678",
    "address": "2500 Metrocentre Blvd  West Palm Beach, FL 33407",
    "location": "Palm_Beach"
  },
  {
    "name": "2060 Digital",
    "description": "Marketing Programs & Services",
    "phone": "(561) 616-4600",
    "address": "701 Northpoint Pkwy  West Palm Beach, FL 33407",
    "location": "Palm_Beach"
  },
  {
    "name": "rCI Innovations Inc",
    "description": "Marketing Programs & Services",
    "phone": "(561) 683-9599",
    "address": "450 S Military Trl  West Palm Beach, FL 33415",
    "location": "Palm_Beach"
  },
  {
    "name": "Wheels Of Chrome Marketing Inc",
    "description": "Marketing Programs & Services",
    "phone": "(561) 629-2079",
    "address": "4401 Village Blvd  West Palm Beach, FL 33407",
    "location": "Palm_Beach"
  },
  {
    "name": "Dive Marketing International",
    "description": "Marketing Programs & Services",
    "phone": "(561) 683-8984",
    "address": "3951 N Haverhill Rd  West Palm Beach, FL 33417",
    "location": "Palm_Beach"
  },
  {
    "name": "Swa International Inc",
    "description": "Marketing Programs & Services",
    "phone": "(561) 842-4656",
    "address": "1160 Emerald Ln  Riviera Beach, FL 33404",
    "location": "Palm_Beach"
  },
  {
    "name": "Digital Marketing",
    "description": "Marketing Programs & Services",
    "phone": "(770) 810-5229",
    "address": "6500 N Military Trl  West Palm Beach, FL 33407",
    "location": "Palm_Beach"
  },
  {
    "name": "Incsource",
    "description": "Marketing Programs & Services",
    "phone": "(813) 316-3571",
    "address": "316 Evergreen Dr  West Palm Beach, FL 33403",
    "location": "Palm_Beach"
  },
  {
    "name": "Diversified Product Marketing",
    "description": "Marketing Programs & Services",
    "phone": "(561) 844-3034",
    "address": "3866 Prospect Ave  West Palm Beach, FL 33404",
    "location": "Palm_Beach"
  },
  {
    "name": "Amerifirst Direct & Associates",
    "description": "Marketing Programs & Services",
    "phone": "(561) 939-4838",
    "address": "2101 Vista Pkwy  West Palm Beach, FL 33411",
    "location": "Palm_Beach"
  },
  {
    "name": "Kepali Group Inc",
    "description": "Marketing Programs & Services",
    "phone": "(561) 965-4154",
    "address": "3711 Lake Worth Rd  Palm Springs, FL 33461",
    "location": "Palm_Beach"
  },
  {
    "name": "Dolphin Marketing Group Inc",
    "description": "Marketing Programs & Services",
    "phone": "(561) 202-5148",
    "address": "412 Southwind Dr  North Palm Beach, FL 33408",
    "location": "Palm_Beach"
  },
  {
    "name": "Jeff Brooks Designs",
    "description": "Marketing Programs & Services",
    "phone": "(561) 676-3769",
    "address": "9205 Sun Terrace Cir Apt D  palm beach gardens, FL 33403",
    "location": "Palm_Beach"
  },
  {
    "name": "Null Inc",
    "description": "Marketing Programs & Services",
    "phone": "(561) 779-5586",
    "address": "4776 Square Lake Dr  Palm Beach Gardens, FL 33418",
    "location": "Palm_Beach"
  },
  {
    "name": "Girard Media",
    "description": "Marketing Programs & Services",
    "phone": "(888) 646-3523",
    "address": "4411 Beacon Cir  West Palm Beach, FL 33407",
    "location": "Palm_Beach"
  },
  {
    "name": "Internet Marketing West Palm Beach",
    "description": "Marketing Programs & Services",
    "phone": "(954) 899-2305",
    "address": "3934 Circle Lake Dr  West palm Beach, FL 33417",
    "location": "Palm_Beach"
  },
  {
    "name": "Lajix",
    "description": "Marketing Programs & Services",
    "phone": "(561) 200-6923",
    "address": "3800 S Congress Ave  Palm Springs, FL 33461",
    "location": "Palm_Beach"
  },
  {
    "name": "Lead Web Designs",
    "description": "Marketing Programs & Services",
    "phone": "(561) 313-7443",
    "address": "636 Us Highway 1  North Palm Beach, FL 33408",
    "location": "Palm_Beach"
  },
  {
    "name": "South Florida Web Force",
    "description": "Marketing Programs & Services",
    "phone": "(561) 630-2896",
    "address": "824 Us Highway 1  North Palm Beach, FL 33408",
    "location": "Palm_Beach"
  },
  {
    "name": "Cheetah Agency",
    "description": "Marketing Programs & Services",
    "phone": "(561) 830-5050",
    "address": "2054 Vista Pkwy  West Palm Beach, FL 33411",
    "location": "Palm_Beach"
  },
  {
    "name": "Seo Architech - Local SEO Company",
    "description": "Marketing Programs & Services",
    "phone": "(954) 582-8282",
    "address": "7754 Okeechobee Blvd # 214  West Palm Beach, FL 33411",
    "location": "Palm_Beach"
  },
  {
    "name": "Peralta Professionals, LLC",
    "description": "Marketing Programs & Services",
    "phone": "(561) 693-8118",
    "address": "6104 61st Way  west palm beach, FL 33409",
    "location": "Palm_Beach"
  },
  {
    "name": "The James R Whelan Agency",
    "description": "Marketing Programs & Services",
    "phone": "(561) 432-0075",
    "address": "1850 Forest Hill Blvd Ste 102  West Palm Beach, FL 33406",
    "location": "Palm_Beach"
  },
  {
    "name": "Bulldog Marketing",
    "description": "Marketing Programs & Services",
    "phone": "(561) 689-7887",
    "address": "3866 Prospect Avenue Ste. 2  Riviera Beach, FL 33404",
    "location": "Palm_Beach"
  },
  {
    "name": "Rivera Marketing, Inc.",
    "description": "Marketing Programs & Services",
    "phone": "(855) 377-6174",
    "address": "4952 10th Ave N  Greenacres, FL 33463",
    "location": "Palm_Beach"
  },
  {
    "name": "Dream Sales Group",
    "description": "Marketing Programs & Services",
    "phone": "(561) 588-2920",
    "address": "1808 S Dixie Hwy  Lake Worth Beach, FL 33460",
    "location": "Palm_Beach"
  },
  {
    "name": "Digital Dealership System Inc",
    "description": "Marketing Programs & Services",
    "phone": "(800) 841-7084",
    "address": "6903 Vista Parkway N, Suite 7  West Palm Beach, FL 33411",
    "location": "Palm_Beach"
  },
  {
    "name": "Newton Search Engine Marketing",
    "description": "Internet Marketing & Advertising",
    "phone": "(877) 456-3196",
    "address": "4061 N Haverhill Rd  West Palm Beach, FL 33417",
    "location": "Palm_Beach"
  },
  {
    "name": "Lauxon Media",
    "description": "Internet Marketing & Advertising",
    "phone": "(561) 281-5979",
    "address": "4298 Woodstock Dr  West Palm Beach, FL 33409",
    "location": "Palm_Beach"
  },
  {
    "name": "Innovative Flare",
    "description": "Internet Marketing & Advertising",
    "phone": "(561) 247-2776",
    "address": "7750 Okeechobee Blvd # 4-7  West Palm Beach, FL 33411",
    "location": "Palm_Beach"
  },
  {
    "name": "SmartLink Internet Marketing",
    "description": "Internet Consultants",
    "phone": "(561) 688-8155",
    "address": "8895 N Military Trl Ste B202  West Palm Beach, FL 33410",
    "location": "Palm_Beach"
  },
  {
    "name": "Web Designs in West Palm Beach USA",
    "description": "Internet Marketing & Advertising",
    "phone": "(561) 800-4956",
    "address": "4430 Portofino Way Apt 304-c  West Palm Beach, FL 33409",
    "location": "Palm_Beach"
  },
  {
    "name": "ADMIN eSOLUTIONS",
    "description": "Internet Marketing & Advertising",
    "phone": "(561) 272-8567",
    "address": "2328 10th Ave N Ste 201  Lake Worth, FL 33461",
    "location": "Palm_Beach"
  },
  {
    "name": "Kauffs Website Design",
    "description": "Internet Consultants",
    "phone": "(561) 775-0735",
    "address": "3587 Northlake Blvd  Palm Beach Gardens, FL 33403",
    "location": "Palm_Beach"
  },
  {
    "name": "Florida Digital Center",
    "description": "Market Research & Analysis",
    "phone": "(954) 605-6338",
    "address": "1509 N Military Trl Unit 222  West Palm Beach, FL 33409",
    "location": "Palm_Beach"
  },
  {
    "name": "Kubot12",
    "description": "Internet Consultants",
    "phone": "(314) 324-5165",
    "address": "1515 Avenue S  Riviera Beach, FL 33404",
    "location": "Palm_Beach"
  },
  {
    "name": "Consumr Buzz",
    "description": "Marketing Consultants",
    "phone": "(866) 920-5372",
    "address": "200 Lake Ave  Lake Worth Beach, FL 33460",
    "location": "Palm_Beach"
  },
  {
    "name": "Palm Beach Technologies, Inc.",
    "description": "Internet Marketing & Advertising",
    "phone": "(561) 969-3315",
    "address": "1850 E Chatham Rd  West Palm Beach, FL 33415",
    "location": "Palm_Beach"
  },
  {
    "name": "SouthFlo SEO",
    "description": "Internet Marketing & Advertising",
    "phone": "(561) 530-2433",
    "address": "4015 Dorado Dr  Palm Beach Gardens, FL 33418",
    "location": "Palm_Beach"
  },
  {
    "name": "HDRcustoms Media & Photography",
    "description": "Web Site Design & Services",
    "phone": "(561) 889-6809",
    "address": "801 Northpoint Parkway  West Palm Beach, FL 33407",
    "location": "Palm_Beach"
  },
  {
    "name": "William's House Cleaning Service",
    "description": "Internet Marketing & Advertising",
    "phone": "(561) 855-2004",
    "address": "5159 Elmhurst Rd  West Palm Beach, FL 33417",
    "location": "Palm_Beach"
  },
  {
    "name": "High Revenue Marketing",
    "description": "Internet Marketing & Advertising",
    "phone": "(561) 247-4814",
    "address": "P.O. Box - 4151 Lake Worth Road, Unit 6196  Lake Worth, FL 33461",
    "location": "Palm_Beach"
  },
  {
    "name": "Digital Max Marketing",
    "description": "Internet Marketing & Advertising",
    "phone": "(561) 427-1999",
    "address": "8762 Burma Rd  Palm Beach Gardens, FL 33403",
    "location": "Palm_Beach"
  },
  {
    "name": "VMTN Tech",
    "description": "Internet Marketing & Advertising",
    "phone": "(561) 203-9327",
    "address": "7750 Okeechobee Blvd Ste 4-490  West Palm Beach, FL 33411",
    "location": "Palm_Beach"
  },
  {
    "name": "Emerald Sky",
    "description": "Business Plans Development",
    "phone": "(561) 320-7773",
    "address": "7750 Okeechobee Blvd # 4-5  West Palm Beach, FL 33411",
    "location": "Palm_Beach"
  },
  {
    "name": "Bryant Smith Design Group",
    "description": "Internet Marketing & Advertising",
    "phone": "(561) 523-2232",
    "address": "300 John F Kennedy Dr Apt 107  Lake Worth, FL 33462",
    "location": "Palm_Beach"
  },
  {
    "name": "We Ad You Now",
    "description": "Marketing Consultants",
    "phone": "(772) 777-5045",
    "address": "2845 N Military Trl Ste 10  West Palm Beach, FL 33409",
    "location": "Palm_Beach"
  },
  {
    "name": "Cash Cube Money Machine Store",
    "description": "Video Games-Renting & Leasing",
    "phone": "(561) 594-6000",
    "address": "2885 N Military Trl Fl 33409  West Palm Beach, FL 33409",
    "location": "Palm_Beach"
  },
  {
    "name": "Trigger Digital",
    "description": "Marketing Consultants",
    "phone": "(561) 513-8887",
    "address": "1811 Lake Cove Dr  Lake Worth, FL 33460",
    "location": "Palm_Beach"
  },
  {
    "name": "adon marketing",
    "description": "Marketing Consultants",
    "phone": "(561) 891-5489",
    "address": "581 silver beach rd  Riviera Beach, FL 33403",
    "location": "Palm_Beach"
  },
  {
    "name": "WGI Creative Services",
    "description": "Marketing Consultants",
    "phone": "(561) 713-1717",
    "address": "2035 Vista Pkwy  West Palm Beach, FL 33411",
    "location": "Palm_Beach"
  },
  {
    "name": "Consult PR Inc",
    "description": "Marketing Consultants",
    "phone": "(561) 444-7265",
    "address": "2054 Vista Pkwy Ste 400  West Palm Beach, FL 33411",
    "location": "Palm_Beach"
  },
  {
    "name": "Prenuer INC",
    "description": "Marketing Consultants",
    "phone": "(800) 948-8613",
    "address": "2054 Vista Pkwy  West Palm Beach, FL 33411",
    "location": "Palm_Beach"
  },
  {
    "name": "411 CONCIERGE SERVICES",
    "description": "Marketing Consultants",
    "phone": "(561) 320-4039",
    "address": "2101 Vista Pkwy  West Palm Beach, FL 33411",
    "location": "Palm_Beach"
  },
  {
    "name": "StarGroup International",
    "description": "Marketing Consultants",
    "phone": "(561) 547-0667",
    "address": "1194 Old Dixie Highway  Lake Park, FL 33403",
    "location": "Palm_Beach"
  },
  {
    "name": "www.seostrategyninja.com",
    "description": "Internet Consultants",
    "phone": "(561) 320-3271",
    "address": "6768 Silver Ridge Ln  Greenacres, FL 33413",
    "location": "Palm_Beach"
  },
  {
    "name": "Profile Marketing Research",
    "description": "Market Research & Analysis",
    "phone": "(561) 965-8300",
    "address": "4020 S 57th Ave  Greenacres, FL 33463",
    "location": "Palm_Beach"
  },
  {
    "name": "Revive Logic",
    "description": "Internet Marketing & Advertising",
    "phone": "(561) 247-5143",
    "address": "1963 10th Ave N  Lake Worth Beach, FL 33461",
    "location": "Palm_Beach"
  },
  {
    "name": "Market Ran",
    "description": "Marketing Consultants",
    "phone": "(561) 855-7616",
    "address": "9000 Burma Rd Ste 102  Palm Beach Gardens, FL 33403",
    "location": "Palm_Beach"
  },
  {
    "name": "Forefront Marketing",
    "description": "Direct Marketing Services",
    "phone": "(561) 249-6103",
    "address": "1201 Broadway  Riviera Beach, FL 33404",
    "location": "Palm_Beach"
  },
  {
    "name": "Economic Development Research",
    "description": "Market Research & Analysis",
    "phone": "(561) 366-9558",
    "address": "4420 Beacon Cir  West Palm Beach, FL 33407",
    "location": "Palm_Beach"
  },
  {
    "name": "Web1 Seo",
    "description": "Internet Marketing & Advertising",
    "phone": "(561) 841-1832",
    "address": "1351 S Killian Dr  West Palm Beach, FL 33403",
    "location": "Palm_Beach"
  },
  {
    "name": "Onlinemarketingpro.com",
    "description": "Internet Marketing & Advertising",
    "phone": "(561) 229-4795",
    "address": "3090 Congress Park Dr  Lake Worth, FL 33461",
    "location": "Palm_Beach"
  },
  {
    "name": "BALLARD SEO Digital Marketing Solutions",
    "description": "Internet Marketing & Advertising",
    "phone": "(561) 427-1999",
    "address": "8762 Burma Rd  Palm Beach Gardens, FL 33403",
    "location": "Palm_Beach"
  },
  {
    "name": "Web1 SEO",
    "description": "Internet Marketing & Advertising",
    "phone": "(561) 841-1832",
    "address": "721 Us Highway 1 Ste 215  North Palm Beach, FL 33408",
    "location": "Palm_Beach"
  },
  {
    "name": "Bottom Line Marketing",
    "description": "Marketing Consultants",
    "phone": "(561) 791-6295",
    "address": "4201 Westgate Ave  West Palm Beach, FL 33409",
    "location": "Palm_Beach"
  },
  {
    "name": "Brinkley Consultants",
    "description": "Financing Consultants",
    "phone": "(561) 410-0023",
    "address": "1579 Quail Lake Dr Apt 112  West Palm Beach, FL 33409",
    "location": "Palm_Beach"
  },
  {
    "name": "Creative Marketing Services Cms",
    "description": "Marketing Consultants",
    "phone": "(561) 358-1565",
    "address": "1028 Green Pine Blvd  West Palm Beach, FL 33409",
    "location": "Palm_Beach"
  },
  {
    "name": "Baldrica Advertising & Marketing",
    "description": "Advertising Agencies",
    "phone": "(561) 683-0404",
    "address": "5660 Corporate Way  West Palm Beach, FL 33407",
    "location": "Palm_Beach"
  },
  {
    "name": "Back Office Management and Marketing",
    "description": "Marketing Consultants",
    "phone": "(561) 508-5228",
    "address": "5725 Corporate Way Ste 107  West Palm Beach, FL 33407",
    "location": "Palm_Beach"
  },
  {
    "name": "Effective Sports Media",
    "description": "Marketing Consultants",
    "phone": "(561) 251-4185",
    "address": "4400 Portofino Way  West Palm Beach, FL 33409",
    "location": "Palm_Beach"
  },
  {
    "name": "Venue Advertising Inc",
    "description": "Advertising Agencies",
    "phone": "(561) 844-1778",
    "address": "945 W 15th St  Riviera Beach, FL 33404",
    "location": "Palm_Beach"
  },
  {
    "name": "Mbi Promotions",
    "description": "Marketing Consultants",
    "phone": "(561) 586-6663",
    "address": "1110 N G St Ste A  Lake Worth Beach, FL 33460",
    "location": "Palm_Beach"
  },
  {
    "name": "Singer Island Dreams",
    "description": "Marketing Consultants",
    "phone": "(561) 429-6574",
    "address": "2655 N Ocean Dr Ste 403  Riviera Beach, FL 33404",
    "location": "Palm_Beach"
  },
  {
    "name": "Nick Laiuppa Marketing",
    "description": "Marketing Consultants",
    "phone": "(669) 257-2897",
    "address": "5064 Palmbrooke Cir  West Palm Beach, FL 33417",
    "location": "Palm_Beach"
  },
  {
    "name": "Kiyawiya Productions",
    "description": "Record Labels",
    "phone": "(718) 600-5014",
    "address": "3900 Haverhill Rd N Unit 223542  West Palm Beach, FL 33422",
    "location": "Palm_Beach"
  },
  {
    "name": "Allegiance Marketing Group",
    "description": "Marketing Consultants",
    "phone": "(561) 845-1997",
    "address": "5500 Village Blvd Ste 200  West Palm Beach, FL 33407",
    "location": "Palm_Beach"
  },
  {
    "name": "Magpie Public Relations LLC.",
    "description": "Public Relations Counselors",
    "phone": "(770) 361-3847",
    "address": "908 N K St  Lake Worth, FL 33460",
    "location": "Palm_Beach"
  },
  {
    "name": "KALAI DIGITAL MARKETING LLC",
    "description": "Marketing Consultants",
    "phone": "(561) 303-9622",
    "address": "1510 W 19th Street  Riviera Beach, FL 33404",
    "location": "Palm_Beach"
  },
  {
    "name": "Internatural Marketing Inc",
    "description": "Food Products-Wholesale",
    "phone": "(561) 586-0048",
    "address": "311 N Palmway  Lake Worth, FL 33460",
    "location": "Palm_Beach"
  },
  {
    "name": "Klj Group Inc",
    "description": "Marketing Consultants",
    "phone": "(561) 844-0388",
    "address": "1199 Emerald Ln  Riviera Beach, FL 33404",
    "location": "Palm_Beach"
  },
  {
    "name": "Bluefork LLC",
    "description": "Marketing Consultants",
    "phone": "(561) 400-5968",
    "address": "2761 Vista Pkwy Ste E5  West Palm Beach, FL 33411",
    "location": "Palm_Beach"
  },
  {
    "name": "Regal Marketing Intl Group Inc",
    "description": "Marketing Consultants",
    "phone": "(561) 684-1006",
    "address": "2701 Vista Pkwy  West Palm Beach, FL 33411",
    "location": "Palm_Beach"
  },
  {
    "name": "Mio Marketing",
    "description": "Marketing Consultants",
    "phone": "(561) 814-2657",
    "address": "2650 S Military Trl  West Palm Beach, FL 33415",
    "location": "Palm_Beach"
  },
  {
    "name": "Inc Cmw Marketing",
    "description": "Marketing Consultants",
    "phone": "(561) 660-6931",
    "address": "699 Perdido Heights Dr  West Palm Beach, FL 33413",
    "location": "Palm_Beach"
  },
  {
    "name": "Direct Web Advertising",
    "description": "Marketing Consultants",
    "phone": "(954) 762-3404",
    "address": "1511 4th Ave S  Lake Worth, FL 33460",
    "location": "Palm_Beach"
  },
  {
    "name": "Globadyne Production & Design",
    "description": "Product Design, Development & Marketing",
    "phone": "(561) 582-5315",
    "address": "3728 Prospect Ave  West Palm Beach, FL 33404",
    "location": "Palm_Beach"
  },
  {
    "name": "Riverchase Sales & Marketing",
    "description": "Marketing Consultants",
    "phone": "(561) 228-6210",
    "address": "2101 Vista Pkwy  West Palm Beach, FL 33411",
    "location": "Palm_Beach"
  },
  {
    "name": "C2 Consulting Group-Web Design & Marketing",
    "description": "Marketing Consultants",
    "phone": "(561) 513-5900",
    "address": "2101 Vista Pkwy  West Palm Beach, FL 33411",
    "location": "Palm_Beach"
  },
  {
    "name": "Fully Promoted CORPORATE",
    "description": "Advertising-Promotional Products",
    "phone": "(800) 727-6720",
    "address": "2121 Vista Pkwy  West Palm Beach, FL 33411",
    "location": "Palm_Beach"
  },
  {
    "name": "Odyssey Media",
    "description": "Marketing Consultants",
    "phone": "(561) 881-0351",
    "address": "378 Northlake Blvd  North Palm Beach, FL 33408",
    "location": "Palm_Beach"
  },
  {
    "name": "American Sales Industries",
    "description": "Marketing Consultants",
    "phone": "(561) 844-4537",
    "address": "3560 Investment Ln Ste 101  Riviera Beach, FL 33404",
    "location": "Palm_Beach"
  },
  {
    "name": "Oasis Media",
    "description": "Marketing Consultants",
    "phone": "(877) 852-3461",
    "address": "3767 Lake Worth Rd Ste 120  Lake Worth, FL 33461",
    "location": "Palm_Beach"
  },
  {
    "name": "Lion Content",
    "description": "Marketing Consultants",
    "phone": "(561) 577-7723",
    "address": "3402 Cynthia Ln Apt 204  Lake Worth, FL 33461",
    "location": "Palm_Beach"
  },
  {
    "name": "Internet Marketing Affiliates Inc.",
    "description": "Marketing Consultants",
    "phone": "(561) 404-7775",
    "address": "8631 Uranus Ter  West Palm Beach, FL 33403",
    "location": "Palm_Beach"
  },
  {
    "name": "Exfuze",
    "description": "Marketing Programs & Services",
    "phone": "(561) 624-5250",
    "address": "4200 Northcorp Pkwy Ste 150  West Palm Beach, FL 33410",
    "location": "Palm_Beach"
  },
  {
    "name": "WebManna",
    "description": "Marketing Programs & Services",
    "phone": "(561) 603-6030",
    "address": "107 Raintree Ln  Palm Beach Gardens, FL 33410",
    "location": "Palm_Beach"
  },
  {
    "name": "Golden Tusk Marketing",
    "description": "Marketing Programs & Services",
    "phone": "(561) 758-9928",
    "address": "2725 Anzio Ct  Palm Beach Gardens, FL 33410",
    "location": "Palm_Beach"
  },
  {
    "name": "Joanne Abi",
    "description": "Marketing Programs & Services",
    "phone": "(888) 318-5315",
    "address": "331 Denlow Ln  Royal Palm Beach, FL 33411",
    "location": "Palm_Beach"
  },
  {
    "name": "Meade Johnson International Inc",
    "description": "Marketing Programs & Services",
    "phone": "(561) 683-5257",
    "address": "8983 Okeechobee Blvd  West Palm Beach, FL 33411",
    "location": "Palm_Beach"
  },
  {
    "name": "StickyWebz",
    "description": "Marketing Programs & Services",
    "phone": "(561) 819-9999",
    "address": "10140 Okeechobee Blvd  West Palm Beach, FL 33411",
    "location": "Palm_Beach"
  },
  {
    "name": "Fisch For Success Marketing",
    "description": "Marketing Programs & Services",
    "phone": "(561) 475-5114",
    "address": "12544 Woodmill Dr  Palm Beach Gardens, FL 33418",
    "location": "Palm_Beach"
  },
  {
    "name": "Media Zoom Design Firm - Boynton Beach",
    "description": "Marketing Programs & Services",
    "phone": "(561) 706-8846",
    "address": "4140 Key Lime Blvd  Boynton Beach, FL 33436",
    "location": "Palm_Beach"
  },
  {
    "name": "Allied Advertising & Marketing Inc",
    "description": "Marketing Programs & Services",
    "phone": "(305) 205-0980",
    "address": "7648 Ironhorse Blvd  West Palm Beach, FL 33412",
    "location": "Palm_Beach"
  },
  {
    "name": "IBI Marketing",
    "description": "Marketing Programs & Services",
    "phone": "(561) 328-7071",
    "address": "8636 High Cay  West Palm Beach, FL 33411",
    "location": "Palm_Beach"
  },
  {
    "name": "BFG Enterprises",
    "description": "Marketing Programs & Services",
    "phone": "(973) 747-5384",
    "address": "4440 PGA Blvd #600  Palm Beach Gardens, FL 33410",
    "location": "Palm_Beach"
  },
  {
    "name": "Carom Media",
    "description": "Marketing Programs & Services",
    "phone": "(561) 713-1164",
    "address": "8461 Lake Worth Rd  Lake Worth, FL 33467",
    "location": "Palm_Beach"
  },
  {
    "name": "HearUSA",
    "description": "Marketing Programs & Services",
    "phone": "(561) 486-8146",
    "address": "11400 Jog Rd # 105  Palm Beach Gardens, FL 33418",
    "location": "Palm_Beach"
  },
  {
    "name": "Queen B Direct",
    "description": "Marketing Programs & Services",
    "phone": "(561) 318-6999",
    "address": "11189 Persimmon Blvd  West Palm Beach, FL 33411",
    "location": "Palm_Beach"
  },
  {
    "name": "KB Marketing",
    "description": "Marketing Programs & Services",
    "phone": "(561) 279-4901",
    "address": "2097 Circle Place Dr  Lake Worth, FL 33462",
    "location": "Palm_Beach"
  },
  {
    "name": "Sweetspot Strategies, Inc.",
    "description": "Marketing Programs & Services",
    "phone": "(954) 804-9413",
    "address": "51 Whispering Oak Trl  West Palm Beach, FL 33411",
    "location": "Palm_Beach"
  },
  {
    "name": "Bottom Line Market",
    "description": "Marketing Consultants",
    "phone": "(561) 791-6295",
    "address": "860 Us Highway 1  North Palm Beach, FL 33408",
    "location": "Palm_Beach"
  },
  {
    "name": "M K Marketing",
    "description": "Advertising Specialties",
    "phone": "(561) 963-6357",
    "address": "118 E Ocean Ave  Lantana, FL 33462",
    "location": "Palm_Beach"
  },
  {
    "name": "The Email List Company",
    "description": "Marketing Programs & Services",
    "phone": "(844) 226-9818",
    "address": "14255 Us Highway 1 Ste 2155  Juno Beach, FL 33408",
    "location": "Palm_Beach"
  },
  {
    "name": "Annear Counseling Associates, Inc.",
    "description": "Marketing Programs & Services",
    "phone": "(561) 249-1806",
    "address": "11911 Us Highway 1 Ste 201  North Palm Beach, FL 33408",
    "location": "Palm_Beach"
  },
  {
    "name": "Complete Web Marketing",
    "description": "Marketing Programs & Services",
    "phone": "(443) 798-2515",
    "address": "4610 Pga Blvd  Palm Beach Gardens, FL 33418",
    "location": "Palm_Beach"
  },
  {
    "name": "Intermatch Marketing",
    "description": "Marketing Programs & Services",
    "phone": "(561) 514-1328",
    "address": "9437 Bristol Ridge Ct  West Palm Beach, FL 33411",
    "location": "Palm_Beach"
  },
  {
    "name": "Bullseye Marketing Consultants",
    "description": "Marketing Programs & Services",
    "phone": "(561) 469-8640",
    "address": "716 Bocce Ct  Palm Beach Gardens, FL 33410",
    "location": "Palm_Beach"
  },
  {
    "name": "Cmw Marketing Inc",
    "description": "Marketing Programs & Services",
    "phone": "(561) 660-6931",
    "address": "216 Elm Way  Boynton Beach, FL 33426",
    "location": "Palm_Beach"
  },
  {
    "name": "Premier Data Marketing",
    "description": "Marketing Programs & Services",
    "phone": "(888) 819-5537",
    "address": "638 E Ocean Ave Ste 408  Boynton Beach, FL 33435",
    "location": "Palm_Beach"
  },
  {
    "name": "Market Pulse Media",
    "description": "Marketing Programs & Services",
    "phone": "(561) 972-8380",
    "address": "9910 Alternate A1a  Palm Beach Gardens, FL 33410",
    "location": "Palm_Beach"
  },
  {
    "name": "Beyond Marketing Inc",
    "description": "Marketing Programs & Services",
    "phone": "(561) 790-2337",
    "address": "8201 3rd Pl S  West Palm Beach, FL 33411",
    "location": "Palm_Beach"
  },
  {
    "name": "Attorney Marketing Group",
    "description": "Marketing Programs & Services",
    "phone": "(561) 255-0535",
    "address": "7059 Oakmont Dr  Lake Worth, FL 33467",
    "location": "Palm_Beach"
  },
  {
    "name": "Dresden Direct",
    "description": "Marketing Programs & Services",
    "phone": "(561) 622-3400",
    "address": "109 Saint Edward Pl  Palm Beach Gardens, FL 33418",
    "location": "Palm_Beach"
  },
  {
    "name": "Security Force Marketing",
    "description": "Marketing Programs & Services",
    "phone": "(561) 498-8814",
    "address": "7570 S Federal Hwy  Lantana, FL 33462",
    "location": "Palm_Beach"
  },
  {
    "name": "Fitteam Global",
    "description": "Marketing Programs & Services",
    "phone": "(844) 348-8326",
    "address": "4440 Pga Blvd  Palm Beach Gardens, FL 33410",
    "location": "Palm_Beach"
  },
  {
    "name": "Cinderelle Marketing",
    "description": "Marketing Programs & Services",
    "phone": "(561) 255-4698",
    "address": "4521 Pga Blvd  Palm Beach Gardens, FL 33418",
    "location": "Palm_Beach"
  },
  {
    "name": "Mobiwiz LLC",
    "description": "Marketing Programs & Services",
    "phone": "(561) 634-0685",
    "address": "5713 Bennington way  Lake Worth, FL 33463",
    "location": "Palm_Beach"
  },
  {
    "name": "World Produce Marketing Corp",
    "description": "Marketing Programs & Services",
    "phone": "(561) 239-2138",
    "address": "6355 Shadow Tree Ln  Lake Worth, FL 33463",
    "location": "Palm_Beach"
  },
  {
    "name": "A La Carte Marketing Inc",
    "description": "Marketing Programs & Services",
    "phone": "(561) 649-6674",
    "address": "6328 Grand Cypress Cir  Lake Worth, FL 33463",
    "location": "Palm_Beach"
  },
  {
    "name": "Passport to Wealth",
    "description": "Marketing Programs & Services",
    "phone": "(561) 396-0656",
    "address": "211 Sandpiper Ave  Royal Palm Beach, FL 33411",
    "location": "Palm_Beach"
  },
  {
    "name": "Giebner Media",
    "description": "Marketing Programs & Services",
    "phone": "(561) 316-6731",
    "address": "34 N Mahoris Dr  Royal Palm Beach, FL 33411",
    "location": "Palm_Beach"
  },
  {
    "name": "Roles Marketing International",
    "description": "Marketing Programs & Services",
    "phone": "(561) 792-1544",
    "address": "535 Royal Palm Beach Blvd  Royal Palm Beach, FL 33411",
    "location": "Palm_Beach"
  },
  {
    "name": "Allied Business Management LLC",
    "description": "Marketing Programs & Services",
    "phone": "(561) 619-2820",
    "address": "7230 Winding Bay Ln  West Palm Beach, FL 33412",
    "location": "Palm_Beach"
  },
  {
    "name": "Brandlor Media",
    "description": "Marketing Programs & Services",
    "phone": "(954) 667-3335",
    "address": "10200 Ibis Reserve Cir  West Palm Beach, FL 33412",
    "location": "Palm_Beach"
  },
  {
    "name": "5 Star Reputation Marketing",
    "description": "Marketing Programs & Services",
    "phone": "(561) 266-4875",
    "address": "4781 N Congress Ave Suite 214  Boynton Beach, FL 33426",
    "location": "Palm_Beach"
  },
  {
    "name": "Lane Marketing",
    "description": "Marketing Programs & Services",
    "phone": "(561) 229-0525",
    "address": "2425 Quantum Blvd  Boynton Beach, FL 33426",
    "location": "Palm_Beach"
  },
  {
    "name": "Freestyle Marketing",
    "description": "Marketing Programs & Services",
    "phone": "(561) 899-8090",
    "address": "1645 Renaissance Commons Blvd  Boynton Beach, FL 33426",
    "location": "Palm_Beach"
  },
  {
    "name": "Owen Marketing",
    "description": "Marketing Programs & Services",
    "phone": "(561) 737-1802",
    "address": "5569 Descartes Cir  Boynton Beach, FL 33472",
    "location": "Palm_Beach"
  },
  {
    "name": "Affinity Marketing Plus",
    "description": "Marketing Programs & Services",
    "phone": "(561) 395-1102",
    "address": "4251 Fox Trce  Boynton Beach, FL 33436",
    "location": "Palm_Beach"
  },
  {
    "name": "Electrodiscount.net, llc",
    "description": "Marketing Programs & Services",
    "phone": "(305) 600-6255",
    "address": "3757 Holiday Rd  Palm Beach Gardens, FL 33410",
    "location": "Palm_Beach"
  },
  {
    "name": "DigiTechy Creative Inbound Marketing Virtual Agency",
    "description": "Marketing Programs & Services",
    "phone": "(561) 517-1819",
    "address": "8025 Saw Palmetto Ln  Boynton Beach, FL 33436",
    "location": "Palm_Beach"
  },
  {
    "name": "Optimize Reach",
    "description": "Marketing Programs & Services",
    "phone": "(561) 877-1708",
    "address": "659 Castle Dr Suite 201  Palm Beach Gardens, FL 33410",
    "location": "Palm_Beach"
  },
  {
    "name": "Simply Social",
    "description": "Marketing Programs & Services",
    "phone": "(888) 499-2605",
    "address": "1530 W Boynton Beach Blvd  Boynton Beach, FL 33436",
    "location": "Palm_Beach"
  },
  {
    "name": "BlowFish SEO",
    "description": "Marketing Programs & Services",
    "phone": "(561) 972-8605",
    "address": "3300 PGA Blvd  Palm Beach Gardens, FL 33410",
    "location": "Palm_Beach"
  },
  {
    "name": "Web Promotion Partners - Search Engine Optimization",
    "description": "Marketing Programs & Services",
    "phone": "(561) 299-3942",
    "address": "4440 Pga Blvd Ste 600  Palm Beach Gardens, FL 33410",
    "location": "Palm_Beach"
  },
  {
    "name": "DKT Digital Marketing & Web Design",
    "description": "Marketing Programs & Services",
    "phone": "(561) 572-6514",
    "address": "7542 Thornlee Dr  Lake Worth, FL 33467",
    "location": "Palm_Beach"
  },
  {
    "name": "Weiss Research, Inc.",
    "description": "Marketing Programs & Services",
    "phone": "(561) 627-3300",
    "address": "4400 Northcorp Pkwy  West Palm Beach, FL 33410",
    "location": "Palm_Beach"
  },
  {
    "name": "BigMouth Media",
    "description": "Marketing Programs & Services",
    "phone": "(888) 850-1220",
    "address": "400 Village Square Xing  Palm Beach Gardens, FL 33410",
    "location": "Palm_Beach"
  },
  {
    "name": "Kick Off Advertising",
    "description": "Marketing Programs & Services",
    "phone": "(561) 501-8682",
    "address": "3815 Providence Road Boynton Beach  Boynton, FL 33436",
    "location": "Palm_Beach"
  },
  {
    "name": "The Central Saver",
    "description": "Marketing Programs & Services",
    "phone": "(352) 502-0408",
    "address": "3840 Max Pl  Boynton Beach, FL 33436",
    "location": "Palm_Beach"
  },
  {
    "name": "PromoteMe Marketing Group LLC",
    "description": "Marketing Programs & Services",
    "phone": "(631) 316-2786",
    "address": "227 Grand Pointe Dr  Palm Beach Gardens, FL 33418",
    "location": "Palm_Beach"
  },
  {
    "name": "Mr. Pipeline Internet Marketing",
    "description": "Marketing Programs & Services",
    "phone": "(855) 888-7693",
    "address": "8401 Lake Worth Rd Suite 130  Lake Worth, FL 33467",
    "location": "Palm_Beach"
  },
  {
    "name": "Valpak of Palm Beach County",
    "description": "Marketing Programs & Services",
    "phone": "(561) 204-4505",
    "address": "8185 Laborie Ln  Wellington, FL 33414",
    "location": "Palm_Beach"
  },
  {
    "name": "The Banyan Group",
    "description": "Marketing Programs & Services",
    "phone": "(561) 967-2566",
    "address": "1402 Royal Palm Beach Blvd  Royal Palm Beach, FL 33411",
    "location": "Palm_Beach"
  },
  {
    "name": "Meyer Marketing Inc",
    "description": "Marketing Programs & Services",
    "phone": "(561) 795-0808",
    "address": "3125 Fortune Way  Wellington, FL 33414",
    "location": "Palm_Beach"
  },
  {
    "name": "Advisor Expressions",
    "description": "Marketing Programs & Services",
    "phone": "(561) 573-5464",
    "address": "7664 Colony Palm Drive  Boynton Beach, FL 33436",
    "location": "Palm_Beach"
  },
  {
    "name": "Propel Marketing & Design",
    "description": "Marketing Programs & Services",
    "phone": "(800) 943-2346",
    "address": "533 E Ocean Ave  Boynton Beach, FL 33435",
    "location": "Palm_Beach"
  },
  {
    "name": "Ocean Edge Digital",
    "description": "Marketing Programs & Services",
    "phone": "(561) 867-3444",
    "address": "450 Ocean Dr  Juno Beach, FL 33408",
    "location": "Palm_Beach"
  },
  {
    "name": "Green Group Studio Inc",
    "description": "Print Advertising",
    "phone": "(561) 594-7336",
    "address": "8461 Lake Worth Rd Ste 33467  Lake Worth, FL 33467",
    "location": "Palm_Beach"
  },
  {
    "name": "Fruit Local",
    "description": "Internet Marketing & Advertising",
    "phone": "(561) 249-7323",
    "address": "7756 Manor Forest Ln  Boynton Beach, FL 33436",
    "location": "Palm_Beach"
  },
  {
    "name": "Minuteman Press Lake Worth",
    "description": "Check Printing Services",
    "phone": "(561) 449-2106",
    "address": "6677 Lake Worth Rd  Lake Worth, FL 33467",
    "location": "Palm_Beach"
  },
  {
    "name": "United One Media Group",
    "description": "Advertising Agencies",
    "phone": "(561) 365-8853",
    "address": "1690 Renaissance Commons Blvd  Boynton Beach, FL 33426",
    "location": "Palm_Beach"
  },
  {
    "name": "Lisa BB - PR & Writing Services, Voice Over Talent",
    "description": "Video Production Services",
    "phone": "(954) 809-9815",
    "address": "720 E Ocean Ave  Boynton Beach, FL 33435",
    "location": "Palm_Beach"
  },
  {
    "name": "Organo Gold Distributor",
    "description": "Coffee & Tea",
    "phone": "(561) 236-6086",
    "address": "2814 Misty Oaks Cir  Royal Palm Beach, FL 33411",
    "location": "Palm_Beach"
  },
  {
    "name": "Granat Design",
    "description": "Internet Marketing & Advertising",
    "phone": "(561) 799-4880",
    "address": "101 Alegria Way  Palm Beach Gardens, FL 33418",
    "location": "Palm_Beach"
  },
  {
    "name": "Usersight",
    "description": "Internet Consultants",
    "phone": "(561) 715-2244",
    "address": "8130 Mystic Harbor Cir  Boynton Beach, FL 33436",
    "location": "Palm_Beach"
  },
  {
    "name": "Market Pro Media",
    "description": "Internet Marketing & Advertising",
    "phone": "(561) 235-0344",
    "address": "204 Bilbao St  Royal Palm Beach, FL 33411",
    "location": "Palm_Beach"
  },
  {
    "name": "Sundara Marketing Group",
    "description": "Internet Marketing & Advertising",
    "phone": "(561) 509-7169",
    "address": "1025 Gateway Blvd Ste 303-243  Boynton Beach, FL 33426",
    "location": "Palm_Beach"
  },
  {
    "name": "Elevare",
    "description": "Internet Marketing & Advertising",
    "phone": "(561) 290-0684",
    "address": "6801 Lake Worth Rd suite 340  Greenacres, FL 33467",
    "location": "Palm_Beach"
  },
  {
    "name": "B.A.B. Business Solutions",
    "description": "Bookkeeping",
    "phone": "(561) 899-9939",
    "address": "11231 Us Highway 1 # 147  North Palm Beach, FL 33408",
    "location": "Palm_Beach"
  },
  {
    "name": "Full Contact SEO",
    "description": "Internet Marketing & Advertising",
    "phone": "(561) 532-1032",
    "address": "6791 Lantern Key Dr  Lake Worth, FL 33463",
    "location": "Palm_Beach"
  },
  {
    "name": "Silverbacks Media",
    "description": "Internet Marketing & Advertising",
    "phone": "(561) 342-1399",
    "address": "6162 Astoria Dr  Lake Worth, FL 33463",
    "location": "Palm_Beach"
  },
  {
    "name": "Holden Marketing Agency",
    "description": "Internet Marketing & Advertising",
    "phone": "(561) 385-9252",
    "address": "416 La Mancha Ave  West Palm Beach, FL 33411",
    "location": "Palm_Beach"
  },
  {
    "name": "Drawn Solutions",
    "description": "Web Site Design & Services",
    "phone": "(561) 570-6505",
    "address": "10th Columbia Ave  Lake Worth, FL 33467",
    "location": "Palm_Beach"
  },
  {
    "name": "Stratovative LLC",
    "description": "Internet Marketing & Advertising",
    "phone": "(914) 224-6967",
    "address": "146 Via Condado Way  Palm Beach Gardens, FL 33418",
    "location": "Palm_Beach"
  },
  {
    "name": "C2 Consulting Group",
    "description": "Internet Consultants",
    "phone": "(561) 513-5900",
    "address": "107 Harbors Way  Boynton Beach, FL 33435",
    "location": "Palm_Beach"
  },
  {
    "name": "Gold Stripe Marketing",
    "description": "Internet Marketing & Advertising",
    "phone": "(561) 600-0311",
    "address": "350 N Federal Hwy #1204  Boynton Beach, FL 33435",
    "location": "Palm_Beach"
  },
  {
    "name": "tinyRHINO Group",
    "description": "Internet Marketing & Advertising",
    "phone": "(561) 600-8368",
    "address": "801 N Congress Ave Ste 602  Boynton Beach, FL 33426",
    "location": "Palm_Beach"
  },
  {
    "name": "Jupiter Media",
    "description": "Marketing Consultants",
    "phone": "(561) 755-7518",
    "address": "100 alameda way  Palm Beach Gardens, FL 33410",
    "location": "Palm_Beach"
  },
  {
    "name": "NITROBLU PRODUCTIONS",
    "description": "Graphic Designers",
    "phone": "(323) 376-0195",
    "address": "11505 Fairchild Gardens Ave  Palm Beach Gardens, FL 33410",
    "location": "Palm_Beach"
  },
  {
    "name": "Valany Import Export Inc",
    "description": "Marketing Consultants",
    "phone": "(561) 333-3010",
    "address": "2554 Cooper Way  Wellington, FL 33414",
    "location": "Palm_Beach"
  },
  {
    "name": "Neighborhood News",
    "description": "Coupon Advertising",
    "phone": "(561) 644-2328",
    "address": "6586 Hypoluxo Rd # 133  Lake Worth, FL 33467",
    "location": "Palm_Beach"
  },
  {
    "name": "Andre Edmonds",
    "description": "Marketing Consultants",
    "phone": "(561) 459-3073",
    "address": "225 Ponce De Leon St  Royal Palm Beach, FL 33411",
    "location": "Palm_Beach"
  },
  {
    "name": "AXIA Creative",
    "description": "Advertising Agencies",
    "phone": "(561) 282-6205",
    "address": "12171 Old Country Rd  Wellington, FL 33414",
    "location": "Palm_Beach"
  },
  {
    "name": "SEO Smooth",
    "description": "Marketing Consultants",
    "phone": "(561) 396-2196",
    "address": "2500 Quantum Lakes Dr Ste 203-16  Boynton Beach, FL 33426",
    "location": "Palm_Beach"
  },
  {
    "name": "Searchify Media",
    "description": "Business Coaches & Consultants",
    "phone": "(561) 536-4601",
    "address": "1500 Gateway Blvd  Boynton Beach, FL 33426",
    "location": "Palm_Beach"
  },
  {
    "name": "EMM Marketing Solutions",
    "description": "Marketing Consultants",
    "phone": "(561) 512-4141",
    "address": "PO Box 3365  Boynton Beach, FL 33424",
    "location": "Palm_Beach"
  },
  {
    "name": "Xing Direct Media",
    "description": "Market Research & Analysis",
    "phone": "(888) 434-1766",
    "address": "6274 S Military Trl Apt 303  Lake Worth, FL 33463",
    "location": "Palm_Beach"
  },
  {
    "name": "Hope DeLong & Associates",
    "description": "Market Research & Analysis",
    "phone": "(561) 309-7098",
    "address": "707 Presidential Dr  Boynton Beach, FL 33435",
    "location": "Palm_Beach"
  },
  {
    "name": "vzPRO Consulting",
    "description": "Internet Consultants",
    "phone": "(561) 951-0086",
    "address": "5420 Sunseeker Blvd  Greenacres, FL 33463",
    "location": "Palm_Beach"
  },
  {
    "name": "Beymour Consulting",
    "description": "Internet Marketing & Advertising",
    "phone": "(561) 213-9877",
    "address": "2054 Vista Parkway Emerald View, Suite 400 - #914  West Palm Beach, FL 33411",
    "location": "Palm_Beach"
  },
  {
    "name": "Silver Census Senior Living Home Care Directory",
    "description": "Internet Directories",
    "phone": "(561) 776-1311",
    "address": "4521 Pga Blvd # 414  Palm Beach Gardens, FL 33418",
    "location": "Palm_Beach"
  },
  {
    "name": "JLS WebMarketing",
    "description": "Internet Marketing & Advertising",
    "phone": "(561) 318-1845",
    "address": "125 S State Road 7 Suite 104-215  Wellington, FL 33414",
    "location": "Palm_Beach"
  },
  {
    "name": "Shelley Barrett Graphic Designer in Palm Beach County",
    "description": "Internet Marketing & Advertising",
    "phone": "(561) 309-0511",
    "address": "6919 Turtle Bay Terrace  Lake Worth, FL 33463",
    "location": "Palm_Beach"
  },
  {
    "name": "Esite LLC dba WSI",
    "description": "Internet Consultants",
    "phone": "(561) 753-6966",
    "address": "246 Berenger Walk  Royal Palm Beach, FL 33414",
    "location": "Palm_Beach"
  },
  {
    "name": "In Web Media",
    "description": "Internet Marketing & Advertising",
    "phone": "(561) 668-0800",
    "address": "14255 Us Highway 1 Ste 285  Juno Beach, FL 33408",
    "location": "Palm_Beach"
  },
  {
    "name": "Biz in the Bag",
    "description": "Sales Promotion Service",
    "phone": "(561) 376-9029",
    "address": "129 Las Brisas Cir  Hypoluxo, FL 33462",
    "location": "Palm_Beach"
  },
  {
    "name": "Capital Assets Research Co",
    "description": "Market Research & Analysis",
    "phone": "(561) 776-5000",
    "address": "3950 Rca Blvd  Palm Beach Gardens, FL 33410",
    "location": "Palm_Beach"
  },
  {
    "name": "Stratis Group",
    "description": "Market Research & Analysis",
    "phone": "(978) 590-0929",
    "address": "4440 Pga Blvd  Palm Beach Gardens, FL 33410",
    "location": "Palm_Beach"
  },
  {
    "name": "Leischen Marketing Research",
    "description": "Market Research & Analysis",
    "phone": "(561) 333-4896",
    "address": "3040 Hartridge Terrace  West Palm Beach, FL 33414",
    "location": "Palm_Beach"
  },
  {
    "name": "Square One Research",
    "description": "Market Research & Analysis",
    "phone": "(561) 622-6402",
    "address": "260 Sedona Way  Palm Beach Gardens, FL 33418",
    "location": "Palm_Beach"
  },
  {
    "name": "Network Research",
    "description": "Market Research & Analysis",
    "phone": "(561) 369-3610",
    "address": "801 N Congress Ave Ste 283  Boynton Beach, FL 33426",
    "location": "Palm_Beach"
  },
  {
    "name": "iCreative Network",
    "description": "Internet Marketing & Advertising",
    "phone": "(561) 214-4668",
    "address": "10255 Hunt Club Ln  Palm Beach Gardens, FL 33418",
    "location": "Palm_Beach"
  },
  {
    "name": "JM Web Solutions",
    "description": "Internet Marketing & Advertising",
    "phone": "(561) 306-2606",
    "address": "4430 Walden Cir  Lake Worth, FL 33463",
    "location": "Palm_Beach"
  },
  {
    "name": "Cedarwoodshop.com",
    "description": "Internet Marketing & Advertising",
    "phone": "(561) 644-6539",
    "address": "10500 N Military Trl  Palm Beach Gardens, FL 33410",
    "location": "Palm_Beach"
  },
  {
    "name": "Today's Solutions LLC",
    "description": "Internet Marketing & Advertising",
    "phone": "(954) 557-4991",
    "address": "4793 Esedra Ct Apt 105  Lake Worth, FL 33467",
    "location": "Palm_Beach"
  },
  {
    "name": "Ah Websites",
    "description": "Internet Marketing & Advertising",
    "phone": "(631) 316-2786",
    "address": "227 Grand Pointe Dr  Palm Beach Gardens, FL 33418",
    "location": "Palm_Beach"
  },
  {
    "name": "Stagelitesmakeup.com",
    "description": "Internet Marketing & Advertising",
    "phone": "(561) 596-7975",
    "address": "4501 Pga Blvd  Palm Beach Gardens, FL 33418",
    "location": "Palm_Beach"
  },
  {
    "name": "White Water Agency",
    "description": "Internet Marketing & Advertising",
    "phone": "(561) 337-5246",
    "address": "3801 PGA Blvd  Palm Beach Gardens, FL 33410",
    "location": "Palm_Beach"
  },
  {
    "name": "Legacy Internet Marketing",
    "description": "Internet Marketing & Advertising",
    "phone": "(561) 801-1974",
    "address": "9314 Forest Hill Blvd  Wellington, FL 33411",
    "location": "Palm_Beach"
  },
  {
    "name": "As Seen On TV",
    "description": "Internet Marketing & Advertising",
    "phone": "(561) 422-2856",
    "address": "10300 Forest Hill Blvd  Wellington, FL 33414",
    "location": "Palm_Beach"
  },
  {
    "name": "Medicalbasket.com",
    "description": "Internet Marketing & Advertising",
    "phone": "(877) 212-7370",
    "address": "6586 Hypoluxo Rd  Lake Worth, FL 33467",
    "location": "Palm_Beach"
  },
  {
    "name": "Vegga Consulting, LLC",
    "description": "Internet Consultants",
    "phone": "(561) 819-9788",
    "address": "9247 Emily Cir  Lake Worth, FL 33467",
    "location": "Palm_Beach"
  },
  {
    "name": "Riser Design",
    "description": "Interactive Media",
    "phone": "(561) 889-4169",
    "address": "PO Box 213007  Royal Palm Beach, FL 33421",
    "location": "Palm_Beach"
  },
  {
    "name": "Horsesdaily.com",
    "description": "Internet Marketing & Advertising",
    "phone": "(386) 985-1429",
    "address": "361 Cindy Dr  Wellington, FL 33414",
    "location": "Palm_Beach"
  },
  {
    "name": "regional south east services",
    "description": "Internet Marketing & Advertising",
    "phone": "(561) 574-3752",
    "address": "11445 49th St N  west palm beach, FL 33411",
    "location": "Palm_Beach"
  },
  {
    "name": "Run it Right Web solutions",
    "description": "Internet Marketing & Advertising",
    "phone": "(561) 329-5329",
    "address": "1239 Belmore Ter  Wellington, FL 33414",
    "location": "Palm_Beach"
  },
  {
    "name": "Wealth E-Commerce",
    "description": "Internet Marketing & Advertising",
    "phone": "(561) 708-4554",
    "address": "3254 Watercress Ct  Wellington, FL 33414",
    "location": "Palm_Beach"
  },
  {
    "name": "JET Marketing Enterprises",
    "description": "Internet Marketing & Advertising",
    "phone": "(561) 436-7420",
    "address": "6230 Harbour Greens Dr  Lake Worth, FL 33467",
    "location": "Palm_Beach"
  },
  {
    "name": "Mobileweb Creations Inc",
    "description": "Web Site Design & Services",
    "phone": "(561) 792-4323",
    "address": "12015 Fawnwood Pl  Wellington, FL 33414",
    "location": "Palm_Beach"
  },
  {
    "name": "Trobaz Web Design",
    "description": "Internet Marketing & Advertising",
    "phone": "(561) 293-9177",
    "address": "8058 Via Bolzano  Lake Worth, FL 33467",
    "location": "Palm_Beach"
  },
  {
    "name": "Mobile Yuppie.com",
    "description": "Internet Marketing & Advertising",
    "phone": "(561) 866-2872",
    "address": "11924 Forest Hill Blvd  Wellington, FL 33414",
    "location": "Palm_Beach"
  },
  {
    "name": "Digital Media Motion",
    "description": "Internet Marketing & Advertising",
    "phone": "(561) 221-2366",
    "address": "4781 N Congress Ave #1133 , FL  Boynton Beach, FL 33426",
    "location": "Palm_Beach"
  },
  {
    "name": "Chris Sangiorgio Web Design",
    "description": "Internet Marketing & Advertising",
    "phone": "(561) 706-8846",
    "address": "4140 Key Lime Blvd  Boynton Beach, FL 33436",
    "location": "Palm_Beach"
  },
  {
    "name": "WebPro InSite",
    "description": "Internet Marketing & Advertising",
    "phone": "(561) 767-4470",
    "address": "1375 Gateway Blvd  Boynton Beach, FL 33426",
    "location": "Palm_Beach"
  },
  {
    "name": "Incredible Foresight LLC",
    "description": "Internet Marketing & Advertising",
    "phone": "(561) 901-7883",
    "address": "1931 Via Granada  Boynton Beach, FL 33426",
    "location": "Palm_Beach"
  },
  {
    "name": "Peak Activity",
    "description": "Internet Marketing & Advertising",
    "phone": "(574) 404-7325",
    "address": "1880 N Congress Ave  Boynton Beach, FL 33426",
    "location": "Palm_Beach"
  },
  {
    "name": "Teach IT Now, Inc.",
    "description": "Internet Marketing & Advertising",
    "phone": "(309) 310-7245",
    "address": "3740 Max Pl Apt 101  Boynton Beach, FL 33436",
    "location": "Palm_Beach"
  },
  {
    "name": "anycosa",
    "description": "Internet Marketing & Advertising",
    "phone": "(561) 463-6682",
    "address": "206 S Broughton Ct  boynton beach, FL 33436",
    "location": "Palm_Beach"
  },
  {
    "name": "Hurricanegarages.com",
    "description": "Internet Marketing & Advertising",
    "phone": "(561) 503-4887",
    "address": "3577 Lothair Ave  Boynton Beach, FL 33436",
    "location": "Palm_Beach"
  },
  {
    "name": "Printers911.com",
    "description": "Internet Marketing & Advertising",
    "phone": "(561) 762-0911",
    "address": "731 W Ocean Ave  Boynton Beach, FL 33426",
    "location": "Palm_Beach"
  },
  {
    "name": "Lts Marketing",
    "description": "Marketing Consultants",
    "phone": "(561) 790-5548",
    "address": "2245 Chickcharnies  West Palm Beach, FL 33411",
    "location": "Palm_Beach"
  },
  {
    "name": "Eric Bauer",
    "description": "Marketing Consultants",
    "phone": "(561) 844-7337",
    "address": "5590 Cypress Tree Ct  Palm Beach Gardens, FL 33418",
    "location": "Palm_Beach"
  },
  {
    "name": "Fombrun Worldwide Trading",
    "description": "Marketing Consultants",
    "phone": "(314) 443-9756",
    "address": "599 Owosso Rd  Lake Worth, FL 33462",
    "location": "Palm_Beach"
  },
  {
    "name": "Lisa Paskaly",
    "description": "Marketing Consultants",
    "phone": "(561) 223-2853",
    "address": "147 E Tall Oaks Cir  Palm Beach Gardens, FL 33410",
    "location": "Palm_Beach"
  },
  {
    "name": "Square D Marketing",
    "description": "Marketing Consultants",
    "phone": "(561) 715-7427",
    "address": "9401 Chapman Oak Ct  Palm Beach Gardens, FL 33410",
    "location": "Palm_Beach"
  },
  {
    "name": "Cc Metro Inc",
    "description": "Cellular Telephone Service",
    "phone": "(561) 622-4747",
    "address": "2510 Pga Blvd  Palm Beach Gardens, FL 33410",
    "location": "Palm_Beach"
  },
  {
    "name": "Leonestar Services Inc",
    "description": "Marketing Consultants",
    "phone": "(561) 966-1747",
    "address": "4697 Fountains Dr S  Lake Worth, FL 33467",
    "location": "Palm_Beach"
  },
  {
    "name": "Bout That Money",
    "description": "Marketing Consultants",
    "phone": "(561) 357-5601",
    "address": "5413 Sandhurst Cir S  Lake Worth, FL 33463",
    "location": "Palm_Beach"
  },
  {
    "name": "South Florida Review",
    "description": "Marketing Consultants",
    "phone": "(561) 880-5790",
    "address": "4521 Pga Blvd  Palm Beach Gardens, FL 33418",
    "location": "Palm_Beach"
  },
  {
    "name": "Dashboard Marketing Solution",
    "description": "Marketing Consultants",
    "phone": "(561) 964-2815",
    "address": "7556 Lake Worth Rd Ste 105  Lake Worth, FL 33467",
    "location": "Palm_Beach"
  },
  {
    "name": "Neo Web Marketing",
    "description": "Marketing Consultants",
    "phone": "(561) 202-8473",
    "address": "110 Catania Way  Royal Palm Beach, FL 33411",
    "location": "Palm_Beach"
  },
  {
    "name": "Hero Local",
    "description": "Marketing Consultants",
    "phone": "(561) 570-6554",
    "address": "3237 Capri Rd  Palm Beach Gardens, FL 33410",
    "location": "Palm_Beach"
  },
  {
    "name": "Cosmo Marketing Group Inc",
    "description": "Marketing Consultants",
    "phone": "(561) 327-6070",
    "address": "9623 Shepard Pl  Wellington, FL 33414",
    "location": "Palm_Beach"
  },
  {
    "name": "Sloan & Assoc",
    "description": "Marketing Consultants",
    "phone": "(561) 630-0176",
    "address": "19 Cayman Pl  Palm Beach Gardens, FL 33418",
    "location": "Palm_Beach"
  },
  {
    "name": "Biztegra Partners LLC",
    "description": "Computer Software & Services",
    "phone": "(866) 223-9945",
    "address": "6586 Hypoluxo Rd Ste 237  Lake Worth, FL 33467",
    "location": "Palm_Beach"
  },
  {
    "name": "Marriotts Ocean Pointe Resort",
    "description": "Marketing Consultants",
    "phone": "(561) 882-3050",
    "address": "710 Ocean Dr  Juno Beach, FL 33408",
    "location": "Palm_Beach"
  },
  {
    "name": "Got2click",
    "description": "Marketing Consultants",
    "phone": "(800) 234-2313",
    "address": "6668 Waverly Ln  Lake Worth, FL 33467",
    "location": "Palm_Beach"
  },
  {
    "name": "Insyntrix",
    "description": "Marketing Consultants",
    "phone": "(303) 280-0014",
    "address": "10525 Vignon Ct  Wellington, FL 33449",
    "location": "Palm_Beach"
  },
  {
    "name": "D B Marketing",
    "description": "Marketing Consultants",
    "phone": "(561) 432-9100",
    "address": "4539 Hunting Trl  Lake Worth, FL 33467",
    "location": "Palm_Beach"
  },
  {
    "name": "Marketing Strategies International",
    "description": "Marketing Consultants",
    "phone": "(561) 776-4804",
    "address": "14255 US Highway 1  Juno Beach, FL 33408",
    "location": "Palm_Beach"
  },
  {
    "name": "Jorn Sales & Marketing",
    "description": "Marketing Consultants",
    "phone": "(561) 795-2345",
    "address": "3121 Fairlane Farms Rd Ste 4  Wellington, FL 33414",
    "location": "Palm_Beach"
  },
  {
    "name": "Creative Marketing Products Inc",
    "description": "Marketing Consultants",
    "phone": "(561) 798-2424",
    "address": "3460 Fairlane Farms Rd  Wellington, FL 33414",
    "location": "Palm_Beach"
  },
  {
    "name": "Geysler Rodriguez Group Crtv",
    "description": "Marketing Consultants",
    "phone": "(561) 543-7556",
    "address": "4919 Vine Cliff Way E  Palm Beach Gardens, FL 33418",
    "location": "Palm_Beach"
  },
  {
    "name": "Matt E Fresh Marketing Inc",
    "description": "Marketing Consultants",
    "phone": "(561) 223-2617",
    "address": "3000 High Ridge Rd  Boynton Beach, FL 33426",
    "location": "Palm_Beach"
  },
  {
    "name": "Armfield Group Inc",
    "description": "Marketing Consultants",
    "phone": "(954) 541-3466",
    "address": "1034 Gateway Blvd Ste 104  Boynton Beach, FL 33426",
    "location": "Palm_Beach"
  },
  {
    "name": "Forward Focused Media",
    "description": "Marketing Consultants",
    "phone": "(561) 420-9514",
    "address": "1858 Via Sofia  Boynton Beach, FL 33426",
    "location": "Palm_Beach"
  },
  {
    "name": "Nationwide Sales and Marketing",
    "description": "Marketing Consultants",
    "phone": "(561) 806-5600",
    "address": "11 Sabal Island Dr  Ocean Ridge, FL 33435",
    "location": "Palm_Beach"
  },
  {
    "name": "Luminous Marketing",
    "description": "Marketing Consultants",
    "phone": "(386) 225-1729",
    "address": "1252 Piazza Antinori  Boynton Beach, FL 33426",
    "location": "Palm_Beach"
  },
  {
    "name": "Oceanside Marketing Grill Inc",
    "description": "Marketing Consultants",
    "phone": "(561) 810-8944",
    "address": "511 NE 4th St  Boynton Beach, FL 33435",
    "location": "Palm_Beach"
  },
  {
    "name": "International Enterprise Development Inc",
    "description": "Business Coaches & Consultants",
    "phone": "(561) 742-1234",
    "address": "6260 N Ocean Blvd  Ocean Ridge, FL 33435",
    "location": "Palm_Beach"
  },
  {
    "name": "K4 Digital, Inc",
    "description": "Advertising Agencies",
    "phone": "(561) 536-3627",
    "address": "815 W Boynton Beach Blvd  Boynton Beach, FL 33426",
    "location": "Palm_Beach"
  },
  {
    "name": "JM Design Studio, Inc.",
    "description": "Graphic Designers",
    "phone": "(561) 444-7470",
    "address": "8569 Tourmaline Blvd  Boynton Beach, FL 33472",
    "location": "Palm_Beach"
  },
  {
    "name": "Onecard Global",
    "description": "Marketing Consultants",
    "phone": "(561) 664-7124",
    "address": "3469 W Boynton Beach Blvd  Boynton Beach, FL 33436",
    "location": "Palm_Beach"
  },
  {
    "name": "Sundara Marketing Grp",
    "description": "Marketing Programs & Services",
    "phone": "(561) 509-7169",
    "address": "9651 Aloe Rd  Boynton Beach, FL 33436",
    "location": "Palm_Beach"
  },
  {
    "name": "Agile Marketing Group",
    "description": "Marketing Programs & Services",
    "phone": "(561) 559-4539",
    "address": "1901 S Congress Ave  Boynton Beach, FL 33426",
    "location": "Palm_Beach"
  }
]
