[
  {
    "name": "3SIXTY Marketing",
    "description": "Marketing Programs & Services",
    "phone": "(850) 393-4605",
    "address": "350 W Cedar St Ste 300C  Pensacola, FL 32502",
    "location": "Pasco"
  },
  {
    "name": "Jennifer Hodgson Virtual Administrative Services",
    "description": "Internet Marketing & Advertising",
    "phone": "(850) 377-5946",
    "address": "5504 Bens Way  Milton, FL 32570",
    "location": "Pasco"
  },
  {
    "name": "Power 97.4 FM online radio",
    "description": "Internet Marketing & Advertising",
    "phone": "(850) 529-6033",
    "address": "4252 Burbank Dr  Milton, FL 32583",
    "location": "Pasco"
  },
  {
    "name": "Southern Media Inc",
    "description": "Advertising Agencies",
    "phone": "(850) 477-3995",
    "address": "9165 Roe St  Pensacola, FL 32514",
    "location": "Pasco"
  },
  {
    "name": "CY Greeting, LLC",
    "description": "Marketing Programs & Services",
    "phone": "(850) 313-6141",
    "address": "3895 Sunny Manor Cir  Milton, FL 32583",
    "location": "Pasco"
  },
  {
    "name": "Alliance Marketing Associates , Inc.",
    "description": "Marketing Programs & Services",
    "phone": "(850) 361-4144",
    "address": "600 University Office Blvd Ste 15B  Pensacola, FL 32504",
    "location": "Pasco"
  },
  {
    "name": "Magnum Marketing",
    "description": "Marketing Programs & Services",
    "phone": "(850) 623-5153",
    "address": "7536 Pine Lake Dr  Milton, FL 32570",
    "location": "Pasco"
  },
  {
    "name": "OverPower Marketing",
    "description": "Marketing Programs & Services",
    "phone": "(850) 972-2666",
    "address": "8327 Wilde Lake Rd  Pensacola, FL 32526",
    "location": "Pasco"
  },
  {
    "name": "Logo Motion Marketing",
    "description": "Marketing Programs & Services",
    "phone": "(850) 434-1084",
    "address": "1125 E Cross St  Pensacola, FL 32503",
    "location": "Pasco"
  },
  {
    "name": "Younsi Marketing Consulting LLC",
    "description": "Marketing Consultants",
    "phone": "(850) 281-7642",
    "address": "5111 Dogwood Dr  Milton, FL 32570",
    "location": "Pasco"
  },
  {
    "name": "Blue Onyx Marketing",
    "description": "Internet Marketing & Advertising",
    "phone": "(850) 529-1438",
    "address": "5365 Park Ln  Milton, FL 32570",
    "location": "Pasco"
  },
  {
    "name": "Yolee Solutions",
    "description": "Internet Marketing & Advertising",
    "phone": "(850) 232-1160",
    "address": "6847 N 9th Ave Ste A-337  Pensacola, FL 32504",
    "location": "Pasco"
  },
  {
    "name": "PIP Marketing, Signs, Print",
    "description": "Printing Services",
    "phone": "(850) 434-2664",
    "address": "7145 N 9th Ave  Pensacola, FL 32504",
    "location": "Pasco"
  },
  {
    "name": "Saritus",
    "description": "Advertising Agencies",
    "phone": "(850) 291-6837",
    "address": "1765 E Nine Mile Rd  Pensacola, FL 32514",
    "location": "Pasco"
  },
  {
    "name": "Ordercounter.com",
    "description": "Internet Marketing & Advertising",
    "phone": "(850) 588-1393",
    "address": "9270 University Pkwy  Pensacola, FL 32514",
    "location": "Pasco"
  },
  {
    "name": "Audiomarket.com",
    "description": "Internet Marketing & Advertising",
    "phone": "(850) 484-4906",
    "address": "6404 N 9th Ave  Pensacola, FL 32504",
    "location": "Pasco"
  },
  {
    "name": "TinkTank Software",
    "description": "Internet Marketing & Advertising",
    "phone": "(786) 897-1134",
    "address": "7250 Hilburn Rd Apt 3b  Pensacola, FL 32504",
    "location": "Pasco"
  },
  {
    "name": "Vector Marketing",
    "description": "Marketing Consultants",
    "phone": "(850) 417-8202",
    "address": "2420 E Olive Rd Ste B  Pensacola, FL 32514",
    "location": "Pasco"
  },
  {
    "name": "Monroe Johnnie",
    "description": "Marketing Consultants",
    "phone": "(850) 912-6484",
    "address": "6706 N 9th Ave  Pensacola, FL 32504",
    "location": "Pasco"
  },
  {
    "name": "Bruno Marketing & Design",
    "description": "Marketing Consultants",
    "phone": "(850) 477-5885",
    "address": "4340 Costa Mesa  Pensacola, FL 32504",
    "location": "Pasco"
  },
  {
    "name": "Phoenix Impressions & Media, Inc.",
    "description": "Marketing Programs & Services",
    "phone": "(888) 970-4448",
    "address": "4771 Bayou Blvd Ste 118  Pensacola, FL 32503",
    "location": "Pasco"
  },
  {
    "name": "Online and Offline Pros, LLC",
    "description": "Marketing Programs & Services",
    "phone": "(850) 748-7284",
    "address": "9024 Camelot Pl  Pensacola, FL 32534",
    "location": "Pasco"
  },
  {
    "name": "Jump Start Marketing, Inc.",
    "description": "Marketing Programs & Services",
    "phone": "(888) 623-3933",
    "address": "3001 Bayview Way  Pensacola, FL 32503",
    "location": "Pasco"
  },
  {
    "name": "F9 Digital Media",
    "description": "Marketing Programs & Services",
    "phone": "(850) 857-8335",
    "address": "195 E Fairfield Dr  Pensacola, FL 32503",
    "location": "Pasco"
  },
  {
    "name": "Hutchinson Communications",
    "description": "Marketing Programs & Services",
    "phone": "(850) 572-3172",
    "address": "5350 Flax Rd  Pensacola, FL 32504",
    "location": "Pasco"
  },
  {
    "name": "Apostolic Voice Magazine",
    "description": "Internet Marketing & Advertising",
    "phone": "(850) 292-2350",
    "address": "1024 Sawyer St  Pensacola, FL 32534",
    "location": "Pasco"
  },
  {
    "name": "Prosperous I.M.",
    "description": "Internet Marketing & Advertising",
    "phone": "(850) 475-4460",
    "address": "180 E Burgess Rd Ste E  Pensacola, FL 32503",
    "location": "Pasco"
  },
  {
    "name": "Emerald Coast Clinical Research",
    "description": "Market Research & Analysis",
    "phone": "(850) 912-8370",
    "address": "4400 Bayou Blvd Ste 20  Pensacola, FL 32503",
    "location": "Pasco"
  },
  {
    "name": "Design Web Works",
    "description": "Internet Marketing & Advertising",
    "phone": "(850) 418-4127",
    "address": "3300 Bluewater Dr  Pensacola, FL 32503",
    "location": "Pasco"
  },
  {
    "name": "Kenneth Ford Marketing And Rebates",
    "description": "Internet Marketing & Advertising",
    "phone": "(850) 937-0047",
    "address": "1150 Ridge Way  Cantonment, FL 32533",
    "location": "Pasco"
  },
  {
    "name": "Metro Market Trends Inc",
    "description": "Market Research & Analysis",
    "phone": "(850) 474-1398",
    "address": "4400 Bayou Blvd Ste 14  Pensacola, FL 32503",
    "location": "Pasco"
  },
  {
    "name": "letsbmobile",
    "description": "Marketing Consultants",
    "phone": "(850) 760-2790",
    "address": "5041 Bayou Blvd  Pensacola, FL 32503",
    "location": "Pasco"
  },
  {
    "name": "Professionalphonegreeting.com",
    "description": "Internet Marketing & Advertising",
    "phone": "(310) 635-1004",
    "address": "9311 Pine Forest Rd  Pensacola, FL 32534",
    "location": "Pasco"
  },
  {
    "name": "Lotus V Inc",
    "description": "Sales Promotion Service",
    "phone": "(850) 478-5543",
    "address": "2401 Executive Plaza Rd Ste 3a  Pensacola, FL 32504",
    "location": "Pasco"
  },
  {
    "name": "Hobbs Automotive Marketing",
    "description": "Marketing Consultants",
    "phone": "(850) 435-9777",
    "address": "4400 Bayou Blvd  Pensacola, FL 32503",
    "location": "Pasco"
  },
  {
    "name": "Incentivized Marketing Inc",
    "description": "Marketing Consultants",
    "phone": "(850) 466-3710",
    "address": "4400 Bayou Blvd Ste 16C  Pensacola, FL 32503",
    "location": "Pasco"
  },
  {
    "name": "Graphic Grooves Production Company",
    "description": "Marketing Consultants",
    "phone": "(850) 291-3003",
    "address": "804 Royce St Apt 126  Pensacola, FL 32503",
    "location": "Pasco"
  },
  {
    "name": "Sydney Marketing Incorporated",
    "description": "Marketing Consultants",
    "phone": "(850) 791-6818",
    "address": "865 Copper Ridge Dr  Cantonment, FL 32533",
    "location": "Pasco"
  },
  {
    "name": "Dlux Marketing",
    "description": "Marketing Consultants",
    "phone": "(850) 479-8097",
    "address": "6231 N W St  Pensacola, FL 32505",
    "location": "Pasco"
  },
  {
    "name": "Marketing Management Inc",
    "description": "Marketing Consultants",
    "phone": "(850) 435-9201",
    "address": "10 E Fairfield Dr Ste C  Pensacola, FL 32501",
    "location": "Pasco"
  },
  {
    "name": "The Boatwright Company Inc",
    "description": "Advertising-Promotional Products",
    "phone": "(850) 434-1084",
    "address": "1125 E Cross St  Pensacola, FL 32503",
    "location": "Pasco"
  },
  {
    "name": "One Way Up Services",
    "description": "Marketing Consultants",
    "phone": "(850) 359-6144",
    "address": "1000 W Michigan Ave  Pensacola, FL 32505",
    "location": "Pasco"
  },
  {
    "name": "Printers of Pensacola",
    "description": "Marketing Programs & Services",
    "phone": "(850) 434-2588",
    "address": "1207 W Garden St  Pensacola, FL 32502",
    "location": "Pasco"
  },
  {
    "name": "Maps & Legends Marketing",
    "description": "Marketing Programs & Services",
    "phone": "(850) 462-4982",
    "address": "418 W Garden St Ste 306  Pensacola, FL 32502",
    "location": "Pasco"
  },
  {
    "name": "The Marketing Bar",
    "description": "Marketing Programs & Services",
    "phone": "(850) 435-4600",
    "address": "260 S Tarragona St Ste 140  Pensacola, FL 32502",
    "location": "Pasco"
  },
  {
    "name": "Premier Marketing Associates",
    "description": "Marketing Programs & Services",
    "phone": "(850) 497-6208",
    "address": "125 W Romana St Ste 525  Pensacola, FL 32502",
    "location": "Pasco"
  },
  {
    "name": "DonDiva Marketing",
    "description": "Marketing Programs & Services",
    "phone": "(866) 473-2186",
    "address": "1820 W De Soto St  Pensacola, FL 32501",
    "location": "Pasco"
  },
  {
    "name": "Captevrix",
    "description": "Marketing Programs & Services",
    "phone": "(850) 788-2307",
    "address": "186 N Palafox St  Pensacola, FL 32502",
    "location": "Pasco"
  },
  {
    "name": "James Market Pros",
    "description": "Marketing Programs & Services",
    "phone": "(573) 590-1459",
    "address": "1152 Sawgrass Dr  Gulf Breeze, FL 32563",
    "location": "Pasco"
  },
  {
    "name": "Lucid Advertising, Inc.",
    "description": "Marketing Programs & Services",
    "phone": "(850) 760-0478",
    "address": "226 Palafox Pl Ste 400  Pensacola, FL 32502",
    "location": "Pasco"
  },
  {
    "name": "JJ Creative Design",
    "description": "Marketing Programs & Services",
    "phone": "(502) 727-2328",
    "address": "314 N Spring St  Pensacola, FL 32501",
    "location": "Pasco"
  },
  {
    "name": "HIP Creative Inc.",
    "description": "Marketing Programs & Services",
    "phone": "(850) 359-3081",
    "address": "301 N Barcelona St  Pensacola, FL 32501",
    "location": "Pasco"
  },
  {
    "name": "Cyber 1 Systems",
    "description": "Marketing Programs & Services",
    "phone": "(855) 929-2371",
    "address": "3245 W Fairfield Dr  Pensacola, FL 32505",
    "location": "Pasco"
  },
  {
    "name": "Valpak of The Gulf Coast",
    "description": "Marketing Programs & Services",
    "phone": "(850) 530-8557",
    "address": "109 N A St  Pensacola, FL 32502",
    "location": "Pasco"
  },
  {
    "name": "Get Net Marketing LLC",
    "description": "Marketing Programs & Services",
    "phone": "(850) 376-2701",
    "address": "101 Palafox Pl Unit 12670  Pensacola, FL 32591",
    "location": "Pasco"
  },
  {
    "name": "www.yourgoldenegg.info",
    "description": "Marketing Programs & Services",
    "phone": "(850) 418-3736",
    "address": "1607 Stanford Rd  gulf breeze, FL 32563",
    "location": "Pasco"
  },
  {
    "name": "Onmedia Gulf Coast",
    "description": "Marketing Consultants",
    "phone": "(866) 819-9399",
    "address": "1613 Nantahala Beach Rd  Gulf Breeze, FL 32563",
    "location": "Pasco"
  },
  {
    "name": "White Sands Technology",
    "description": "Internet Marketing & Advertising",
    "phone": "(850) 525-5858",
    "address": "1121 Nestling CT  Gulf Breeze, FL 32563",
    "location": "Pasco"
  },
  {
    "name": "Opulentworx",
    "description": "Internet Marketing & Advertising",
    "phone": "(850) 684-0360",
    "address": "901 S Old Corry Field Rd  Pensacola, FL 32507",
    "location": "Pasco"
  },
  {
    "name": "Ocean Media Now",
    "description": "Internet Consultants",
    "phone": "(850) 261-2691",
    "address": "5789 Graymont Ln  Pensacola, FL 32526",
    "location": "Pasco"
  },
  {
    "name": "WebNet International, Inc.",
    "description": "Web Site Design & Services",
    "phone": "(850) 483-1327",
    "address": "1610 Barrancas Ave Suite 103  Pensacola, FL 32502",
    "location": "Pasco"
  },
  {
    "name": "Joshua Lyons Marketing",
    "description": "Internet Marketing & Advertising",
    "phone": "(850) 898-2237",
    "address": "225 N Pace Blvd  Pensacola, FL 32505",
    "location": "Pasco"
  },
  {
    "name": "LocaliQ",
    "description": "Advertising Agencies",
    "phone": "(877) 525-6084",
    "address": "2 N Palafox St  Pensacola, FL 32502",
    "location": "Pasco"
  },
  {
    "name": "Pensacola Apps",
    "description": "Internet Marketing & Advertising",
    "phone": "(850) 549-5003",
    "address": "201 S Stillman St  pensacola, FL 32505",
    "location": "Pasco"
  },
  {
    "name": "G. L. Hooker & Associates",
    "description": "Business Plans Development",
    "phone": "(850) 733-0180",
    "address": "2999 Gulf Breeze Pkwy  Gulf Breeze, FL 32563",
    "location": "Pasco"
  },
  {
    "name": "E W Bullock Associates",
    "description": "Advertising Agencies",
    "phone": "(850) 438-4015",
    "address": "730 Bayfront Pkwy  Pensacola, FL 32502",
    "location": "Pasco"
  },
  {
    "name": "Lamarc Consulting LLC",
    "description": "Internet Marketing & Advertising",
    "phone": "(850) 801-1488",
    "address": "186 North Palafox Street  Pensacola, FL 32502",
    "location": "Pasco"
  },
  {
    "name": "Market Research Insight",
    "description": "Market Research & Analysis",
    "phone": "(850) 433-9191",
    "address": "630 E Government St  Pensacola, FL 32502",
    "location": "Pasco"
  },
  {
    "name": "Genex Services",
    "description": "Market Research & Analysis",
    "phone": "(850) 934-8576",
    "address": "2887 Whisper Lake Dr  Gulf Breeze, FL 32563",
    "location": "Pasco"
  },
  {
    "name": "Son.Com",
    "description": "Internet Marketing & Advertising",
    "phone": "(850) 438-3616",
    "address": "1803 W Fairfield Dr  Pensacola, FL 32501",
    "location": "Pasco"
  },
  {
    "name": "Bell Media",
    "description": "Internet Marketing & Advertising",
    "phone": "(850) 308-7105",
    "address": "20 E Garden St  Pensacola, FL 32502",
    "location": "Pasco"
  },
  {
    "name": "Out and About Pensacola",
    "description": "Internet Directories",
    "phone": "(850) 696-7562",
    "address": "55 S A St Suite 108  Pensacola, FL 32502",
    "location": "Pasco"
  },
  {
    "name": "Ditibit Web Solutions",
    "description": "Web Site Design & Services",
    "phone": "(850) 417-7151",
    "address": "2816 Gulf Breeze Pkwy  Gulf Breeze, FL 32563",
    "location": "Pasco"
  },
  {
    "name": "Pensacola Web Solutions",
    "description": "Internet Marketing & Advertising",
    "phone": "(850) 376-2701",
    "address": "100 Northcliffe Dr  Gulf Breeze, FL 32563",
    "location": "Pasco"
  },
  {
    "name": "Envision International",
    "description": "Marketing Consultants",
    "phone": "(850) 505-0089",
    "address": "1720 W Fairfield Dr  Pensacola, FL 32501",
    "location": "Pasco"
  },
  {
    "name": "J. Howard",
    "description": "Advertising Agencies",
    "phone": "(850) 629-9564",
    "address": "707 E Cervantes St  Pensacola, FL 32501",
    "location": "Pasco"
  },
  {
    "name": "MARKETING ADVANTAGE CONCEPTS, INC.",
    "description": "Marketing Consultants",
    "phone": "(954) 592-5873",
    "address": "203 Edison Dr  Pensacola, FL 32505",
    "location": "Pasco"
  },
  {
    "name": "Jdj Marketing Research Inc",
    "description": "Marketing Consultants",
    "phone": "(850) 332-7086",
    "address": "301 W Cervantes St  Pensacola, FL 32501",
    "location": "Pasco"
  },
  {
    "name": "Trendsetters Media and Marketing",
    "description": "Marketing Consultants",
    "phone": "(850) 466-2218",
    "address": "4216 W Fairfield Dr  Pensacola, FL 32505",
    "location": "Pasco"
  },
  {
    "name": "Pensacola Inovations",
    "description": "Marketing Consultants",
    "phone": "(850) 455-6829",
    "address": "4806 Mobile Hwy  Pensacola, FL 32506",
    "location": "Pasco"
  },
  {
    "name": "Direct Enrollment Specialist",
    "description": "Marketing Consultants",
    "phone": "(850) 341-5552",
    "address": "500 W Belmont St  Pensacola, FL 32501",
    "location": "Pasco"
  },
  {
    "name": "G-Media Interactive",
    "description": "Marketing Consultants",
    "phone": "(850) 972-8354",
    "address": "14 Palafox Pl Ste B  Pensacola, FL 32502",
    "location": "Pasco"
  },
  {
    "name": "Crossland Communications",
    "description": "Marketing Consultants",
    "phone": "(850) 602-2296",
    "address": "13 Palafox Pl  Pensacola, FL 32502",
    "location": "Pasco"
  },
  {
    "name": "SharpEye",
    "description": "Marketing Consultants",
    "phone": "(850) 450-4287",
    "address": "17 Palafox Pl Ste 300  Pensacola, FL 32502",
    "location": "Pasco"
  },
  {
    "name": "Jewel Graphics and Marketing",
    "description": "Graphic Designers",
    "phone": "(850) 941-7961",
    "address": "418 W Garden St # 16  Pensacola, FL 32502",
    "location": "Pasco"
  },
  {
    "name": "SMARTBIZ DESIGN",
    "description": "Marketing Consultants",
    "phone": "(850) 565-9271",
    "address": "418 w garden st. Suite 311  Pensacola, FL 32502",
    "location": "Pasco"
  },
  {
    "name": "Prosect Junkie",
    "description": "Marketing Consultants",
    "phone": "(850) 565-9271",
    "address": "418 W Garden St. Suite 311  Pensacola, FL 32502",
    "location": "Pasco"
  },
  {
    "name": "MC Squared Group, Inc.",
    "description": "Marketing Consultants",
    "phone": "(850) 435-4600",
    "address": "260 S Tarragona St Ste 140  Pensacola, FL 32502",
    "location": "Pasco"
  },
  {
    "name": "Prime United Marketing",
    "description": "Marketing Consultants",
    "phone": "(850) 549-3820",
    "address": "1225 W Gregory St  Pensacola, FL 32502",
    "location": "Pasco"
  },
  {
    "name": "Emagination Unlimited",
    "description": "Marketing Consultants",
    "phone": "(850) 473-8808",
    "address": "1225 W Gregory St  Pensacola, FL 32502",
    "location": "Pasco"
  },
  {
    "name": "Baybridge Idea Group",
    "description": "Marketing Consultants",
    "phone": "(850) 444-9849",
    "address": "226 Palafox Pl Ste 402  Pensacola, FL 32502",
    "location": "Pasco"
  },
  {
    "name": "O'Keeley Media",
    "description": "Advertising-Broadcast & Film",
    "phone": "(850) 366-2652",
    "address": "427 W Garden St  Pensacola, FL 32502",
    "location": "Pasco"
  },
  {
    "name": "Variety Marketing",
    "description": "Marketing Consultants",
    "phone": "(850) 587-6065",
    "address": "7379 Highway 95a N  Molino, FL 32577",
    "location": "Pasco"
  },
  {
    "name": "Qualified Marketing Service",
    "description": "Marketing Consultants",
    "phone": "(850) 932-8383",
    "address": "1830 Hickory Shores Rd  Gulf Breeze, FL 32563",
    "location": "Pasco"
  }
]
