[
  {
    "name": "Urban Exposure, Inc.",
    "description": "Marketing Consultants",
    "phone": "(727) 515-5024",
    "address": "1982 55th Ave S  Saint Petersburg, FL 33712",
    "location": "Pinellas"
  },
  {
    "name": "Skyway Media",
    "description": "Marketing Programs & Services",
    "phone": "(727) 317-6826",
    "address": "1029 Central Ave Ste 200 St. Petersburg Fl 33705 Usa  St. Petersburg, FL 33705",
    "location": "Pinellas"
  },
  {
    "name": "The Agile Marketing Academy",
    "description": "Marketing Programs & Services",
    "phone": "(773) 941-0972",
    "address": "2732 6th Ave S  Saint Petersburg, FL 33712",
    "location": "Pinellas"
  },
  {
    "name": "Strops Marketing Inc",
    "description": "Marketing Programs & Services",
    "phone": "(727) 462-0019",
    "address": "2521 Emerson Ave S  Saint Petersburg, FL 33712",
    "location": "Pinellas"
  },
  {
    "name": "O'Neill Marketing",
    "description": "Marketing Programs & Services",
    "phone": "(813) 489-4156",
    "address": "2260 1st Ave S  Saint Petersburg, FL 33712",
    "location": "Pinellas"
  },
  {
    "name": "Gozone Wifi",
    "description": "Marketing Programs & Services",
    "phone": "(727) 314-6910",
    "address": "1211 1st Ave N  Saint Petersburg, FL 33705",
    "location": "Pinellas"
  },
  {
    "name": "T2 Marketing",
    "description": "Marketing Programs & Services",
    "phone": "(727) 351-1976",
    "address": "200 2nd Ave S  Saint Petersburg, FL 33701",
    "location": "Pinellas"
  },
  {
    "name": "Reache Eblast Marketing",
    "description": "Marketing Programs & Services",
    "phone": "(727) 798-6861",
    "address": "3135 1st Ave N  Saint Petersburg, FL 33730",
    "location": "Pinellas"
  },
  {
    "name": "Get on Social",
    "description": "Marketing Programs & Services",
    "phone": "(877) 504-3385",
    "address": "696 1st Ave N  Saint Petersburg, FL 33701",
    "location": "Pinellas"
  },
  {
    "name": "Diamond Star Media",
    "description": "Marketing Programs & Services",
    "phone": "(727) 822-4674",
    "address": "100 2nd Ave S  Saint Petersburg, FL 33701",
    "location": "Pinellas"
  },
  {
    "name": "Evolve & Co",
    "description": "Marketing Programs & Services",
    "phone": "(727) 914-8780",
    "address": "475 Central Ave  Saint Petersburg, FL 33701",
    "location": "Pinellas"
  },
  {
    "name": "Peer360-Horizon Marketing Group Company",
    "description": "Marketing Programs & Services",
    "phone": "(727) 420-9883",
    "address": "475 Central Ave  Saint Petersburg, FL 33701",
    "location": "Pinellas"
  },
  {
    "name": "Marxent Labs",
    "description": "Marketing Programs & Services",
    "phone": "(727) 851-9522",
    "address": "433 Central Ave Ste 204  Saint Petersburg, FL 33701",
    "location": "Pinellas"
  },
  {
    "name": "Florida Progress Corporation",
    "description": "Marketing Programs & Services",
    "phone": "(727) 824-6400",
    "address": "1 Progress Plz  Saint Petersburg, FL 33701",
    "location": "Pinellas"
  },
  {
    "name": "Family & Friends Financial",
    "description": "Marketing Programs & Services",
    "phone": "(727) 895-6551",
    "address": "1 Progress Plz  Saint Petersburg, FL 33701",
    "location": "Pinellas"
  },
  {
    "name": "Communications Inc",
    "description": "Marketing Programs & Services",
    "phone": "(727) 892-9280",
    "address": "360 Central Ave Ste 420  Saint Petersburg, FL 33701",
    "location": "Pinellas"
  },
  {
    "name": "Cyclespoke",
    "description": "Marketing Programs & Services",
    "phone": "(800) 476-3340",
    "address": "360 Central Ave  Saint Petersburg, FL 33701",
    "location": "Pinellas"
  },
  {
    "name": "Phoenix 3 Marketing",
    "description": "Marketing Programs & Services",
    "phone": "(727) 592-1916",
    "address": "76 4th St N  Saint Petersburg, FL 33701",
    "location": "Pinellas"
  },
  {
    "name": "Litchfield C/A Inc",
    "description": "Marketing Programs & Services",
    "phone": "(727) 322-1220",
    "address": "4215 Central Ave  Saint Petersburg, FL 33713",
    "location": "Pinellas"
  },
  {
    "name": "Empower Network, LLC.",
    "description": "Marketing Programs & Services",
    "phone": "(727) 328-4104",
    "address": "146 2nd St N Ste 201  Saint Petersburg, FL 33701",
    "location": "Pinellas"
  },
  {
    "name": "Paradise Advertising & Marketing, Inc.",
    "description": "Marketing Programs & Services",
    "phone": "(727) 821-5155",
    "address": "150 2nd Ave N Ste 800  Saint Petersburg, FL 33701",
    "location": "Pinellas"
  },
  {
    "name": "Calusa Marketing",
    "description": "Marketing Programs & Services",
    "phone": "(800) 946-0997",
    "address": "111 2nd Ave NE Ste 802  Saint Petersburg, FL 33701",
    "location": "Pinellas"
  },
  {
    "name": "Natda",
    "description": "Marketing Programs & Services",
    "phone": "(727) 538-4167",
    "address": "111 2nd Ave NE Ste 900  Saint Petersburg, FL 33701",
    "location": "Pinellas"
  },
  {
    "name": "Sail Marketing",
    "description": "Marketing Programs & Services",
    "phone": "(727) 324-7461",
    "address": "5325 Gulfport Blvd S  Gulfport, FL 33707",
    "location": "Pinellas"
  },
  {
    "name": "Marketing Mate",
    "description": "Marketing Programs & Services",
    "phone": "(610) 246-5911",
    "address": "430 3rd Ave S  St Petersburg, FL 33701",
    "location": "Pinellas"
  },
  {
    "name": "Five Mile Marketing",
    "description": "Marketing Programs & Services",
    "phone": "(727) 220-5923",
    "address": "200 2nd Ave S  St Petersburg, FL 33701",
    "location": "Pinellas"
  },
  {
    "name": "St Petersburg Saturday Morning Market",
    "description": "Marketing Programs & Services",
    "phone": "(727) 455-4921",
    "address": "Al Lang Stadium Parking Lot 101 1st St Se  St. Petersburg, FL 33701",
    "location": "Pinellas"
  },
  {
    "name": "Music Promo BHT",
    "description": "Marketing Programs & Services",
    "phone": "(727) 403-1046",
    "address": "431 11th Ave N  Saint Petersburg, FL 33701",
    "location": "Pinellas"
  },
  {
    "name": "Global Service Solutions",
    "description": "Marketing Programs & Services",
    "phone": "(727) 827-2824",
    "address": "1411 16th St N  Saint Petersburg, FL 33704",
    "location": "Pinellas"
  },
  {
    "name": "Tsunami Marketing",
    "description": "Marketing Programs & Services",
    "phone": "(727) 895-6264",
    "address": "726 25th Ave N  Saint Petersburg, FL 33704",
    "location": "Pinellas"
  },
  {
    "name": "Webtivity Marketing & Design",
    "description": "Marketing Programs & Services",
    "phone": "(941) 753-7574",
    "address": "138 Pinellas Way N  Saint Petersburg, FL 33710",
    "location": "Pinellas"
  },
  {
    "name": "Agency Marketing Inc",
    "description": "Marketing Programs & Services",
    "phone": "(727) 384-6600",
    "address": "7024 Central Ave  Saint Petersburg, FL 33707",
    "location": "Pinellas"
  },
  {
    "name": "Fidelity Printing",
    "description": "Marketing Programs & Services",
    "phone": "(727) 526-9156",
    "address": "3662 Morris St N  Saint Petersburg, FL 33713",
    "location": "Pinellas"
  },
  {
    "name": "First National Merchant Serv",
    "description": "Marketing Programs & Services",
    "phone": "(727) 344-1275",
    "address": "1700 66th St N  Saint Petersburg, FL 33710",
    "location": "Pinellas"
  },
  {
    "name": "Merchant Choice Payment Solutions",
    "description": "Marketing Programs & Services",
    "phone": "(727) 344-1275",
    "address": "1700 66th St N Ste 400  Saint Petersburg, FL 33710",
    "location": "Pinellas"
  },
  {
    "name": "J2 Web Marketing",
    "description": "Marketing Programs & Services",
    "phone": "(727) 410-2288",
    "address": "204 37th Ave N  Saint Petersburg, FL 33704",
    "location": "Pinellas"
  },
  {
    "name": "Proforma The One Source",
    "description": "Marketing Programs & Services",
    "phone": "(727) 460-3308",
    "address": "7419 10th Ave N  Saint Petersburg, FL 33710",
    "location": "Pinellas"
  },
  {
    "name": "Fastpath Marketing",
    "description": "Marketing Programs & Services",
    "phone": "(727) 398-1855",
    "address": "6822 22nd Ave N  Saint Petersburg, FL 33710",
    "location": "Pinellas"
  },
  {
    "name": "MR Marketing",
    "description": "Marketing Programs & Services",
    "phone": "(727) 471-8262",
    "address": "4435 1st st ne unit 105  Saint Petersburg, FL 33703",
    "location": "Pinellas"
  },
  {
    "name": "R Pick Marketing G",
    "description": "Marketing Programs & Services",
    "phone": "(727) 289-6791",
    "address": "3210 48th Ave N  Saint Petersburg, FL 33714",
    "location": "Pinellas"
  },
  {
    "name": "Horizon Marketing Group Inc",
    "description": "Marketing Programs & Services",
    "phone": "(727) 525-0034",
    "address": "3900 14th St NE  Saint Petersburg, FL 33703",
    "location": "Pinellas"
  },
  {
    "name": "Paul Bleigners Marketing",
    "description": "Marketing Programs & Services",
    "phone": "(727) 440-6084",
    "address": "3200 64th St N  Saint Petersburg, FL 33710",
    "location": "Pinellas"
  },
  {
    "name": "Rdo Marketing",
    "description": "Marketing Programs & Services",
    "phone": "(727) 526-3030",
    "address": "3948 14th Way NE  Saint Petersburg, FL 33703",
    "location": "Pinellas"
  },
  {
    "name": "Sandi Brown Marketing",
    "description": "Marketing Programs & Services",
    "phone": "(727) 824-8889",
    "address": "623 Segovia Ct NE  Saint Petersburg, FL 33703",
    "location": "Pinellas"
  },
  {
    "name": "1 Smart Puppy",
    "description": "Marketing Programs & Services",
    "phone": "(727) 235-2841",
    "address": "4920 Locust St NE  Saint Petersburg, FL 33703",
    "location": "Pinellas"
  },
  {
    "name": "Painter Marketing Pros",
    "description": "Marketing Programs & Services",
    "phone": "(800) 813-4385",
    "address": "4047 Overlook Dr NE  Saint Petersburg, FL 33703",
    "location": "Pinellas"
  },
  {
    "name": "PSP Sign",
    "description": "Marketing Programs & Services",
    "phone": "(813) 244-8148",
    "address": "3345 57th Ave N  Saint Petersburg, FL 33714",
    "location": "Pinellas"
  },
  {
    "name": "Your Seo Marketing Pro",
    "description": "Marketing Programs & Services",
    "phone": "(727) 542-6707",
    "address": "5943 Calais Blvd N Apt 6  Saint Petersburg, FL 33714",
    "location": "Pinellas"
  },
  {
    "name": "Business Xposure",
    "description": "Marketing Programs & Services",
    "phone": "(727) 642-8924",
    "address": "2404 Boca Ciega Dr N  Saint Petersburg, FL 33710",
    "location": "Pinellas"
  },
  {
    "name": "AM Digital Productions LLC",
    "description": "Marketing Programs & Services",
    "phone": "(813) 668-2706",
    "address": "7901 4th St N  Saint Petersburg, FL 33702",
    "location": "Pinellas"
  },
  {
    "name": "The Pog Group",
    "description": "Marketing Programs & Services",
    "phone": "(866) 875-8956",
    "address": "7901 4th St N Ste 4532  Saint Petersburg, FL 33702",
    "location": "Pinellas"
  },
  {
    "name": "Harrington Multi Media Marketing",
    "description": "Marketing Programs & Services",
    "phone": "(727) 230-1036",
    "address": "7400 14th St NE  Saint Petersburg, FL 33702",
    "location": "Pinellas"
  },
  {
    "name": "Christian Marketing Experts",
    "description": "Marketing Programs & Services",
    "phone": "(727) 256-4427",
    "address": "1640 83rd Ave N  Saint Petersburg, FL 33702",
    "location": "Pinellas"
  },
  {
    "name": "Sticky Multimedia",
    "description": "Marketing Programs & Services",
    "phone": "(727) 403-7803",
    "address": "300 82nd Ave N  Saint Petersburg, FL 33702",
    "location": "Pinellas"
  },
  {
    "name": "Native Sun Sportswear",
    "description": "Marketing Programs & Services",
    "phone": "(727) 528-2111",
    "address": "4590 62nd Ave N  Pinellas Park, FL 33781",
    "location": "Pinellas"
  },
  {
    "name": "Horizon Loyalty",
    "description": "Marketing Programs & Services",
    "phone": "(727) 289-7412",
    "address": "4531 68th Ave N  Pinellas Park, FL 33781",
    "location": "Pinellas"
  },
  {
    "name": "Marketopia",
    "description": "Marketing Programs & Services",
    "phone": "(844) 482-4769",
    "address": "3600 75th Ter N  Pinellas Park, FL 33781",
    "location": "Pinellas"
  },
  {
    "name": "The Growth Machine",
    "description": "Marketing Programs & Services",
    "phone": "(727) 788-4077",
    "address": "3600 75th Ter N  Pinellas Park, FL 33781",
    "location": "Pinellas"
  },
  {
    "name": "Ziggi Marketing",
    "description": "Marketing Programs & Services",
    "phone": "(727) 216-3859",
    "address": "3575 Gandy Blvd N  Pinellas Park, FL 33781",
    "location": "Pinellas"
  },
  {
    "name": "Teamworks Marketing",
    "description": "Marketing Programs & Services",
    "phone": "(888) 801-8168",
    "address": "9701 International Ct N  Saint Petersburg, FL 33716",
    "location": "Pinellas"
  },
  {
    "name": "Acquirgy",
    "description": "Marketing Programs & Services",
    "phone": "(727) 576-6630",
    "address": "877 Executive Center Dr W Ste 300  Saint Petersburg, FL 33702",
    "location": "Pinellas"
  },
  {
    "name": "Chain Drug Marketing Association Inc",
    "description": "Marketing Programs & Services",
    "phone": "(248) 449-9300",
    "address": "9620 Executive Center Dr N  Saint Petersburg, FL 33702",
    "location": "Pinellas"
  },
  {
    "name": "Agency Marketing Services",
    "description": "Marketing Programs & Services",
    "phone": "(727) 384-1036",
    "address": "9800 4th St N  Saint Petersburg, FL 33702",
    "location": "Pinellas"
  },
  {
    "name": "Aqua Marketing & Communication",
    "description": "Marketing Programs & Services",
    "phone": "(727) 687-4670",
    "address": "6055 Long Bayou Way N  Saint Petersburg, FL 33708",
    "location": "Pinellas"
  },
  {
    "name": "Cherry & Co",
    "description": "Marketing Programs & Services",
    "phone": "(727) 393-7737",
    "address": "11000 49th Ave N  Saint Petersburg, FL 33708",
    "location": "Pinellas"
  },
  {
    "name": "SUNsational Showhomes",
    "description": "Marketing Programs & Services",
    "phone": "(678) 457-7792",
    "address": "4525 Cove Cir Apt 106  Saint Petersburg, FL 33708",
    "location": "Pinellas"
  },
  {
    "name": "Team Inc Corporate Marketing",
    "description": "Marketing Programs & Services",
    "phone": "(727) 577-8051",
    "address": "115 112th Ave NE  Saint Petersburg, FL 33716",
    "location": "Pinellas"
  },
  {
    "name": "Advantage Marketing",
    "description": "Marketing Programs & Services",
    "phone": "(727) 350-1030",
    "address": "2830 Scherer Dr N  Saint Petersburg, FL 33716",
    "location": "Pinellas"
  },
  {
    "name": "Beach 2 Bay Ads",
    "description": "Marketing Programs & Services",
    "phone": "(727) 233-0246",
    "address": "PO Box 245  Bay Pines, FL 33744",
    "location": "Pinellas"
  },
  {
    "name": "Superior Marketing Company",
    "description": "Marketing Programs & Services",
    "phone": "(727) 304-8469",
    "address": "8800 49th St N Ste 111  Pinellas Park, FL 33782",
    "location": "Pinellas"
  },
  {
    "name": "RWB Digital Imaging",
    "description": "Marketing Programs & Services",
    "phone": "(727) 385-1687",
    "address": "10461 Cirimoya Ln  Seminole, FL 33772",
    "location": "Pinellas"
  },
  {
    "name": "Media Simplified",
    "description": "Marketing Programs & Services",
    "phone": "(321) 890-6243",
    "address": "6187 101st Ave N  Pinellas Park, FL 33782",
    "location": "Pinellas"
  },
  {
    "name": "Sign Language of Tampa Bay",
    "description": "Marketing Programs & Services",
    "phone": "(727) 572-8831",
    "address": "10880 49th St N  Clearwater, FL 33762",
    "location": "Pinellas"
  },
  {
    "name": "Eaton Marketing",
    "description": "Marketing Programs & Services",
    "phone": "(727) 531-0899",
    "address": "5325 115th Ave N  Clearwater, FL 33760",
    "location": "Pinellas"
  },
  {
    "name": "Wholesome Goods, Inc.",
    "description": "Marketing Programs & Services",
    "phone": "(844) 719-1093",
    "address": "5355 115th Ave N  Clearwater, FL 33760",
    "location": "Pinellas"
  },
  {
    "name": "Military Savings Book",
    "description": "Marketing Programs & Services",
    "phone": "(727) 329-8990",
    "address": "6177 Cedarbrook Dr N  Pinellas Park, FL 33782",
    "location": "Pinellas"
  },
  {
    "name": "Travel Hotline",
    "description": "Marketing Programs & Services",
    "phone": "(727) 392-2499",
    "address": "10863 Park Blvd  Seminole, FL 33772",
    "location": "Pinellas"
  },
  {
    "name": "Marketing Masters Associates",
    "description": "Marketing Programs & Services",
    "phone": "(727) 547-7074",
    "address": "11350 66th St  Largo, FL 33773",
    "location": "Pinellas"
  },
  {
    "name": "My Marketing Department Inc",
    "description": "Marketing Programs & Services",
    "phone": "(727) 230-9679",
    "address": "11125 Park Blvd  Seminole, FL 33772",
    "location": "Pinellas"
  },
  {
    "name": "The Jingle Writer",
    "description": "Marketing Programs & Services",
    "phone": "(727) 224-1791",
    "address": "11125 Park Blvd  Seminole, FL 33772",
    "location": "Pinellas"
  },
  {
    "name": "DZS Inc",
    "description": "Marketing Programs & Services",
    "phone": "(727) 530-2545",
    "address": "7340 Bryan Dairy Rd  Seminole, FL 33777",
    "location": "Pinellas"
  },
  {
    "name": "Invincible Marketing Group Inc",
    "description": "Marketing Programs & Services",
    "phone": "(727) 545-1800",
    "address": "10931 75th St  Seminole, FL 33777",
    "location": "Pinellas"
  },
  {
    "name": "Concepts Marketing Solutions",
    "description": "Marketing Programs & Services",
    "phone": "(727) 228-2994",
    "address": "13100 56th Ct, Ste 703  Clearwater, FL 33760",
    "location": "Pinellas"
  },
  {
    "name": "Sliverbox Studios",
    "description": "Marketing Programs & Services",
    "phone": "(727) 418-3282",
    "address": "970 Lake Carillon Dr  Saint Petersburg, FL 33716",
    "location": "Pinellas"
  },
  {
    "name": "Citywide Source",
    "description": "Marketing Programs & Services",
    "phone": "(727) 202-9043",
    "address": "970 Lake Carillon Dr  Saint Petersburg, FL 33716",
    "location": "Pinellas"
  },
  {
    "name": "Wilson Printing USA",
    "description": "Marketing Programs & Services",
    "phone": "(727) 536-4173",
    "address": "14451 60th St N  Clearwater, FL 33760",
    "location": "Pinellas"
  },
  {
    "name": "Seo Consulting Experts",
    "description": "Marketing Programs & Services",
    "phone": "(727) 276-4458",
    "address": "2100 E Bay Dr suite 233,  Largo, FL 33771",
    "location": "Pinellas"
  },
  {
    "name": "Thinkdirect Marketing Group",
    "description": "Marketing Programs & Services",
    "phone": "(727) 369-2700",
    "address": "8285 Bryan Dairy Rd Ste 33777  Seminole, FL 33777",
    "location": "Pinellas"
  },
  {
    "name": "BizBlueprint",
    "description": "Marketing Programs & Services",
    "phone": "(877) 632-1888",
    "address": "8998 Seminole Blvd  Seminole, FL 33772",
    "location": "Pinellas"
  },
  {
    "name": "National Event Publications",
    "description": "Marketing Programs & Services",
    "phone": "(727) 254-5400",
    "address": "4908 Creekside Dr Ste A  Clearwater, FL 33760",
    "location": "Pinellas"
  },
  {
    "name": "Nu View Marketing",
    "description": "Marketing Programs & Services",
    "phone": "(727) 754-9743",
    "address": "11701 Belcher Rd S  Largo, FL 33773",
    "location": "Pinellas"
  },
  {
    "name": "A2B Motion",
    "description": "Marketing Programs & Services",
    "phone": "(727) 497-1823",
    "address": "4911 Creekside Dr Ste A  Clearwater, FL 33760",
    "location": "Pinellas"
  },
  {
    "name": "Uci",
    "description": "Marketing Programs & Services",
    "phone": "(727) 536-2777",
    "address": "4911 Creekside Dr  Clearwater, FL 33760",
    "location": "Pinellas"
  },
  {
    "name": "DigitalJ2",
    "description": "Marketing Programs & Services",
    "phone": "(813) 205-3745",
    "address": "12360 66th St Suite H2  Largo, FL 33773",
    "location": "Pinellas"
  },
  {
    "name": "MyEchelon Inc",
    "description": "Marketing Programs & Services",
    "phone": "(240) 216-5566",
    "address": "3001 Executive Dr Ste 140  Clearwater, FL 33762",
    "location": "Pinellas"
  },
  {
    "name": "Marketingmoves PLC",
    "description": "Marketing Programs & Services",
    "phone": "(408) 703-5811",
    "address": "4500 140th Ave N  Clearwater, FL 33762",
    "location": "Pinellas"
  },
  {
    "name": "Everybody Media",
    "description": "Marketing Programs & Services",
    "phone": "(800) 727-8643",
    "address": "10055 Seminole Blvd  Seminole, FL 33772",
    "location": "Pinellas"
  },
  {
    "name": "Dupont Registry",
    "description": "Marketing Programs & Services",
    "phone": "(727) 573-9339",
    "address": "4600 140th Ave N  Clearwater, FL 33762",
    "location": "Pinellas"
  },
  {
    "name": "Inc Stemnion Inc",
    "description": "Marketing Programs & Services",
    "phone": "(727) 216-6911",
    "address": "4600 140th Ave N  Clearwater, FL 33762",
    "location": "Pinellas"
  },
  {
    "name": "Galaxy Marketing Solutions LLC",
    "description": "Marketing Programs & Services",
    "phone": "(727) 531-7171",
    "address": "14055 46th St N Ste 1102  Clearwater, FL 33762",
    "location": "Pinellas"
  },
  {
    "name": "Our Town America",
    "description": "Marketing Programs & Services",
    "phone": "(727) 345-0811",
    "address": "13900 Us Highway 19 N  Clearwater, FL 33764",
    "location": "Pinellas"
  },
  {
    "name": "Scribe Opco, Inc",
    "description": "Marketing Programs & Services",
    "phone": "(727) 536-7895",
    "address": "14421 Myerlake Cir  Clearwater, FL 33760",
    "location": "Pinellas"
  },
  {
    "name": "Majesty Marketing",
    "description": "Marketing Programs & Services",
    "phone": "(727) 373-6085",
    "address": "14330 58th St N  Clearwater, FL 33760",
    "location": "Pinellas"
  },
  {
    "name": "Direct Check Marketing",
    "description": "Marketing Programs & Services",
    "phone": "(727) 536-3399",
    "address": "6399 142nd Ave N  Clearwater, FL 33760",
    "location": "Pinellas"
  },
  {
    "name": "Mad Dog Armory",
    "description": "Marketing Programs & Services",
    "phone": "(727) 304-4443",
    "address": "11606 Seminole Blvd  Largo, FL 33778",
    "location": "Pinellas"
  },
  {
    "name": "M K J Marketing",
    "description": "Marketing Programs & Services",
    "phone": "(727) 524-8100",
    "address": "1501 Belcher Rd S  Largo, FL 33771",
    "location": "Pinellas"
  },
  {
    "name": "Braman Group",
    "description": "Marketing Programs & Services",
    "phone": "(813) 868-1782",
    "address": "9225 Ulmerton Rd Ste P  Largo, FL 33771",
    "location": "Pinellas"
  },
  {
    "name": "Quantum Marketing International Inc",
    "description": "Marketing Programs & Services",
    "phone": "(727) 791-7879",
    "address": "5680 Roosevelt Blvd  Clearwater, FL 33760",
    "location": "Pinellas"
  },
  {
    "name": "Progressive Dental Marketing",
    "description": "Marketing Programs & Services",
    "phone": "(727) 286-6211",
    "address": "15950 Bay Vista Dr Ste 301  Clearwater, FL 33760",
    "location": "Pinellas"
  },
  {
    "name": "Universal Survey Advertising Inc",
    "description": "Marketing Programs & Services",
    "phone": "(727) 517-0800",
    "address": "12597 Walsingham Rd  Largo, FL 33774",
    "location": "Pinellas"
  },
  {
    "name": "Power Moves Digital Marketing & Websites",
    "description": "Marketing Programs & Services",
    "phone": "(727) 219-3721",
    "address": "1958 Promenade Way  Clearwater, FL 33760",
    "location": "Pinellas"
  },
  {
    "name": "Gcp",
    "description": "Marketing Programs & Services",
    "phone": "(252) 441-9401",
    "address": "13103 Cimarron Cir S  Largo, FL 33774",
    "location": "Pinellas"
  },
  {
    "name": "Global Enterprises W. W. Inc.",
    "description": "Marketing Programs & Services",
    "phone": "(727) 286-8605",
    "address": "3665 E Bay Dr Ste 204  Largo, FL 33771",
    "location": "Pinellas"
  },
  {
    "name": "Enrollment Catalyst",
    "description": "Marketing Programs & Services",
    "phone": "(727) 647-0378",
    "address": "9770 Indian Key Trl  Seminole, FL 33776",
    "location": "Pinellas"
  },
  {
    "name": "Wealth Health and Stealth",
    "description": "Marketing Programs & Services",
    "phone": "(727) 692-9487",
    "address": "Po Box 873  largo, FL 33779",
    "location": "Pinellas"
  },
  {
    "name": "Vector Marketing Corp",
    "description": "Marketing Programs & Services",
    "phone": "(716) 372-3111",
    "address": "1301 Seminole Blvd  Largo, FL 33770",
    "location": "Pinellas"
  },
  {
    "name": "Media Pro Marketing Inc",
    "description": "Marketing Programs & Services",
    "phone": "(727) 330-7564",
    "address": "152 8th Ave SW  Largo, FL 33770",
    "location": "Pinellas"
  },
  {
    "name": "Doyle Marketing Group Cnstr",
    "description": "Marketing Programs & Services",
    "phone": "(727) 410-8887",
    "address": "1717 Doncaster Rd  Clearwater, FL 33764",
    "location": "Pinellas"
  },
  {
    "name": "Munce Marketing Group Inc",
    "description": "Marketing Programs & Services",
    "phone": "(727) 596-7625",
    "address": "200 W Bay Dr  Largo, FL 33770",
    "location": "Pinellas"
  },
  {
    "name": "MTL Media Inc",
    "description": "Marketing Programs & Services",
    "phone": "(727) 596-7625",
    "address": "200 W Bay Dr  Largo, FL 33770",
    "location": "Pinellas"
  },
  {
    "name": "Strategic Media Worldwide",
    "description": "Marketing Programs & Services",
    "phone": "(727) 588-0015",
    "address": "311 Missouri Ave N  Largo, FL 33770",
    "location": "Pinellas"
  },
  {
    "name": "RJG Marketing",
    "description": "Marketing Programs & Services",
    "phone": "(727) 536-8668",
    "address": "2557 Nursery Rd  Clearwater, FL 33764",
    "location": "Pinellas"
  },
  {
    "name": "Level 6 Marketing",
    "description": "Marketing Programs & Services",
    "phone": "(727) 210-6600",
    "address": "19321 Us Highway 19 N  Clearwater, FL 33764",
    "location": "Pinellas"
  },
  {
    "name": "Khampton Ventures",
    "description": "Marketing Programs & Services",
    "phone": "(727) 831-9102",
    "address": "1421 Temple St  Clearwater, FL 33756",
    "location": "Pinellas"
  },
  {
    "name": "JRR Marketing Brokers",
    "description": "Marketing Programs & Services",
    "phone": "(941) 779-8149",
    "address": "1930 24th Ave W  Palmetto, FL 34221",
    "location": "Pinellas"
  },
  {
    "name": "Home Care Marketing Pros",
    "description": "Marketing Programs & Services",
    "phone": "(888) 861-2337",
    "address": "230 Sapphire Lake Dr Unit 201  Bradenton, FL 34209",
    "location": "Pinellas"
  },
  {
    "name": "Image Suite PR/Marketing/Media",
    "description": "Marketing Programs & Services",
    "phone": "(813) 419-2494",
    "address": "Po Box 5572  Sun City Center, FL 33571",
    "location": "Pinellas"
  },
  {
    "name": "TruReach Marketing",
    "description": "Marketing Programs & Services",
    "phone": "(888) 315-4769",
    "address": "7322 Manatee Ave W  Bradenton, FL 34209",
    "location": "Pinellas"
  },
  {
    "name": "American Marine",
    "description": "Marketing Programs & Services",
    "phone": "(941) 356-4522",
    "address": "7322 Manatee Ave W  Bradenton, FL 34209",
    "location": "Pinellas"
  },
  {
    "name": "Bright Edge Marketing",
    "description": "Marketing Programs & Services",
    "phone": "(608) 931-3160",
    "address": "1032 Royal Empress Dr  Ruskin, FL 33570",
    "location": "Pinellas"
  },
  {
    "name": "6th FSS",
    "description": "Marketing Programs & Services",
    "phone": "(813) 828-3055",
    "address": "8801 Tampa Point Blvd  Tampa, FL 33621",
    "location": "Pinellas"
  },
  {
    "name": "Marketing With Mel",
    "description": "Marketing Programs & Services",
    "phone": "(813) 835-0597",
    "address": "4933 S West Shore Blvd  Tampa, FL 33611",
    "location": "Pinellas"
  },
  {
    "name": "Master Marketing Firm",
    "description": "Marketing Programs & Services",
    "phone": "(813) 493-8000",
    "address": "122 Star Shell Dr  Apollo Beach, FL 33572",
    "location": "Pinellas"
  },
  {
    "name": "899WebDesign.com",
    "description": "Marketing Programs & Services",
    "phone": "(800) 859-6588",
    "address": "4644 W Gandy Blvd Ste 4112  Tampa, FL 33611",
    "location": "Pinellas"
  },
  {
    "name": "Marketing.com",
    "description": "Marketing Programs & Services",
    "phone": "(813) 576-2098",
    "address": "5210 S Lois Ave  Tampa, FL 33611",
    "location": "Pinellas"
  },
  {
    "name": "Barracuda Marketing",
    "description": "Marketing Programs & Services",
    "phone": "(813) 486-4810",
    "address": "4525 S Renellie Dr  Tampa, FL 33611",
    "location": "Pinellas"
  },
  {
    "name": "Foundation Marketing Group Inc",
    "description": "Marketing Programs & Services",
    "phone": "(727) 372-4670",
    "address": "8955 Us Highway 301 N  Parrish, FL 34219",
    "location": "Pinellas"
  },
  {
    "name": "Real Authority",
    "description": "Marketing Programs & Services",
    "phone": "(941) 870-2778",
    "address": "1133 Riverscape St  Bradenton, FL 34208",
    "location": "Pinellas"
  },
  {
    "name": "Base 26",
    "description": "Marketing Programs & Services",
    "phone": "(813) 426-3600",
    "address": "5315 Bayshore Blvd  Tampa, FL 33611",
    "location": "Pinellas"
  },
  {
    "name": "Total Marketing Concepts",
    "description": "Marketing Programs & Services",
    "phone": "(813) 641-8601",
    "address": "100 Frandorson Cir  Apollo Beach, FL 33572",
    "location": "Pinellas"
  },
  {
    "name": "Sociali",
    "description": "Marketing Programs & Services",
    "phone": "(813) 586-0149",
    "address": "5401 W Kennedy Blvd  Tampa, FL 33609",
    "location": "Pinellas"
  },
  {
    "name": "Gentech Marketing",
    "description": "Marketing Programs & Services",
    "phone": "(850) 788-2740",
    "address": "5401 W Kennedy Blvd  Tampa, FL 33609",
    "location": "Pinellas"
  },
  {
    "name": "Family First",
    "description": "Marketing Programs & Services",
    "phone": "(813) 222-8300",
    "address": "5509 W Gray St  Tampa, FL 33609",
    "location": "Pinellas"
  },
  {
    "name": "KSB Sales & Marketing Agency",
    "description": "Marketing Programs & Services",
    "phone": "(239) 826-7991",
    "address": "6610 Parkshore Drive  Apollo Beach, FL 33572",
    "location": "Pinellas"
  },
  {
    "name": "Security First Planning Group",
    "description": "Marketing Programs & Services",
    "phone": "(727) 536-2777",
    "address": "19321 US Highway 19 N  Clearwater, FL 33764",
    "location": "Pinellas"
  },
  {
    "name": "Design by M2",
    "description": "Marketing Programs & Services",
    "phone": "(727) 323-6945",
    "address": "2811 Miriam St S  Gulfport, FL 33711",
    "location": "Pinellas"
  },
  {
    "name": "MH Consulting",
    "description": "Marketing Programs & Services",
    "phone": "(727) 470-5543",
    "address": "2601 47th St S  Gulfport, FL 33711",
    "location": "Pinellas"
  },
  {
    "name": "Capitol Marketing Concepts Inc",
    "description": "Marketing Programs & Services",
    "phone": "(727) 895-8151",
    "address": "696 1st Ave N Ste 400  Saint Petersburg, FL 33701",
    "location": "Pinellas"
  },
  {
    "name": "LocalMediaInsider",
    "description": "Marketing Programs & Services",
    "phone": "(408) 892-9815",
    "address": "2544 2nd Ave N  Saint Petersburg, FL 33713",
    "location": "Pinellas"
  },
  {
    "name": "Intent Local",
    "description": "Marketing Programs & Services",
    "phone": "(727) 278-3926",
    "address": "33 6th St S Ste 501  Saint Petersburg, FL 33701",
    "location": "Pinellas"
  },
  {
    "name": "Forthfox",
    "description": "Marketing Programs & Services",
    "phone": "(727) 998-1849",
    "address": "PO Box 13946  Saint Petersburg, FL 33733",
    "location": "Pinellas"
  },
  {
    "name": "E Push",
    "description": "Marketing Programs & Services",
    "phone": "(727) 362-3679",
    "address": "433 Central Ave  Saint Petersburg, FL 33701",
    "location": "Pinellas"
  },
  {
    "name": "QR Consulting, LLC",
    "description": "Marketing Programs & Services",
    "phone": "(800) 555-2785",
    "address": "PO Box 1902  Saint Petersburg, FL 33731",
    "location": "Pinellas"
  },
  {
    "name": "Kobie Marketing",
    "description": "Marketing Programs & Services",
    "phone": "(727) 822-5353",
    "address": "111 2nd Ave NE  Saint Petersburg, FL 33701",
    "location": "Pinellas"
  },
  {
    "name": "Castnet Media",
    "description": "Marketing Programs & Services",
    "phone": "(727) 892-2391",
    "address": "490 1st Ave S  St Petersburg, FL 33701",
    "location": "Pinellas"
  },
  {
    "name": "Blubird Marketing",
    "description": "Marketing Programs & Services",
    "phone": "(727) 637-7021",
    "address": "740 4th St N # 198  Saint Petersburg, FL 33701",
    "location": "Pinellas"
  },
  {
    "name": "Delphi Integration",
    "description": "Marketing Programs & Services",
    "phone": "(727) 515-5779",
    "address": "1820 11th St N  Saint Petersburg, FL 33704",
    "location": "Pinellas"
  },
  {
    "name": "Odyssey Promotions",
    "description": "Marketing Programs & Services",
    "phone": "(727) 388-3629",
    "address": "3125 30th Ave N  Saint Petersburg, FL 33713",
    "location": "Pinellas"
  },
  {
    "name": "Kwik Kopy",
    "description": "Marketing Programs & Services",
    "phone": "(813) 286-1690",
    "address": "3225 Bennett St N Ste A  Saint Petersburg, FL 33713",
    "location": "Pinellas"
  },
  {
    "name": "Excel Network",
    "description": "Marketing Programs & Services",
    "phone": "(800) 933-6919",
    "address": "3900 31st St N  Saint Petersburg, FL 33714",
    "location": "Pinellas"
  },
  {
    "name": "Sales Up Solutions",
    "description": "Marketing Programs & Services",
    "phone": "(727) 755-3614",
    "address": "204 37th Ave N  Saint Petersburg, FL 33704",
    "location": "Pinellas"
  },
  {
    "name": "Dragon Digital Marketing",
    "description": "Marketing Programs & Services",
    "phone": "(727) 308-0030",
    "address": "7901 4th St N Ste 4040  Saint Petersburg, FL 33702",
    "location": "Pinellas"
  },
  {
    "name": "ProTech Web Solutions LLC",
    "description": "Marketing Programs & Services",
    "phone": "(352) 355-9028",
    "address": "7901 4th Street Ste 300  Saint Petersburg, FL 33702",
    "location": "Pinellas"
  },
  {
    "name": "eileenmorenoconsulting LLC",
    "description": "Marketing Programs & Services",
    "phone": "(800) 782-2144",
    "address": "7901 4th St STE 300  Saint Petersburg, FL 33702",
    "location": "Pinellas"
  },
  {
    "name": "Adzado",
    "description": "Marketing Programs & Services",
    "phone": "(833) 401-5587",
    "address": "7904 4th St N  Saint Petersburg, FL 33702",
    "location": "Pinellas"
  },
  {
    "name": "Belt Creative",
    "description": "Marketing Programs & Services",
    "phone": "(585) 204-0292",
    "address": "8100 6th St N  Saint Petersburg, FL 33702",
    "location": "Pinellas"
  },
  {
    "name": "Professional Systems Printing and Promotions",
    "description": "Marketing Programs & Services",
    "phone": "(727) 572-0768",
    "address": "12180 28th St N  Saint Petersburg, FL 33716",
    "location": "Pinellas"
  },
  {
    "name": "Big Nerd Marketing",
    "description": "Marketing Programs & Services",
    "phone": "(844) 637-3439",
    "address": "11300 Dr Martin Luther King Jr St N  Saint Petersburg, FL 33716",
    "location": "Pinellas"
  },
  {
    "name": "Hsn",
    "description": "Marketing Programs & Services",
    "phone": "(727) 872-1000",
    "address": "1 Hsn Dr  Saint Petersburg, FL 33716",
    "location": "Pinellas"
  },
  {
    "name": "The Essential Admin",
    "description": "Marketing Programs & Services",
    "phone": "(513) 858-5533",
    "address": "Park Blvd  Seminole, FL 33777",
    "location": "Pinellas"
  },
  {
    "name": "Minuteman Press",
    "description": "Marketing Programs & Services",
    "phone": "(727) 954-0519",
    "address": "9600 66th St N Ste A  Pinellas Park, FL 33782",
    "location": "Pinellas"
  },
  {
    "name": "Marketsurge",
    "description": "Marketing Programs & Services",
    "phone": "(727) 573-1763",
    "address": "4250 118th Ave N  Clearwater, FL 33762",
    "location": "Pinellas"
  },
  {
    "name": "Turnkey Merchandising Inc",
    "description": "Marketing Programs & Services",
    "phone": "(727) 213-1260",
    "address": "10810 72nd St  Seminole, FL 33777",
    "location": "Pinellas"
  },
  {
    "name": "Catalina Marketing Corporation",
    "description": "Marketing Programs & Services",
    "phone": "(727) 579-5000",
    "address": "200 Carillon Pkwy  Saint Petersburg, FL 33716",
    "location": "Pinellas"
  },
  {
    "name": "Stahl Robert L",
    "description": "Marketing Programs & Services",
    "phone": "(727) 391-9791",
    "address": "110 Carillon Pkwy  Saint Petersburg, FL 33716",
    "location": "Pinellas"
  },
  {
    "name": "OrangeTheory",
    "description": "Marketing Programs & Services",
    "phone": "(727) 378-9020",
    "address": "7600 Bryan Dairy Rd Suite B.  Seminole, FL 33777",
    "location": "Pinellas"
  },
  {
    "name": "Wilde Ideas Web Design & Development",
    "description": "Marketing Programs & Services",
    "phone": "(727) 888-3801",
    "address": "8990 Seminole Blvd  Seminole, FL 33772",
    "location": "Pinellas"
  },
  {
    "name": "GO Agency Digital Marketing",
    "description": "Marketing Programs & Services",
    "phone": "(813) 790-5909",
    "address": "2655 Ulmerton Rd Ste 219  Clearwater, FL 33762",
    "location": "Pinellas"
  },
  {
    "name": "Strategic Media Inc",
    "description": "Marketing Programs & Services",
    "phone": "(727) 531-7622",
    "address": "2857 Executive Dr Ste 120  Clearwater, FL 33762",
    "location": "Pinellas"
  },
  {
    "name": "Xanjero Media",
    "description": "Marketing Programs & Services",
    "phone": "(727) 421-8770",
    "address": "9209 Seminole Blvd  Seminole, FL 33772",
    "location": "Pinellas"
  },
  {
    "name": "Ads and Funnels",
    "description": "Marketing Programs & Services",
    "phone": "(727) 280-5912",
    "address": "12700 66th St Apt 2325  Largo, FL 33773",
    "location": "Pinellas"
  },
  {
    "name": "Olavare Marketing",
    "description": "Marketing Programs & Services",
    "phone": "(727) 560-7168",
    "address": "13575 58th St N  Clearwater, FL 33760",
    "location": "Pinellas"
  },
  {
    "name": "Red Palm Marketing",
    "description": "Marketing Programs & Services",
    "phone": "(727) 230-8880",
    "address": "13575 58th St N Ste 146  Clearwater, FL 33760",
    "location": "Pinellas"
  },
  {
    "name": "Kensjin, Inc.",
    "description": "Marketing Programs & Services",
    "phone": "(727) 906-0699",
    "address": "4500 140th Ave N Ste 101  Clearwater, FL 33762",
    "location": "Pinellas"
  },
  {
    "name": "My Marketing Department, Inc",
    "description": "Marketing Programs & Services",
    "phone": "(727) 888-1200",
    "address": "7777 131st St Ste 9  Seminole, FL 33776",
    "location": "Pinellas"
  },
  {
    "name": "Modern Mail & Print Solutions",
    "description": "Marketing Programs & Services",
    "phone": "(727) 572-6245",
    "address": "14201 58th St N  Clearwater, FL 33760",
    "location": "Pinellas"
  },
  {
    "name": "Pro Marketing Inc",
    "description": "Marketing Programs & Services",
    "phone": "(727) 595-1269",
    "address": "18395 Gulf Blvd  Indian Shores, FL 33785",
    "location": "Pinellas"
  },
  {
    "name": "Dream Giveaway",
    "description": "Marketing Programs & Services",
    "phone": "(727) 536-2777",
    "address": "12955 Starkey Rd Ste 3900  Largo, FL 33773",
    "location": "Pinellas"
  },
  {
    "name": "AGR Group",
    "description": "Marketing Programs & Services",
    "phone": "(727) 572-0600",
    "address": "8550 Ulmerton Rd  Largo, FL 33771",
    "location": "Pinellas"
  },
  {
    "name": "Full Throttle Marketing Inc",
    "description": "Marketing Programs & Services",
    "phone": "(727) 210-0835",
    "address": "2480 E Bay Dr Ste 13  Largo, FL 33771",
    "location": "Pinellas"
  },
  {
    "name": "Kicker Creative Productions",
    "description": "Marketing Programs & Services",
    "phone": "(727) 641-3007",
    "address": "3339 21st Pl SW  Largo, FL 33774",
    "location": "Pinellas"
  },
  {
    "name": "AdAbler, LLC",
    "description": "Marketing Programs & Services",
    "phone": "(813) 420-0852",
    "address": "312 6th Ave  Indian Rocks Beach, FL 33785",
    "location": "Pinellas"
  },
  {
    "name": "Relativity SEO",
    "description": "Marketing Programs & Services",
    "phone": "(941) 251-5267",
    "address": "517 72nd St  Holmes Beach, FL 34217",
    "location": "Pinellas"
  },
  {
    "name": "Virtual Mobile",
    "description": "Marketing Programs & Services",
    "phone": "(610) 513-2933",
    "address": "6401 S West Shore Blvd  Tampa, FL 33616",
    "location": "Pinellas"
  },
  {
    "name": "AMI Creative Studio",
    "description": "Marketing Programs & Services",
    "phone": "(941) 773-9665",
    "address": "3101 Avenue F  Holmes Beach, FL 34217",
    "location": "Pinellas"
  },
  {
    "name": "Deckard & Company",
    "description": "Marketing Programs & Services",
    "phone": "(941) 462-4546",
    "address": "1201 6th Ave W Ste 100  Bradenton, FL 34205",
    "location": "Pinellas"
  },
  {
    "name": "Net Sphere",
    "description": "Marketing Programs & Services",
    "phone": "(941) 300-0531",
    "address": "1201 6th Ave W  Bradenton, FL 34205",
    "location": "Pinellas"
  },
  {
    "name": "Confluent Creative",
    "description": "Marketing Programs & Services",
    "phone": "(941) 722-0317",
    "address": "717 Manatee Ave W Ste 100  Bradenton, FL 34205",
    "location": "Pinellas"
  },
  {
    "name": "CRE8 Group",
    "description": "Marketing Programs & Services",
    "phone": "(813) 649-8504",
    "address": "4708 W Knights Ave  Tampa, FL 33611",
    "location": "Pinellas"
  },
  {
    "name": "Quad/Graphics Inc",
    "description": "Marketing Programs & Services",
    "phone": "(813) 837-3436",
    "address": "4646 S Grady Ave  Tampa, FL 33611",
    "location": "Pinellas"
  },
  {
    "name": "Indivo",
    "description": "Marketing Programs & Services",
    "phone": "(877) 446-3486",
    "address": "235 Apollo Beach Blvd Ste 256  Apollo Beach, FL 33572",
    "location": "Pinellas"
  },
  {
    "name": "MileMark Media",
    "description": "Marketing Programs & Services",
    "phone": "(813) 200-5844",
    "address": "5100 W Kennedy Blvd Ste 152  Tampa, FL 33609",
    "location": "Pinellas"
  },
  {
    "name": "Wolf Bot Ai",
    "description": "Marketing Programs & Services",
    "phone": "(855) 965-3268",
    "address": "Kings Crossing  Sun City Center, FL 33573",
    "location": "Pinellas"
  },
  {
    "name": "ConsultEugene, Inc",
    "description": "Employment Training",
    "phone": "(727) 873-3914",
    "address": "5801 16th St S  Saint Petersburg, FL 33705",
    "location": "Pinellas"
  },
  {
    "name": "Monumental SEO",
    "description": "Internet Marketing & Advertising",
    "phone": "(727) 857-7383",
    "address": "2822 54th Ave S Suite 119  Saint Petersburg, FL 33712",
    "location": "Pinellas"
  },
  {
    "name": "AIM Above",
    "description": "Business Coaches & Consultants",
    "phone": "(727) 258-8844",
    "address": "7310 Sunshine Skyway Ln S Apt 220  Saint Petersburg, FL 33711",
    "location": "Pinellas"
  },
  {
    "name": "Rainbow411",
    "description": "Internet Marketing & Advertising",
    "phone": "(813) 644-2836",
    "address": "4601 34th St S  Saint Petersburg, FL 33711",
    "location": "Pinellas"
  },
  {
    "name": "SJ Creative Designs",
    "description": "Internet Marketing & Advertising",
    "phone": "(813) 377-7784",
    "address": "3801 6th st s Suite B  Saint Petersburg, FL 33705",
    "location": "Pinellas"
  },
  {
    "name": "Omega Marketing Solutions",
    "description": "Marketing Consultants",
    "phone": "(727) 230-1810",
    "address": "28870 US Highway 19 N  Clearwater, FL 33761",
    "location": "Pinellas"
  },
  {
    "name": "Spatial Networks",
    "description": "Business Coaches & Consultants",
    "phone": "(727) 538-0545",
    "address": "18167 US Highway 19 N  Clearwater, FL 33764",
    "location": "Pinellas"
  },
  {
    "name": "Best Edge SEO",
    "description": "Internet Marketing & Advertising",
    "phone": "(727) 290-9527",
    "address": "6171 Bahia Del Mar Blvd Apt 215  Saint Petersburg, FL 33715",
    "location": "Pinellas"
  },
  {
    "name": "T N T Design and Marketing",
    "description": "Marketing Consultants",
    "phone": "(727) 363-8081",
    "address": "105 21st Ave SE  Saint Petersburg, FL 33705",
    "location": "Pinellas"
  },
  {
    "name": "Macintire Marketing Enterprises",
    "description": "Marketing Consultants",
    "phone": "(727) 564-9009",
    "address": "864 11th Ave S  Saint Petersburg, FL 33701",
    "location": "Pinellas"
  },
  {
    "name": "Mr Technique",
    "description": "Web Site Design & Services",
    "phone": "(727) 209-7995",
    "address": "136 4th St N Ste 204  Saint Petersburg, FL 33701",
    "location": "Pinellas"
  },
  {
    "name": "Pinstripe Marketing",
    "description": "Marketing Consultants",
    "phone": "(727) 214-1555",
    "address": "263 13th Ave S  Saint Petersburg, FL 33701",
    "location": "Pinellas"
  },
  {
    "name": "Big Sea Inc",
    "description": "Advertising Agencies",
    "phone": "(727) 386-8031",
    "address": "2622 Fairfield Ave S  Saint Petersburg, FL 33712",
    "location": "Pinellas"
  },
  {
    "name": "dbaPlatform",
    "description": "Computer Software & Services",
    "phone": "(727) 240-2720",
    "address": "113 5th St E  Saint Petersburg, FL 33715",
    "location": "Pinellas"
  },
  {
    "name": "Bovsi Studios",
    "description": "Marketing Consultants",
    "phone": "(813) 704-7953",
    "address": "2732 6th Ave S  Saint Petersburg, FL 33712",
    "location": "Pinellas"
  },
  {
    "name": "The POG Group LLC",
    "description": "Marketing Consultants",
    "phone": "(866) 875-8956",
    "address": "709 4th St N Ste 4532  Saint Petersburg, FL 33702",
    "location": "Pinellas"
  },
  {
    "name": "Black Connect Network",
    "description": "Marketing Consultants",
    "phone": "(813) 532-9870",
    "address": "2727 5th Ave S  Saint Petersburg, FL 33712",
    "location": "Pinellas"
  },
  {
    "name": "Major League Alumni Marketing",
    "description": "Marketing Consultants",
    "phone": "(727) 898-8900",
    "address": "1 Tropicana Dr  Saint Petersburg, FL 33705",
    "location": "Pinellas"
  },
  {
    "name": "Big Sea, Inc.",
    "description": "Internet Marketing & Advertising",
    "phone": "(727) 386-8031",
    "address": "646 2nd Ave S  Saint Petersburg, FL 33701",
    "location": "Pinellas"
  },
  {
    "name": "Mosaic Development",
    "description": "Advertising Agencies",
    "phone": "(239) 603-8596",
    "address": "1763 1st Ave N  Saint Petersburg, FL 33713",
    "location": "Pinellas"
  },
  {
    "name": "Makta LLC",
    "description": "Market Research & Analysis",
    "phone": "(727) 643-4416",
    "address": "2435 1st Ave N  Saint Petersburg, FL 33713",
    "location": "Pinellas"
  },
  {
    "name": "Foundation Research",
    "description": "Market Research & Analysis",
    "phone": "(727) 898-6237",
    "address": "900 Central Ave  Saint Petersburg, FL 33705",
    "location": "Pinellas"
  },
  {
    "name": "Lta International",
    "description": "Marketing Consultants",
    "phone": "(727) 896-7555",
    "address": "1120 1st Ave N  Saint Petersburg, FL 33705",
    "location": "Pinellas"
  },
  {
    "name": "Norcon Marketing Inc",
    "description": "Marketing Consultants",
    "phone": "(727) 822-5000",
    "address": "2901 1st Ave N Ste 102  Saint Petersburg, FL 33713",
    "location": "Pinellas"
  },
  {
    "name": "Roma Direct Marketing",
    "description": "Advertising Agencies",
    "phone": "(727) 498-8999",
    "address": "33 6th St S  Saint Petersburg, FL 33701",
    "location": "Pinellas"
  },
  {
    "name": "Clear PH Design",
    "description": "Internet Marketing & Advertising",
    "phone": "(727) 851-9596",
    "address": "689 Central Ave Ste 105  Saint Petersburg, FL 33701",
    "location": "Pinellas"
  },
  {
    "name": "The Louvre Group, LLC",
    "description": "Civil Engineers",
    "phone": "(727) 495-6035",
    "address": "200 2nd Ave. South Suite 326  Saint Petersburg, FL 33701",
    "location": "Pinellas"
  },
  {
    "name": "Cliktree",
    "description": "Advertising Agencies",
    "phone": "(727) 220-5923",
    "address": "200 2nd Ave S  Saint Petersburg, FL 33701",
    "location": "Pinellas"
  },
  {
    "name": "Computermail South",
    "description": "Mailing Lists",
    "phone": "(727) 579-1000",
    "address": "200 2nd Ave S  Saint Petersburg, FL 33701",
    "location": "Pinellas"
  },
  {
    "name": "Hunger & Thirst",
    "description": "Marketing Consultants",
    "phone": "(727) 698-5568",
    "address": "330 1st Ave S  Saint Petersburg, FL 33701",
    "location": "Pinellas"
  },
  {
    "name": "Lta International Global Services, Inc.",
    "description": "Marketing Consultants",
    "phone": "(727) 896-7555",
    "address": "100 3rd St S  Saint Petersburg, FL 33701",
    "location": "Pinellas"
  },
  {
    "name": "Carter Group",
    "description": "Marketing Consultants",
    "phone": "(727) 898-3008",
    "address": "270 1st Ave S Ste 200  Saint Petersburg, FL 33701",
    "location": "Pinellas"
  },
  {
    "name": "WebFX",
    "description": "Web Site Design & Services",
    "phone": "(727) 202-5387",
    "address": "260 1st Ave S Ste 114  Saint Petersburg, FL 33701",
    "location": "Pinellas"
  },
  {
    "name": "Perk International",
    "description": "Marketing Consultants",
    "phone": "(727) 502-0646",
    "address": "475 Central Ave  Saint Petersburg, FL 33701",
    "location": "Pinellas"
  },
  {
    "name": "Aces Marketing Group",
    "description": "Marketing Consultants",
    "phone": "(727) 822-4202",
    "address": "475 Central Ave Ste M2  Saint Petersburg, FL 33701",
    "location": "Pinellas"
  },
  {
    "name": "PowerChord, Inc.",
    "description": "Computer Software Publishers & Developers",
    "phone": "(727) 823-1530",
    "address": "360 Central Ave Fifth Floor  Saint Petersburg, FL 33701",
    "location": "Pinellas"
  },
  {
    "name": "Outsource Media Group Inc",
    "description": "Marketing Consultants",
    "phone": "(727) 894-3644",
    "address": "1 Progress Plz  Saint Petersburg, FL 33701",
    "location": "Pinellas"
  },
  {
    "name": "Advanced Digital Automotive Group",
    "description": "Web Site Design & Services",
    "phone": "(727) 201-5296",
    "address": "360 Central Ave Ste 800  Saint Petersburg, FL 33701",
    "location": "Pinellas"
  },
  {
    "name": "Advanced Digital Media Services",
    "description": "Web Site Design & Services",
    "phone": "(727) 201-5296",
    "address": "360 Central Ave  Saint Petersburg, FL 33701",
    "location": "Pinellas"
  },
  {
    "name": "Hype Group",
    "description": "Advertising Agencies",
    "phone": "(727) 623-9085",
    "address": "360 Central Ave  Saint Petersburg, FL 33701",
    "location": "Pinellas"
  },
  {
    "name": "Effectiveagents.com",
    "description": "Internet Marketing & Advertising",
    "phone": "(855) 472-9275",
    "address": "360 Central Ave  Saint Petersburg, FL 33701",
    "location": "Pinellas"
  },
  {
    "name": "Life Improvement Media Group",
    "description": "Internet Marketing & Advertising",
    "phone": "(866) 930-9337",
    "address": "735 Arlington Ave N Ste 31  Saint Petersburg, FL 33701",
    "location": "Pinellas"
  },
  {
    "name": "Cyberlicious",
    "description": "Internet Marketing & Advertising",
    "phone": "(727) 820-1988",
    "address": "735 Arlington Ave N  Saint Petersburg, FL 33701",
    "location": "Pinellas"
  },
  {
    "name": "The Ai Consulting Lab",
    "description": "Business Coaches & Consultants",
    "phone": "(727) 472-3854",
    "address": "3026 Burlington Ave N  Saint Petersburg, FL 33713",
    "location": "Pinellas"
  },
  {
    "name": "bucamedia",
    "description": "Audio-Visual Creative Services",
    "phone": "(772) 828-2822",
    "address": "PO Box 886  Saint Petersburg, FL 33731",
    "location": "Pinellas"
  },
  {
    "name": "Fortress Media",
    "description": "Internet Marketing & Advertising",
    "phone": "(941) 723-7800",
    "address": "76 4th St N  Saint Petersburg, FL 33701",
    "location": "Pinellas"
  },
  {
    "name": "Think Tank, Inc.",
    "description": "Internet Marketing & Advertising",
    "phone": "(727) 537-9279",
    "address": "200 Central Ave Ste 135  Saint Petersburg, FL 33701",
    "location": "Pinellas"
  },
  {
    "name": "Pyper Young, Inc",
    "description": "Advertising Agencies",
    "phone": "(727) 873-1210",
    "address": "235 Central Ave  Saint Petersburg, FL 33701",
    "location": "Pinellas"
  },
  {
    "name": "A Creative Bureau",
    "description": "Internet Marketing & Advertising",
    "phone": "(813) 465-2819",
    "address": "51 2nd St N  Saint Petersburg, FL 33701",
    "location": "Pinellas"
  },
  {
    "name": "Bogdanov",
    "description": "Marketing Consultants",
    "phone": "(727) 317-7989",
    "address": "140 1st Ave N  Saint Petersburg, FL 33701",
    "location": "Pinellas"
  },
  {
    "name": "Oyova",
    "description": "Internet Marketing & Advertising",
    "phone": "(727) 289-6549",
    "address": "290 Dr Martin Luther King Jr St N #201  Saint Petersburg, FL 33705",
    "location": "Pinellas"
  },
  {
    "name": "Helinger Advertising",
    "description": "Advertising-Promotional Products",
    "phone": "(727) 327-3333",
    "address": "4201 Central Ave  Saint Petersburg, FL 33713",
    "location": "Pinellas"
  },
  {
    "name": "Zeraq",
    "description": "Advertising-Promotional Products",
    "phone": "(727) 323-9819",
    "address": "4265 Central Ave  Saint Petersburg, FL 33713",
    "location": "Pinellas"
  },
  {
    "name": "JCTWEB",
    "description": "Internet Marketing & Advertising",
    "phone": "(727) 328-7575",
    "address": "146 2nd St N Ste 204  Saint Petersburg, FL 33701",
    "location": "Pinellas"
  },
  {
    "name": "RuleLocal",
    "description": "Internet Marketing & Advertising",
    "phone": "(727) 258-0132",
    "address": "146 2nd St N Ste 301  Saint Petersburg, FL 33701",
    "location": "Pinellas"
  },
  {
    "name": "Aspen Marketing",
    "description": "Marketing Consultants",
    "phone": "(727) 821-4200",
    "address": "150 2nd Ave N Ste 810  Saint Petersburg, FL 33701",
    "location": "Pinellas"
  },
  {
    "name": "Wildlife Trust",
    "description": "Market Research & Analysis",
    "phone": "(727) 895-7140",
    "address": "233 3rd St N  Saint Petersburg, FL 33701",
    "location": "Pinellas"
  },
  {
    "name": "Gpstpete.com",
    "description": "Internet Marketing & Advertising",
    "phone": "(727) 898-4639",
    "address": "100 2nd Ave N  Saint Petersburg, FL 33701",
    "location": "Pinellas"
  },
  {
    "name": "Healthfocus International",
    "description": "Marketing Consultants",
    "phone": "(727) 821-7499",
    "address": "100 2nd Ave N  Saint Petersburg, FL 33701",
    "location": "Pinellas"
  },
  {
    "name": "Kapok Marketing",
    "description": "Internet Consultants",
    "phone": "(800) 640-8082",
    "address": "447 3rd Ave N Ste 300  Saint Petersburg, FL 33701",
    "location": "Pinellas"
  },
  {
    "name": "319 N Holding",
    "description": "Marketing Consultants",
    "phone": "(727) 823-7392",
    "address": "319 5th St N  Saint Petersburg, FL 33701",
    "location": "Pinellas"
  },
  {
    "name": "Clickfirst Marketing",
    "description": "Marketing Consultants",
    "phone": "(844) 879-3456",
    "address": "319 5th St N  Saint Petersburg, FL 33701",
    "location": "Pinellas"
  },
  {
    "name": "Symphoni Group",
    "description": "Marketing Consultants",
    "phone": "(727) 343-3970",
    "address": "111 2nd Ave NE Ste 900  Saint Petersburg, FL 33701",
    "location": "Pinellas"
  },
  {
    "name": "Magentpro, Inc.",
    "description": "Marketing Consultants",
    "phone": "(727) 344-9540",
    "address": "111 2nd Ave NE Ste 304  Saint Petersburg, FL 33701",
    "location": "Pinellas"
  },
  {
    "name": "The Hoth",
    "description": "Internet Marketing & Advertising",
    "phone": "(877) 720-4684",
    "address": "111 2nd Ave NE  Saint Petersburg, FL 33701",
    "location": "Pinellas"
  },
  {
    "name": "Global Ninja Alliance",
    "description": "Internet Marketing & Advertising",
    "phone": "(352) 507-5770",
    "address": "344 1/2 7th St N Apt 5  Saint Petersburg, FL 33701",
    "location": "Pinellas"
  },
  {
    "name": "Chico Screen",
    "description": "Computer Network Design & Systems",
    "phone": "(727) 851-6932",
    "address": "3125 5th Ave N  Saint Petersburg, FL 33713",
    "location": "Pinellas"
  },
  {
    "name": "Your Ad Television Inc",
    "description": "Internet Marketing & Advertising",
    "phone": "(727) 323-1390",
    "address": "3125 5th Ave N  Saint Petersburg, FL 33713",
    "location": "Pinellas"
  },
  {
    "name": "Throttle Web Design",
    "description": "Internet Marketing & Advertising",
    "phone": "(727) 432-0976",
    "address": "1726 York St S  Gulfport, FL 33707",
    "location": "Pinellas"
  },
  {
    "name": "Majestic Marketing",
    "description": "Marketing Consultants",
    "phone": "(727) 384-0500",
    "address": "5714 Gulfport Blvd S  Gulfport, FL 33707",
    "location": "Pinellas"
  },
  {
    "name": "Titan Publishing",
    "description": "Product Design, Development & Marketing",
    "phone": "(727) 777-6748",
    "address": "828 3rd Ave S  Tierra Verde, FL 33715",
    "location": "Pinellas"
  },
  {
    "name": "Dolan Media and Design",
    "description": "Marketing Consultants",
    "phone": "(813) 563-2261",
    "address": "5927 Bayview Cir S  Gulfport, FL 33707",
    "location": "Pinellas"
  },
  {
    "name": "Top Hat",
    "description": "Marketing Consultants",
    "phone": "(412) 695-3153",
    "address": "689 Central Ave Ste 200-A  St Petersburg, FL 33701",
    "location": "Pinellas"
  },
  {
    "name": "Craft Brands",
    "description": "Advertising Agencies",
    "phone": "(239) 691-0561",
    "address": "P.O. Box 12825  St. Petersburg, FL 33733",
    "location": "Pinellas"
  },
  {
    "name": "Cypress Enterprises",
    "description": "Marketing Consultants",
    "phone": "(727) 367-9999",
    "address": "2 Alhambra St  St Pete Beach, FL 33706",
    "location": "Pinellas"
  },
  {
    "name": "Lux Digital Marketing",
    "description": "Marketing Consultants",
    "phone": "(727) 855-8221",
    "address": "260 1st Ave S  St Petersburg, FL 33701",
    "location": "Pinellas"
  },
  {
    "name": "Empathy First Media",
    "description": "Advertising Agencies",
    "phone": "(727) 291-7384",
    "address": "260 1st Ave S Ste 166  St Petersburg, FL 33701",
    "location": "Pinellas"
  },
  {
    "name": "Beach Lion Studios",
    "description": "Advertising Agencies",
    "phone": "(727) 207-1108",
    "address": "433 Central Ave Suite 212  St Petersburg, FL 33701",
    "location": "Pinellas"
  },
  {
    "name": "MOZA Digital LLC",
    "description": "Internet Marketing & Advertising",
    "phone": "(727) 470-3355",
    "address": "2472 61st Lane N  Saint Petersburg, FL 33710",
    "location": "Pinellas"
  },
  {
    "name": "SMARTApproved Local Marketing",
    "description": "Marketing Consultants",
    "phone": "(877) 755-1150",
    "address": "4399 35th St N Ste 202  Saint Petersburg, FL 33714",
    "location": "Pinellas"
  },
  {
    "name": "The Ims Group",
    "description": "Marketing Consultants",
    "phone": "(727) 550-0830",
    "address": "323 2nd St N  Saint Petersburg, FL 33701",
    "location": "Pinellas"
  },
  {
    "name": "Wreck Ignition Marketing",
    "description": "Marketing Consultants",
    "phone": "(727) 677-9483",
    "address": "2845 7th Ave N  Saint Petersburg, FL 33713",
    "location": "Pinellas"
  },
  {
    "name": "Social Networkz - Social Media Marketing",
    "description": "Internet Consultants",
    "phone": "(813) 364-2214",
    "address": "524 Bay St NE Apt 3  Saint Petersburg, FL 33701",
    "location": "Pinellas"
  },
  {
    "name": "Tampa Marketing Services",
    "description": "Internet Consultants",
    "phone": "(727) 394-4057",
    "address": "524 Bay St NE  Saint Petersburg, FL 33701",
    "location": "Pinellas"
  },
  {
    "name": "Palladium Media Group",
    "description": "Internet Marketing & Advertising",
    "phone": "(727) 897-9600",
    "address": "945 11th St N  Saint Petersburg, FL 33705",
    "location": "Pinellas"
  },
  {
    "name": "Southland Marketing",
    "description": "Marketing Consultants",
    "phone": "(727) 345-1030",
    "address": "5665 Central Ave  Saint Petersburg, FL 33710",
    "location": "Pinellas"
  },
  {
    "name": "Ronguerin.com",
    "description": "Internet Marketing & Advertising",
    "phone": "(727) 510-3701",
    "address": "250 58th St N  Saint Petersburg, FL 33710",
    "location": "Pinellas"
  },
  {
    "name": "Nature Bay Web Design",
    "description": "Web Site Design & Services",
    "phone": "(727) 238-2216",
    "address": "6243 3rd Ave S  Saint Petersburg, FL 33707",
    "location": "Pinellas"
  },
  {
    "name": "Makiby Promotions of Florida",
    "description": "Advertising-Promotional Products",
    "phone": "(727) 398-1414",
    "address": "6100 Central Ave  Saint Petersburg, FL 33707",
    "location": "Pinellas"
  },
  {
    "name": "World Media Technologies Inc",
    "description": "Computer Software & Services",
    "phone": "(727) 252-3373",
    "address": "2862 21st Ave N  Saint Petersburg, FL 33713",
    "location": "Pinellas"
  },
  {
    "name": "Drilling Down Project",
    "description": "Marketing Consultants",
    "phone": "(727) 895-5454",
    "address": "1224 24th Ave N  Saint Petersburg, FL 33704",
    "location": "Pinellas"
  },
  {
    "name": "Tilly Berry 200",
    "description": "Marketing Consultants",
    "phone": "(727) 322-8945",
    "address": "2585 27th Ave N  Saint Petersburg, FL 33713",
    "location": "Pinellas"
  },
  {
    "name": "Life Improvement Media",
    "description": "Internet Marketing & Advertising",
    "phone": "(866) 930-9937",
    "address": "PO Box 76335  Saint Petersburg, FL 33734",
    "location": "Pinellas"
  },
  {
    "name": "Liveconferences.com",
    "description": "Internet Marketing & Advertising",
    "phone": "(727) 341-1674",
    "address": "1184 79th St S  Saint Petersburg, FL 33707",
    "location": "Pinellas"
  },
  {
    "name": "Devery Enterprises",
    "description": "Advertising Specialties",
    "phone": "(727) 821-6316",
    "address": "661 34th Ave NE  Saint Petersburg, FL 33704",
    "location": "Pinellas"
  },
  {
    "name": "Moirai Marketing",
    "description": "Internet Marketing & Advertising",
    "phone": "(888) 242-6585",
    "address": "204 37th AVE N  Saint Petersburg, FL 33704",
    "location": "Pinellas"
  },
  {
    "name": "Marketing Matters",
    "description": "Advertising Agencies",
    "phone": "(954) 925-1511",
    "address": "204 37th Ave N  Saint Petersburg, FL 33704",
    "location": "Pinellas"
  },
  {
    "name": "HD Hudson Design & Marketing",
    "description": "Marketing Consultants",
    "phone": "(727) 564-2645",
    "address": "6803 16th Pl N  Saint Petersburg, FL 33710",
    "location": "Pinellas"
  },
  {
    "name": "Action Gem",
    "description": "Marketing Consultants",
    "phone": "(800) 736-9942",
    "address": "5270 36th Ave N  Saint Petersburg, FL 33710",
    "location": "Pinellas"
  },
  {
    "name": "Socially United Information Technologies",
    "description": "Internet Marketing & Advertising",
    "phone": "(727) 481-7267",
    "address": "4550 21st St N  Saint Petersburg, FL 33714",
    "location": "Pinellas"
  },
  {
    "name": "Worker Insights",
    "description": "Marketing Consultants",
    "phone": "(727) 592-8234",
    "address": "6822 22nd Ave N  Saint Petersburg, FL 33710",
    "location": "Pinellas"
  },
  {
    "name": "Blue Dog Promotions",
    "description": "Advertising-Promotional Products",
    "phone": "(727) 209-3400",
    "address": "4501 4th St N  Saint Petersburg, FL 33703",
    "location": "Pinellas"
  },
  {
    "name": "Florida Getaways",
    "description": "Real Estate Rental Service",
    "phone": "(727) 403-5677",
    "address": "110 3rd Ave  St Pete Beach, FL 33706",
    "location": "Pinellas"
  },
  {
    "name": "Alligator Media",
    "description": "Internet Marketing & Advertising",
    "phone": "(727) 422-2845",
    "address": "1120 63rd St S  Gulfport, FL 33707",
    "location": "Pinellas"
  },
  {
    "name": "Beachbumexcursion.com",
    "description": "Internet Marketing & Advertising",
    "phone": "(800) 286-4887",
    "address": "5903 Bimini Way N  St Pete Beach, FL 33706",
    "location": "Pinellas"
  },
  {
    "name": "T M-Techmark.com Corp",
    "description": "Internet Marketing & Advertising",
    "phone": "(203) 272-3559",
    "address": "6800 Gulfport Blvd S  South Pasadena, FL 33707",
    "location": "Pinellas"
  },
  {
    "name": "Rapid Response Marketing & PR",
    "description": "Marketing Consultants",
    "phone": "(866) 983-3025",
    "address": "6860 Gulfport Blvd S  South Pasadena, FL 33707",
    "location": "Pinellas"
  },
  {
    "name": "Gatorballs.com",
    "description": "Internet Marketing & Advertising",
    "phone": "(727) 510-8013",
    "address": "7407 Sunset Way  St Pete Beach, FL 33706",
    "location": "Pinellas"
  },
  {
    "name": "Accurate Promotional Products",
    "description": "Advertising-Promotional Products",
    "phone": "(727) 522-0104",
    "address": "3030 Morris St N  St Petersburg, FL 33713",
    "location": "Pinellas"
  },
  {
    "name": "Digital Eel Inc",
    "description": "Web Site Design & Services",
    "phone": "(727) 368-0270",
    "address": "9524 Blind Pass Rd Ste 14  St Pete Beach, FL 33706",
    "location": "Pinellas"
  },
  {
    "name": "Mark My Words Media Inc",
    "description": "Advertising Agencies",
    "phone": "(800) 243-2077",
    "address": "10228 Paradise Blvd  Treasure Island, FL 33706",
    "location": "Pinellas"
  },
  {
    "name": "Custom Concepts",
    "description": "Advertising-Promotional Products",
    "phone": "(727) 528-8222",
    "address": "3958 14th St NE  Saint Petersburg, FL 33703",
    "location": "Pinellas"
  },
  {
    "name": "Eclipse Energy Systems",
    "description": "Market Research & Analysis",
    "phone": "(727) 344-7300",
    "address": "2345 Anvil St N  Saint Petersburg, FL 33710",
    "location": "Pinellas"
  },
  {
    "name": "Tenevlaw-Bg.com",
    "description": "Internet Marketing & Advertising",
    "phone": "(727) 697-7173",
    "address": "4605 49th St N  Saint Petersburg, FL 33709",
    "location": "Pinellas"
  },
  {
    "name": "Edifying Voyages",
    "description": "Marketing Consultants",
    "phone": "(949) 484-0606",
    "address": "4604 49th Street N #1552  Saint Petersburg, FL 33709",
    "location": "Pinellas"
  },
  {
    "name": "Manaflow Agency",
    "description": "Internet Marketing & Advertising",
    "phone": "(727) 501-5754",
    "address": "4035 Huntington St NE  Saint Petersburg, FL 33703",
    "location": "Pinellas"
  },
  {
    "name": "Capmri.com",
    "description": "Internet Marketing & Advertising",
    "phone": "(734) 377-9629",
    "address": "624 Quintana Pl NE  Saint Petersburg, FL 33703",
    "location": "Pinellas"
  },
  {
    "name": "Find New Customers",
    "description": "Marketing Consultants",
    "phone": "(516) 456-8218",
    "address": "8035 26th Ave N  Saint Petersburg, FL 33710",
    "location": "Pinellas"
  },
  {
    "name": "Medartist.com",
    "description": "Internet Marketing & Advertising",
    "phone": "(727) 521-1143",
    "address": "175 59th Ave NE  Saint Petersburg, FL 33703",
    "location": "Pinellas"
  },
  {
    "name": "Isleepbetter.com",
    "description": "Internet Marketing & Advertising",
    "phone": "(727) 892-2928",
    "address": "5800 49th St N  Saint Petersburg, FL 33709",
    "location": "Pinellas"
  },
  {
    "name": "American Vacant Lot Services",
    "description": "Marketing Consultants",
    "phone": "(727) 623-4820",
    "address": "5560 56th Way N  Saint Petersburg, FL 33709",
    "location": "Pinellas"
  },
  {
    "name": "Ryse Seo",
    "description": "Internet Marketing & Advertising",
    "phone": "(727) 344-9311",
    "address": "321 NE Blvd N  Saint Petersburg, FL 33702",
    "location": "Pinellas"
  },
  {
    "name": "Simple Site Designs",
    "description": "Internet Marketing & Advertising",
    "phone": "(727) 871-0754",
    "address": "6443 Pine St NE  Saint Petersburg, FL 33702",
    "location": "Pinellas"
  },
  {
    "name": "Squires Global",
    "description": "Internet Marketing & Advertising",
    "phone": "(727) 541-5764",
    "address": "5009 68th St N  Saint Petersburg, FL 33709",
    "location": "Pinellas"
  },
  {
    "name": "VIZR Corp.",
    "description": "Marketing Consultants",
    "phone": "(727) 306-1896",
    "address": "7901 4th St N Ste 15783  Saint Petersburg, FL 33702",
    "location": "Pinellas"
  },
  {
    "name": "Truevail",
    "description": "Marketing Consultants",
    "phone": "(505) 445-8147",
    "address": "7901 4th St N  Saint Petersburg, FL 33702",
    "location": "Pinellas"
  },
  {
    "name": "Prolific Marketing Enterprises",
    "description": "Marketing Consultants",
    "phone": "(800) 998-9041",
    "address": "7901 4th St N ste 300  Saint Petersburg, FL 33702",
    "location": "Pinellas"
  },
  {
    "name": "Booker Marketing Group",
    "description": "Marketing Consultants",
    "phone": "(800) 962-8207",
    "address": "7901 4th St N #21988  Saint Petersburg, FL 33702",
    "location": "Pinellas"
  },
  {
    "name": "Bonjo Tech - Digital Marketing Agency",
    "description": "Internet Marketing & Advertising",
    "phone": "(321) 396-7795",
    "address": "7910 4th St N  Saint Petersburg, FL 33702",
    "location": "Pinellas"
  },
  {
    "name": "Roonex Media",
    "description": "Internet Marketing & Advertising",
    "phone": "(727) 491-8943",
    "address": "7901 4th St N Ste No 19608  Saint Petersburg, FL 33702",
    "location": "Pinellas"
  },
  {
    "name": "Easywayit",
    "description": "Internet Marketing & Advertising",
    "phone": "(727) 563-9200",
    "address": "8401 Dr Martin Luther King Jr St N  Saint Petersburg, FL 33702",
    "location": "Pinellas"
  },
  {
    "name": "Thru Sign",
    "description": "Internet Marketing & Advertising",
    "phone": "(727) 547-4020",
    "address": "5670 54th Ave N  Kenneth City, FL 33709",
    "location": "Pinellas"
  },
  {
    "name": "Meridien Research",
    "description": "Market Research & Analysis",
    "phone": "(727) 347-8839",
    "address": "4751 66th St N  Kenneth City, FL 33709",
    "location": "Pinellas"
  },
  {
    "name": "Competitive Web",
    "description": "Graphic Designers",
    "phone": "(727) 687-0405",
    "address": "4491 62nd Ave N  Pinellas Park, FL 33781",
    "location": "Pinellas"
  },
  {
    "name": "Quik Companies Inc",
    "description": "Marketing Consultants",
    "phone": "(727) 527-5000",
    "address": "6255 42nd St N  Pinellas Park, FL 33781",
    "location": "Pinellas"
  },
  {
    "name": "Reliablewebsitehost.com",
    "description": "Internet Marketing & Advertising",
    "phone": "(727) 328-4794",
    "address": "4850 68th Ave N  Pinellas Park, FL 33781",
    "location": "Pinellas"
  },
  {
    "name": "Florida City Net Inc",
    "description": "Internet Marketing & Advertising",
    "phone": "(727) 527-8161",
    "address": "4850 72nd Ave N  Pinellas Park, FL 33781",
    "location": "Pinellas"
  },
  {
    "name": "TheWrapElement.com The Wrap Element",
    "description": "Advertising Agencies",
    "phone": "(727) 244-3118",
    "address": "3575 Gandy Blvd N  Pinellas Park, FL 33781",
    "location": "Pinellas"
  },
  {
    "name": "Advent Medical Research Inc",
    "description": "Market Research & Analysis",
    "phone": "(727) 521-9200",
    "address": "4820 Park Blvd N  Pinellas Park, FL 33781",
    "location": "Pinellas"
  },
  {
    "name": "Titan SEO Group",
    "description": "Internet Marketing & Advertising",
    "phone": "(813) 964-7459",
    "address": "7901 4th St N  St. Petersburg, FL 33702",
    "location": "Pinellas"
  },
  {
    "name": "Puzzles Consulting",
    "description": "Business Coaches & Consultants",
    "phone": "(561) 782-3440",
    "address": "7901 4th St N Ste 300  St Petersburg, FL 33702",
    "location": "Pinellas"
  },
  {
    "name": "Apexx.ai",
    "description": "Computer Software Publishers & Developers",
    "phone": "(727) 902-2265",
    "address": "7901 4th St N Ste 300  St Petersburg, FL 33702",
    "location": "Pinellas"
  },
  {
    "name": "The Buzz CRM",
    "description": "Internet Marketing & Advertising",
    "phone": "(888) 901-7530",
    "address": "7901 4th St N Ste 300  St Petersburg, FL 33702",
    "location": "Pinellas"
  },
  {
    "name": "Empire Pictures Marketing",
    "description": "Internet Marketing & Advertising",
    "phone": "(229) 992-1005",
    "address": "7901 4th St N Ste 11404  St Petersburg, FL 33702",
    "location": "Pinellas"
  },
  {
    "name": "Luminary Leap Marketing",
    "description": "Internet Marketing & Advertising",
    "phone": "(407) 279-3985",
    "address": "7901 4th St. N Ste 4000  Pinellas, FL 33702",
    "location": "Pinellas"
  },
  {
    "name": "Radiant Research",
    "description": "Market Research & Analysis",
    "phone": "(727) 544-6367",
    "address": "6010 Park Blvd N  Pinellas Park, FL 33781",
    "location": "Pinellas"
  },
  {
    "name": "Studiohof",
    "description": "Internet Marketing & Advertising",
    "phone": "(727) 303-7363",
    "address": "8501 Riverside Dr NE  Saint Petersburg, FL 33702",
    "location": "Pinellas"
  },
  {
    "name": "4th Street Web",
    "description": "Internet Marketing & Advertising",
    "phone": "(727) 537-9731",
    "address": "8501 Riverside Dr NE  Saint Petersburg, FL 33702",
    "location": "Pinellas"
  },
  {
    "name": "Suncoast Marketing Dba",
    "description": "Direct Mail Advertising",
    "phone": "(727) 576-6000",
    "address": "8601 4th St N  Saint Petersburg, FL 33702",
    "location": "Pinellas"
  },
  {
    "name": "Careerfranchises.com",
    "description": "Internet Marketing & Advertising",
    "phone": "(727) 515-5955",
    "address": "661 Riviera Bay Dr NE  Saint Petersburg, FL 33702",
    "location": "Pinellas"
  },
  {
    "name": "Andzo CNSLTNG",
    "description": "Business Coaches & Consultants",
    "phone": "(772) 202-6914",
    "address": "7901 Fort St N  Saint Petersburg, FL 33702",
    "location": "Pinellas"
  },
  {
    "name": "Itttnmpsc",
    "description": "Marketing Consultants",
    "phone": "(727) 289-7212",
    "address": "9100 Dr Martin Luther King Jr St N Apt 1008  Saint Petersburg, FL 33702",
    "location": "Pinellas"
  },
  {
    "name": "Marcaden Consulting, Inc.",
    "description": "Business Coaches & Consultants",
    "phone": "(727) 578-8496",
    "address": "9600 Koger Blvd N Ste 225  Saint Petersburg, FL 33702",
    "location": "Pinellas"
  },
  {
    "name": "Badger Marketing",
    "description": "Marketing Consultants",
    "phone": "(813) 644-9588",
    "address": "1201 Gandy Blvd N Unit 21445  Saint Petersburg, FL 33742",
    "location": "Pinellas"
  },
  {
    "name": "Godfrey Design & Advertising",
    "description": "Advertising Specialties",
    "phone": "(727) 579-1899",
    "address": "275 96th Ave N Ste 7  Saint Petersburg, FL 33702",
    "location": "Pinellas"
  },
  {
    "name": "Expert Marketing",
    "description": "Marketing Consultants",
    "phone": "(727) 239-4343",
    "address": "9721 Executive Center Dr N #140  Saint Petersburg, FL 33702",
    "location": "Pinellas"
  },
  {
    "name": "KDM Design & Marketing",
    "description": "Internet Marketing & Advertising",
    "phone": "(727) 344-2026",
    "address": "9855 59th AVE N  Saint Petersburg, FL 33708",
    "location": "Pinellas"
  },
  {
    "name": "SuperMedia LLC",
    "description": "Internet Directories",
    "phone": "(727) 576-1300",
    "address": "10200 Dr Martin Luther King Jr St N  Saint Petersburg, FL 33716",
    "location": "Pinellas"
  },
  {
    "name": "3Geeks Interactive, LLC SEO Services",
    "description": "Internet Marketing & Advertising",
    "phone": "(727) 537-6336",
    "address": "9952 Gandy Blvd N Ste C  Saint Petersburg, FL 33702",
    "location": "Pinellas"
  },
  {
    "name": "Thunder Road Digital",
    "description": "Marketing Consultants",
    "phone": "(813) 618-8458",
    "address": "720 N Village Dr N Apt 204  Saint Petersburg, FL 33716",
    "location": "Pinellas"
  },
  {
    "name": "Gsa Access Group",
    "description": "Marketing Consultants",
    "phone": "(727) 577-9419",
    "address": "10701 Danka Way N Ste 200  Saint Petersburg, FL 33716",
    "location": "Pinellas"
  },
  {
    "name": "Good Health Marketing Services",
    "description": "Internet Marketing & Advertising",
    "phone": "(727) 235-6756",
    "address": "11401 Dr M.L.K. Jr St N  Saint Petersburg, FL 33716",
    "location": "Pinellas"
  },
  {
    "name": "The Customer Dr",
    "description": "Market Research & Analysis",
    "phone": "(727) 577-2883",
    "address": "879 Addison Dr NE  Saint Petersburg, FL 33716",
    "location": "Pinellas"
  },
  {
    "name": "Galaxy Marketing Solutions",
    "description": "Marketing Consultants",
    "phone": "(727) 540-0100",
    "address": "11800 30th Ct N  Saint Petersburg, FL 33716",
    "location": "Pinellas"
  },
  {
    "name": "Hit Promotional Products",
    "description": "Advertising-Promotional Products",
    "phone": "(727) 571-1681",
    "address": "3320 122nd Ave N  Saint Petersburg, FL 33716",
    "location": "Pinellas"
  },
  {
    "name": "Image Station",
    "description": "Marketing Consultants",
    "phone": "(727) 821-2424",
    "address": "8150 52nd St N  Pinellas Park, FL 33781",
    "location": "Pinellas"
  },
  {
    "name": "National Marketing Associates Inc",
    "description": "Advertising Agencies",
    "phone": "(727) 320-2444",
    "address": "14503 Gulf Blvd  Madeira Beach, FL 33708",
    "location": "Pinellas"
  },
  {
    "name": "C3NERGY DIRECT, LLC",
    "description": "Telemarketing Services",
    "phone": "(727) 307-5996",
    "address": "6623 84th ave n  Pinellas Park, FL 33781",
    "location": "Pinellas"
  },
  {
    "name": "Corporation Liberty Marketing",
    "description": "Marketing Consultants",
    "phone": "(727) 231-6744",
    "address": "8501 66th St N  Pinellas Park, FL 33781",
    "location": "Pinellas"
  },
  {
    "name": "EMP",
    "description": "Internet Marketing & Advertising",
    "phone": "(727) 492-1240",
    "address": "PO Box 2193  Pinellas Park, FL 33780",
    "location": "Pinellas"
  },
  {
    "name": "Excellent-Supply.com",
    "description": "Internet Marketing & Advertising",
    "phone": "(727) 821-2020",
    "address": "8925 66th Ct N  Pinellas Park, FL 33782",
    "location": "Pinellas"
  },
  {
    "name": "In Touch Marketing",
    "description": "Marketing Consultants",
    "phone": "(727) 393-3399",
    "address": "8950 Park Blvd  Seminole, FL 33777",
    "location": "Pinellas"
  },
  {
    "name": "Enspire Marketing",
    "description": "Marketing Consultants",
    "phone": "(727) 916-7102",
    "address": "10300 49th St N Suite 410  Clearwater, FL 33762",
    "location": "Pinellas"
  },
  {
    "name": "American Travel Partners",
    "description": "Marketing Consultants",
    "phone": "(727) 393-6000",
    "address": "9189 Park Blvd  Seminole, FL 33777",
    "location": "Pinellas"
  },
  {
    "name": "Jacarspa",
    "description": "Internet Marketing & Advertising",
    "phone": "(727) 422-0920",
    "address": "15507 Redington Dr  Redington Beach, FL 33708",
    "location": "Pinellas"
  },
  {
    "name": "Core Vision Group",
    "description": "Marketing Consultants",
    "phone": "(877) 472-1629",
    "address": "10341 66th St N Ste 382  Pinellas Park, FL 33782",
    "location": "Pinellas"
  },
  {
    "name": "Dre Ennis",
    "description": "Marketing Consultants",
    "phone": "(727) 482-9268",
    "address": "501 116th Avenue North, Apt 201  St. Petersburg, FL 33716",
    "location": "Pinellas"
  },
  {
    "name": "Best of Tampa Bay",
    "description": "Marketing Consultants",
    "phone": "(727) 822-9000",
    "address": "10550 72nd St  Largo, FL 33777",
    "location": "Pinellas"
  },
  {
    "name": "New Wave Marketing Inc",
    "description": "Marketing Consultants",
    "phone": "(727) 319-3358",
    "address": "10795 Park Blvd  Seminole, FL 33772",
    "location": "Pinellas"
  },
  {
    "name": "The Home Marketing Team",
    "description": "Marketing Consultants",
    "phone": "(727) 399-8500",
    "address": "10992 Park Blvd  Seminole, FL 33772",
    "location": "Pinellas"
  },
  {
    "name": "R.P. Digital Consulting",
    "description": "Marketing Consultants",
    "phone": "(727) 626-5230",
    "address": "8800 Bardmoor Blvd  Seminole, FL 33777",
    "location": "Pinellas"
  },
  {
    "name": "Tampa Bay Analytical Research",
    "description": "Market Research & Analysis",
    "phone": "(727) 540-0900",
    "address": "10810 72nd St  Seminole, FL 33777",
    "location": "Pinellas"
  },
  {
    "name": "Sales & Marketing Specialist",
    "description": "Marketing Consultants",
    "phone": "(727) 548-4250",
    "address": "10810 72nd St  Seminole, FL 33777",
    "location": "Pinellas"
  },
  {
    "name": "Knowinnovation, Inc",
    "description": "Marketing Consultants",
    "phone": "(813) 814-1902",
    "address": "7903 Seminole Blvd  Seminole, FL 33772",
    "location": "Pinellas"
  },
  {
    "name": "Consumer Sales Solutions",
    "description": "Marketing Consultants",
    "phone": "(727) 733-8700",
    "address": "10601 Belcher Rd S  Seminole, FL 33777",
    "location": "Pinellas"
  },
  {
    "name": "GP&M Advisory Services, Inc.",
    "description": "Business Coaches & Consultants",
    "phone": "(727) 545-5093",
    "address": "11350 66th St  Largo, FL 33773",
    "location": "Pinellas"
  },
  {
    "name": "Phos Design Studio",
    "description": "Architectural Designers",
    "phone": "(727) 485-8301",
    "address": "11380 66th St Ste 137  Largo, FL 33773",
    "location": "Pinellas"
  },
  {
    "name": "Xanjero",
    "description": "Internet Marketing & Advertising",
    "phone": "(727) 421-8770",
    "address": "11125 Park Blvd Ste 104-327  Seminole, FL 33772",
    "location": "Pinellas"
  },
  {
    "name": "Select GCR Circuit",
    "description": "Marketing Consultants",
    "phone": "(727) 623-0680",
    "address": "7249 Bryan Dairy Rd  Largo, FL 33777",
    "location": "Pinellas"
  },
  {
    "name": "Primenet Direct Marketing Solutions",
    "description": "Direct Mail Advertising",
    "phone": "(727) 447-6245",
    "address": "7320 Bryan Dairy Rd  Seminole, FL 33777",
    "location": "Pinellas"
  },
  {
    "name": "Full Stack Marketing Consultants",
    "description": "Marketing Consultants",
    "phone": "(813) 773-7030",
    "address": "PO Box 7827  Sun City, FL 33586",
    "location": "Pinellas"
  },
  {
    "name": "Printavizion",
    "description": "Advertising Agencies",
    "phone": "(813) 803-5200",
    "address": "4524 Marlin Ln  Palmetto, FL 34221",
    "location": "Pinellas"
  },
  {
    "name": "Dynamic Marketing Consultants",
    "description": "Marketing Consultants",
    "phone": "(813) 579-9540",
    "address": "4524 Marlin Ln  Palmetto, FL 34221",
    "location": "Pinellas"
  },
  {
    "name": "Landers & Partners",
    "description": "Advertising Specialties",
    "phone": "(727) 572-5228",
    "address": "13555 Automobile Blvd, Ste 610  Clearwater, FL 33762",
    "location": "Pinellas"
  },
  {
    "name": "D Boi Designs",
    "description": "Internet Marketing & Advertising",
    "phone": "(941) 565-0624",
    "address": "2208 19th St W  Bradenton, FL 34205",
    "location": "Pinellas"
  },
  {
    "name": "Tampa Bay Interconnect",
    "description": "Internet Marketing & Advertising",
    "phone": "(727) 578-2662",
    "address": "700 Carillon Pkwy  Saint Petersburg, FL 33716",
    "location": "Pinellas"
  },
  {
    "name": "Women Who Rock With Success",
    "description": "Marketing Consultants",
    "phone": "(877) 476-6895",
    "address": "970 Lake Carillon Dr  Saint Petersburg, FL 33716",
    "location": "Pinellas"
  },
  {
    "name": "Gulf Coast Financial Solutions",
    "description": "Consultants Referral Service",
    "phone": "(727) 379-1740",
    "address": "970 Lake Carillon Dr Ste 300  Saint Petersburg, FL 33716",
    "location": "Pinellas"
  },
  {
    "name": "Legendary Marketer",
    "description": "Marketing Consultants",
    "phone": "(727) 498-5138",
    "address": "970 Lake Carillon Dr  Saint Petersburg, FL 33716",
    "location": "Pinellas"
  },
  {
    "name": "J&M Impact Management",
    "description": "Marketing Consultants",
    "phone": "(813) 482-5473",
    "address": "970 Carillon Pkwy  Saint Petersburg, FL 33716",
    "location": "Pinellas"
  },
  {
    "name": "Vici Marketing Group",
    "description": "Cellular Telephone Service",
    "phone": "(727) 533-8730",
    "address": "11515 66th St  Largo, FL 33773",
    "location": "Pinellas"
  },
  {
    "name": "Direct Mail Systems",
    "description": "Direct Mail Advertising",
    "phone": "(727) 573-1985",
    "address": "12450 Automobile Blvd  Clearwater, FL 33762",
    "location": "Pinellas"
  },
  {
    "name": "Q A Worldwide",
    "description": "Marketing Consultants",
    "phone": "(727) 299-9190",
    "address": "4740 126th Ave N  Clearwater, FL 33762",
    "location": "Pinellas"
  },
  {
    "name": "Slwm",
    "description": "Advertising Agencies",
    "phone": "(727) 531-1112",
    "address": "12161 62nd St  Largo, FL 33773",
    "location": "Pinellas"
  },
  {
    "name": "Hit 8155 DC",
    "description": "Advertising Specialties",
    "phone": "(727) 329-8860",
    "address": "8155 Bryan Dairy Rd  Largo, FL 33777",
    "location": "Pinellas"
  },
  {
    "name": "Mail Marketing Services",
    "description": "Mail & Shipping Services",
    "phone": "(727) 556-2500",
    "address": "3638 131st Ave N  Clearwater, FL 33762",
    "location": "Pinellas"
  },
  {
    "name": "A -Direct Advertising Specialty Company",
    "description": "Advertising Agencies",
    "phone": "(727) 398-1000",
    "address": "8950 Seminole Blvd  Seminole, FL 33772",
    "location": "Pinellas"
  },
  {
    "name": "Forey & Associates - Internet Marketing",
    "description": "Internet Marketing & Advertising",
    "phone": "(727) 897-5545",
    "address": "2655 Ulmerton Rd Suite 242  Clearwater, FL 33762",
    "location": "Pinellas"
  },
  {
    "name": "The Clarke Group Inc",
    "description": "Marketing Consultants",
    "phone": "(727) 573-3610",
    "address": "2575 Ulmerton Rd  Clearwater, FL 33762",
    "location": "Pinellas"
  },
  {
    "name": "Aspire Marketing",
    "description": "Marketing Consultants",
    "phone": "(727) 914-7019",
    "address": "4900 Creekside Dr  Clearwater, FL 33760",
    "location": "Pinellas"
  },
  {
    "name": "Dreamgiveaway.Com",
    "description": "Marketing Consultants",
    "phone": "(727) 592-2364",
    "address": "4911 Creekside Dr  Clearwater, FL 33760",
    "location": "Pinellas"
  },
  {
    "name": "Circosta Bob Communications",
    "description": "Marketing Consultants",
    "phone": "(727) 572-8855",
    "address": "3001 Executive Dr  Clearwater, FL 33762",
    "location": "Pinellas"
  },
  {
    "name": "iHeartMedia",
    "description": "Advertising Agencies",
    "phone": "(813) 832-1000",
    "address": "13577 Feather Sound Dr  Clearwater, FL 33762",
    "location": "Pinellas"
  },
  {
    "name": "Utilities Marketing Group",
    "description": "Telemarketing Services",
    "phone": "(727) 572-0601",
    "address": "13161 56th Ct  Clearwater, FL 33760",
    "location": "Pinellas"
  },
  {
    "name": "Web Design Tampa - ProDeveloper",
    "description": "Interactive Media",
    "phone": "(727) 215-7172",
    "address": "12191 77th St  Largo, FL 33782",
    "location": "Pinellas"
  },
  {
    "name": "Websults",
    "description": "Web Site Hosting",
    "phone": "(727) 597-7300",
    "address": "13555 Automobile Blvd Ste 370  Clearwater, FL 33762",
    "location": "Pinellas"
  },
  {
    "name": "Mail Marketing",
    "description": "Advertising Agencies",
    "phone": "(727) 556-2500",
    "address": "12405 73rd Ct  Largo, FL 33773",
    "location": "Pinellas"
  },
  {
    "name": "Prem Marketing Inc",
    "description": "Marketing Consultants",
    "phone": "(727) 258-4825",
    "address": "10011 Seminole Blvd  Seminole, FL 33772",
    "location": "Pinellas"
  },
  {
    "name": "Marketing Solutions",
    "description": "Marketing Consultants",
    "phone": "(727) 538-4167",
    "address": "13575 58th St N  Clearwater, FL 33760",
    "location": "Pinellas"
  },
  {
    "name": "ZRP Video",
    "description": "Internet Marketing & Advertising",
    "phone": "(727) 538-4176",
    "address": "13575 58th St N Ste 200  Clearwater, FL 33760",
    "location": "Pinellas"
  },
  {
    "name": "Best in Class Seo Inc",
    "description": "Internet Marketing & Advertising",
    "phone": "(877) 225-5821",
    "address": "13575 58th St N Ste 171  Clearwater, FL 33760",
    "location": "Pinellas"
  },
  {
    "name": "King Media Ventures LLC",
    "description": "Internet Marketing & Advertising",
    "phone": "(888) 325-1068",
    "address": "13575 58th St N Ste 205  Clearwater, FL 33760",
    "location": "Pinellas"
  },
  {
    "name": "Clarke's Group Inc",
    "description": "Marketing Consultants",
    "phone": "(727) 573-3610",
    "address": "2771 Heron Pl  Clearwater, FL 33762",
    "location": "Pinellas"
  },
  {
    "name": "Springboard Consultants",
    "description": "Marketing Consultants",
    "phone": "(727) 524-9696",
    "address": "4500 140th Ave N  Clearwater, FL 33762",
    "location": "Pinellas"
  },
  {
    "name": "Tidal Web",
    "description": "Internet Marketing & Advertising",
    "phone": "(727) 386-6201",
    "address": "PO Box 17152  Clearwater, FL 33762",
    "location": "Pinellas"
  },
  {
    "name": "GSP Marketing Technologies, Inc",
    "description": "Business Coaches & Consultants",
    "phone": "(727) 532-0647",
    "address": "14055 46th St N  Clearwater, FL 33762",
    "location": "Pinellas"
  },
  {
    "name": "The St Clair Group Inc",
    "description": "Marketing Consultants",
    "phone": "(727) 530-5887",
    "address": "4707 140th Ave N  Clearwater, FL 33762",
    "location": "Pinellas"
  },
  {
    "name": "The Marketing Source",
    "description": "Marketing Consultants",
    "phone": "(727) 530-1720",
    "address": "12600 Belcher Rd S  Largo, FL 33773",
    "location": "Pinellas"
  },
  {
    "name": "ComputerGeekz LLC",
    "description": "Internet Marketing & Advertising",
    "phone": "(727) 674-2378",
    "address": "8165 Perth Dr  Largo, FL 33773",
    "location": "Pinellas"
  },
  {
    "name": "TampaBaySocial.com",
    "description": "Marketing Consultants",
    "phone": "(813) 444-7580",
    "address": "2400 Feather Sound Drive #1233  Clearwater, FL 33762",
    "location": "Pinellas"
  },
  {
    "name": "Mandalay Solutions Inc",
    "description": "Internet Marketing & Advertising",
    "phone": "(727) 374-7060",
    "address": "675 182nd Ave E  Redington Shores, FL 33708",
    "location": "Pinellas"
  },
  {
    "name": "Asset Recovery & Conversion",
    "description": "Marketing Consultants",
    "phone": "(727) 524-2400",
    "address": "13749 65th St  Largo, FL 33771",
    "location": "Pinellas"
  },
  {
    "name": "Bluewater Media",
    "description": "Internet Marketing & Advertising",
    "phone": "(813) 944-2926",
    "address": "14375 Myerlake Cir  Clearwater, FL 33760",
    "location": "Pinellas"
  },
  {
    "name": "Primary Marketing System",
    "description": "Marketing Consultants",
    "phone": "(727) 531-0555",
    "address": "13900 US Highway 19 N  Clearwater, FL 33764",
    "location": "Pinellas"
  },
  {
    "name": "Direct Advertising",
    "description": "Advertising Agencies",
    "phone": "(727) 524-7600",
    "address": "12530 Enterprise Blvd  Largo, FL 33773",
    "location": "Pinellas"
  },
  {
    "name": "Sun State Marketing",
    "description": "Marketing Consultants",
    "phone": "(727) 545-0675",
    "address": "12505 Starkey Rd Ste M  Largo, FL 33773",
    "location": "Pinellas"
  },
  {
    "name": "B2b Services",
    "description": "Marketing Consultants",
    "phone": "(727) 535-6565",
    "address": "12508 Starkey Rd  Largo, FL 33773",
    "location": "Pinellas"
  },
  {
    "name": "Global B2b",
    "description": "Marketing Consultants",
    "phone": "(727) 475-1019",
    "address": "14350 60th St N  Clearwater, FL 33760",
    "location": "Pinellas"
  },
  {
    "name": "GooglePlacesForBusiness.Net",
    "description": "Internet Consultants",
    "phone": "(727) 238-5147",
    "address": "11819 104th St  Largo, FL 33773",
    "location": "Pinellas"
  },
  {
    "name": "Elite Marketing & Investors Group",
    "description": "Marketing Consultants",
    "phone": "(727) 803-6603",
    "address": "10627 117th Dr  Largo, FL 33773",
    "location": "Pinellas"
  },
  {
    "name": "Kyle Vena",
    "description": "Print Advertising",
    "phone": "(727) 564-8724",
    "address": "2310 Tall Pines Dr Ste 220  largo, FL 33771",
    "location": "Pinellas"
  },
  {
    "name": "3g Business Partners",
    "description": "Marketing Consultants",
    "phone": "(800) 511-8676",
    "address": "12019 106th Ct  Largo, FL 33778",
    "location": "Pinellas"
  },
  {
    "name": "Federal Contracting Center",
    "description": "Business Coaches & Consultants",
    "phone": "(855) 612-8077",
    "address": "15500 Roosevelt Blvd Ste 103  Clearwater, FL 33760",
    "location": "Pinellas"
  },
  {
    "name": "Proforma Specialty Products",
    "description": "Print Advertising",
    "phone": "(727) 259-0222",
    "address": "12300 Seminole Blvd Lot 4  Largo, FL 33778",
    "location": "Pinellas"
  },
  {
    "name": "Envision Market",
    "description": "Marketing Consultants",
    "phone": "(727) 216-6192",
    "address": "1200 Belcher Rd S  Largo, FL 33771",
    "location": "Pinellas"
  },
  {
    "name": "Dialamerica",
    "description": "Market Research & Analysis",
    "phone": "(727) 531-2039",
    "address": "5501 Roosevelt Blvd  Clearwater, FL 33760",
    "location": "Pinellas"
  },
  {
    "name": "Innovative Marketing of America",
    "description": "Marketing Consultants",
    "phone": "(727) 532-4141",
    "address": "1101 Belcher Rd S  Largo, FL 33771",
    "location": "Pinellas"
  },
  {
    "name": "Consumer Foreclosure Protection Services",
    "description": "Internet Marketing & Advertising",
    "phone": "(727) 588-3355",
    "address": "12945 Seminole Blvd  Largo, FL 33778",
    "location": "Pinellas"
  },
  {
    "name": "Infinity Marketing Group",
    "description": "Marketing Consultants",
    "phone": "(727) 581-1810",
    "address": "1501 Lake Ave SE  Largo, FL 33771",
    "location": "Pinellas"
  },
  {
    "name": "Fly High Business Builders",
    "description": "Advertising Agencies",
    "phone": "(866) 359-3422",
    "address": "10225 Ulmerton Rd  Largo, FL 33771",
    "location": "Pinellas"
  },
  {
    "name": "Higher Response Marketing",
    "description": "Marketing Consultants",
    "phone": "(727) 953-3569",
    "address": "8755 Commodore Dr  Seminole, FL 33776",
    "location": "Pinellas"
  },
  {
    "name": "AGM Marketing Agency",
    "description": "Marketing Consultants",
    "phone": "(727) 477-1102",
    "address": "1200 Starkey Rd Ste 215-A  Largo, FL 33771",
    "location": "Pinellas"
  },
  {
    "name": "Admark Marketing",
    "description": "Marketing Consultants",
    "phone": "(727) 530-1438",
    "address": "3900 Belle Oak Blvd  Largo, FL 33771",
    "location": "Pinellas"
  },
  {
    "name": "International Magazine Co Inc",
    "description": "Market Research & Analysis",
    "phone": "(727) 536-9999",
    "address": "1205 Starkey Rd  Largo, FL 33771",
    "location": "Pinellas"
  },
  {
    "name": "Trade Languages",
    "description": "International Trade Consultants",
    "phone": "(727) 244-5409",
    "address": "14539 Red Bird Ct  Seminole, FL 33776",
    "location": "Pinellas"
  },
  {
    "name": "Medicare Marketing",
    "description": "Marketing Consultants",
    "phone": "(800) 443-1702",
    "address": "4625 E Bay Dr  Clearwater, FL 33764",
    "location": "Pinellas"
  },
  {
    "name": "Nuview Marketing",
    "description": "Marketing Consultants",
    "phone": "(727) 754-9743",
    "address": "4625 E Bay Dr Ste 103  Clearwater, FL 33764",
    "location": "Pinellas"
  },
  {
    "name": "The Media Crew",
    "description": "Internet Marketing & Advertising",
    "phone": "(727) 517-3839",
    "address": "12597 Walsingham Rd  Largo, FL 33774",
    "location": "Pinellas"
  },
  {
    "name": "Drive Now",
    "description": "Direct Mail Advertising",
    "phone": "(760) 688-2305",
    "address": "1001 Starkey Rd  Largo, FL 33771",
    "location": "Pinellas"
  },
  {
    "name": "St Clair Group Inc",
    "description": "Marketing Consultants",
    "phone": "(727) 530-5887",
    "address": "4175 E Bay Dr  Clearwater, FL 33764",
    "location": "Pinellas"
  },
  {
    "name": "My SEO Guys",
    "description": "Internet Consultants",
    "phone": "(813) 333-9666",
    "address": "1301 Seminole Blvd Suite #136  Largo, FL 33770",
    "location": "Pinellas"
  },
  {
    "name": "Vanityskitchens2Go.com",
    "description": "Internet Marketing & Advertising",
    "phone": "(850) 481-5945",
    "address": "2655 E Bay Dr  Largo, FL 33771",
    "location": "Pinellas"
  },
  {
    "name": "Just Click It Digital Marketing",
    "description": "Internet Marketing & Advertising",
    "phone": "(866) 757-7337",
    "address": "1301 Seminole Blvd Ste 13  Largo, FL 33770",
    "location": "Pinellas"
  },
  {
    "name": "Baxter Christenson, Inc.",
    "description": "Advertising Specialties",
    "phone": "(727) 710-8711",
    "address": "14493 Bay Hills Dr  Largo, FL 33774",
    "location": "Pinellas"
  },
  {
    "name": "Tidewater Marketing Conslnts",
    "description": "Marketing Consultants",
    "phone": "(727) 483-5913",
    "address": "13540 Walsingham Rd  Largo, FL 33774",
    "location": "Pinellas"
  },
  {
    "name": "Epic Digital Marketing Online Services",
    "description": "Internet Marketing & Advertising",
    "phone": "(727) 223-9772",
    "address": "207 Canterbury Ln  Largo, FL 33770",
    "location": "Pinellas"
  },
  {
    "name": "Professional Media Group",
    "description": "Marketing Consultants",
    "phone": "(727) 584-5511",
    "address": "1915 E Bay Dr Ste B3  Largo, FL 33771",
    "location": "Pinellas"
  },
  {
    "name": "Digital Marcom, LLC",
    "description": "Internet Marketing & Advertising",
    "phone": "(770) 262-2862",
    "address": "13801 Walsingham Road Suite A #403  Largo, FL 33774",
    "location": "Pinellas"
  },
  {
    "name": "Theodore Barber & Company",
    "description": "Marketing Consultants",
    "phone": "(727) 581-5522",
    "address": "1715 E Bay Dr Ste E  Largo, FL 33771",
    "location": "Pinellas"
  },
  {
    "name": "Prestige Marketing Concepts",
    "description": "Marketing Consultants",
    "phone": "(727) 754-9910",
    "address": "11580 Oakhurst Rd  Largo, FL 33774",
    "location": "Pinellas"
  },
  {
    "name": "Hollowell Marketing",
    "description": "Print Advertising",
    "phone": "(727) 698-4031",
    "address": "12277 Eldon Dr  Largo, FL 33774",
    "location": "Pinellas"
  },
  {
    "name": "C2 Design Group",
    "description": "Graphic Designers",
    "phone": "(727) 595-1519",
    "address": "12551 Indian Rocks Rd  Largo, FL 33774",
    "location": "Pinellas"
  },
  {
    "name": "KBK Communications",
    "description": "Marketing Consultants",
    "phone": "(815) 464-8565",
    "address": "3163 Burns Dr  Clearwater, FL 33764",
    "location": "Pinellas"
  },
  {
    "name": "Total Marketing Solutions",
    "description": "Marketing Consultants",
    "phone": "(727) 532-0803",
    "address": "18469 Us Highway 19 N  Clearwater, FL 33764",
    "location": "Pinellas"
  },
  {
    "name": "Coast 2 Coast Bargain's",
    "description": "Internet Marketing & Advertising",
    "phone": "(727) 226-7782",
    "address": "447 6th Ave NE  Largo, FL 33770",
    "location": "Pinellas"
  },
  {
    "name": "Wenzel",
    "description": "Internet Marketing & Advertising",
    "phone": "(727) 451-9426",
    "address": "205 Beach Trl  Indian Rocks Beach, FL 33785",
    "location": "Pinellas"
  },
  {
    "name": "Bulls Eye Auto Marketing Inc",
    "description": "Market Research & Analysis",
    "phone": "(727) 483-9602",
    "address": "18820 Us Highway 19 N  Clearwater, FL 33764",
    "location": "Pinellas"
  },
  {
    "name": "CEA Marketing",
    "description": "Advertising Agencies",
    "phone": "(727) 523-8044",
    "address": "2233 Nursery Rd  Clearwater, FL 33764",
    "location": "Pinellas"
  },
  {
    "name": "613Creative",
    "description": "Marketing Consultants",
    "phone": "(727) 709-1035",
    "address": "613 2nd Street #1  Indian Rocks Beach, FL 33785",
    "location": "Pinellas"
  },
  {
    "name": "Group Inc Lam",
    "description": "Marketing Consultants",
    "phone": "(727) 333-7900",
    "address": "1584 Oak Ln  Clearwater, FL 33764",
    "location": "Pinellas"
  },
  {
    "name": "WenzelPPC Ltd.",
    "description": "Internet Marketing & Advertising",
    "phone": "(727) 451-9426",
    "address": "1809 1st St  Indian Rocks Beach, FL 33785",
    "location": "Pinellas"
  },
  {
    "name": "Web Twister SEO",
    "description": "Internet Consultants",
    "phone": "(727) 489-2626",
    "address": "1548 S Missouri Ave # 109  Clearwater, FL 33756",
    "location": "Pinellas"
  },
  {
    "name": "Ten Digit Publishing",
    "description": "Internet Marketing & Advertising",
    "phone": "(941) 531-9600",
    "address": "1180 8th Ave W Ste 318  Palmetto, FL 34221",
    "location": "Pinellas"
  },
  {
    "name": "Lawnline Marketing",
    "description": "Internet Marketing & Advertising",
    "phone": "(813) 944-3400",
    "address": "235 Apollo Beach Blvd # 128  Apollo Beach, FL 33572",
    "location": "Pinellas"
  },
  {
    "name": "Nuestar Mobile Marketing",
    "description": "Advertising Agencies",
    "phone": "(727) 560-9698",
    "address": "5207 72nd St E  Palmetto, FL 34221",
    "location": "Pinellas"
  },
  {
    "name": "Oelker Chelsea",
    "description": "Internet Marketing & Advertising",
    "phone": "(941) 251-5267",
    "address": "517 72nd St  Holmes Beach, FL 34217",
    "location": "Pinellas"
  },
  {
    "name": "Zora Creative Web Design",
    "description": "Internet Marketing & Advertising",
    "phone": "(941) 807-7001",
    "address": "10915 Bristol Bay Dr  Bradenton, FL 34209",
    "location": "Pinellas"
  },
  {
    "name": "DH Digital Marketing Group",
    "description": "Internet Marketing & Advertising",
    "phone": "(813) 502-0564",
    "address": "Po Box 6613  Tampa, FL 33608",
    "location": "Pinellas"
  },
  {
    "name": "OPK Solutions",
    "description": "Web Site Design & Services",
    "phone": "(941) 243-0414",
    "address": "10320 Spoonbill Road West  Bradenton, FL 34209",
    "location": "Pinellas"
  },
  {
    "name": "Wordpress Seo Experts",
    "description": "Advertising Agencies",
    "phone": "(813) 492-4080",
    "address": "5350 Bridge St  Tampa, FL 33611",
    "location": "Pinellas"
  },
  {
    "name": "The Jameson Interests",
    "description": "Marketing Consultants",
    "phone": "(813) 634-7775",
    "address": "PO Box 1273  Ruskin, FL 33575",
    "location": "Pinellas"
  },
  {
    "name": "Redletterbaskets.com",
    "description": "Internet Marketing & Advertising",
    "phone": "(941) 224-0108",
    "address": "7812 Portosueno Ave  Bradenton, FL 34209",
    "location": "Pinellas"
  },
  {
    "name": "Care2learn.Com",
    "description": "Internet Marketing & Advertising",
    "phone": "(941) 747-5060",
    "address": "3027 Manatee Ave W  Bradenton, FL 34205",
    "location": "Pinellas"
  },
  {
    "name": "ROI Amplified",
    "description": "Internet Marketing & Advertising",
    "phone": "(813) 805-1616",
    "address": "4905 S West Shore Blvd  Tampa, FL 33611",
    "location": "Pinellas"
  },
  {
    "name": "Exact Marketing",
    "description": "Marketing Consultants",
    "phone": "(813) 943-6053",
    "address": "4842 W Gandy Blvd  Tampa, FL 33611",
    "location": "Pinellas"
  },
  {
    "name": "Group50 Consulting",
    "description": "Business Coaches & Consultants",
    "phone": "(909) 949-9083",
    "address": "411 Islebay Dr  Apollo Beach, FL 33572",
    "location": "Pinellas"
  },
  {
    "name": "KRHMYFLABIZ LLC",
    "description": "Telecommunications Consultants",
    "phone": "(941) 479-6164",
    "address": "2309 Manatee Ave W Apt 1  Bradenton, FL 34205",
    "location": "Pinellas"
  },
  {
    "name": "VideoViralViews.com",
    "description": "Advertising Agencies",
    "phone": "(813) 413-5209",
    "address": "4817 S West Shore Blvd  Tampa, FL 33611",
    "location": "Pinellas"
  },
  {
    "name": "Rank Blade",
    "description": "Marketing Consultants",
    "phone": "(800) 825-9480",
    "address": "3050 Pointeview Dr  Tampa, FL 33611",
    "location": "Pinellas"
  },
  {
    "name": "Kelly Direct Consulting",
    "description": "Medical Practice Consultants",
    "phone": "(813) 500-2256",
    "address": "517 Bayview Dr  Holmes Beach, FL 34217",
    "location": "Pinellas"
  },
  {
    "name": "Illuminate Local",
    "description": "Internet Marketing & Advertising",
    "phone": "(813) 400-1378",
    "address": "3223 W Victoria Ave  Tampa, FL 33611",
    "location": "Pinellas"
  },
  {
    "name": "FF Web Solutions",
    "description": "Internet Consultants",
    "phone": "(941) 462-4881",
    "address": "1506 Redmond Brook Ln  Ruskin, FL 33570",
    "location": "Pinellas"
  },
  {
    "name": "Straight Line Services",
    "description": "Advertising Agencies",
    "phone": "(941) 746-6117",
    "address": "1505 6th Ave W  Bradenton, FL 34205",
    "location": "Pinellas"
  },
  {
    "name": "Certified SEO",
    "description": "Interactive Media",
    "phone": "(941) 201-3294",
    "address": "824 Manatee Ave W  Bradenton, FL 34205",
    "location": "Pinellas"
  },
  {
    "name": "Hotelmode.com",
    "description": "Internet Marketing & Advertising",
    "phone": "(813) 964-7005",
    "address": "6410 S Macdill Ave  Tampa, FL 33611",
    "location": "Pinellas"
  },
  {
    "name": "Starwheel Websites",
    "description": "Web Site Design & Services",
    "phone": "(941) 557-7090",
    "address": "1201 6th Ave W Ste 100  Bradenton, FL 34205",
    "location": "Pinellas"
  },
  {
    "name": "South Costa LLC",
    "description": "Internet Marketing & Advertising",
    "phone": "(305) 204-3131",
    "address": "4520 W Oakellar Ave unit 130031  Tampa, FL 33611",
    "location": "Pinellas"
  },
  {
    "name": "RYP Marketing",
    "description": "Internet Marketing & Advertising",
    "phone": "(941) 757-3075",
    "address": "1201 6th Ave W Ste 500c  Bradenton, FL 34205",
    "location": "Pinellas"
  },
  {
    "name": "AMWAY GLOBAL",
    "description": "Direct Marketing Services",
    "phone": "(813) 990-7427",
    "address": "3606 W Oklahoma Ave  Tampa, FL 33611",
    "location": "Pinellas"
  },
  {
    "name": "FranchiseResales.com",
    "description": "Internet Marketing & Advertising",
    "phone": "(941) 269-2010",
    "address": "2414 Avenue A  Bradenton Beach, FL 34217",
    "location": "Pinellas"
  },
  {
    "name": "Graphics Edge LLC",
    "description": "Product Design, Development & Marketing",
    "phone": "(813) 493-8000",
    "address": "804 Golf Island Dr  Apollo Beach, FL 33572",
    "location": "Pinellas"
  },
  {
    "name": "SEO Advantage, Inc.",
    "description": "Internet Marketing & Advertising",
    "phone": "(877) 516-6272",
    "address": "3690 W Gandy Blvd Ste 444  Tampa, FL 33611",
    "location": "Pinellas"
  },
  {
    "name": "Dock29 Marketing",
    "description": "Internet Marketing & Advertising",
    "phone": "(941) 776-1925",
    "address": "3823 91st Ave E  Parrish, FL 34219",
    "location": "Pinellas"
  },
  {
    "name": "Brand Story Experts",
    "description": "Marketing Consultants",
    "phone": "(941) 747-7777",
    "address": "1911 Manatee Ave E  Bradenton, FL 34208",
    "location": "Pinellas"
  },
  {
    "name": "Cre 8 Group Inc",
    "description": "Marketing Consultants",
    "phone": "(813) 649-8504",
    "address": "3107 W Ballast Point Blvd  Tampa, FL 33611",
    "location": "Pinellas"
  },
  {
    "name": "Stream",
    "description": "Internet Marketing & Advertising",
    "phone": "(941) 447-9931",
    "address": "2912 Oak Ln  Bradenton, FL 34209",
    "location": "Pinellas"
  },
  {
    "name": "Steadfast Executive Solutions",
    "description": "Internet Products & Services",
    "phone": "(727) 768-5519",
    "address": "3113 W Paul Ave  Tampa, FL 33611",
    "location": "Pinellas"
  },
  {
    "name": "Sign8 SEO",
    "description": "Internet Marketing & Advertising",
    "phone": "(813) 419-7635",
    "address": "4809 S Mound Ave Apt 102  Tampa, FL 33611",
    "location": "Pinellas"
  },
  {
    "name": "Mosiac Marketing on the Bay",
    "description": "Marketing Consultants",
    "phone": "(813) 250-0278",
    "address": "4207 S Dale Mabry Hwy  Tampa, FL 33611",
    "location": "Pinellas"
  },
  {
    "name": "Grow SEO",
    "description": "Internet Consultants",
    "phone": "(855) 447-6973",
    "address": "3120 W Fielder St  Tampa, FL 33611",
    "location": "Pinellas"
  },
  {
    "name": "Pure Design Studio",
    "description": "Marketing Consultants",
    "phone": "(813) 270-3406",
    "address": "200 Frandorson Cir Ste 102  Apollo Beach, FL 33572",
    "location": "Pinellas"
  },
  {
    "name": "Trend Marketing Services Inc",
    "description": "Food Products-Wholesale",
    "phone": "(813) 286-1920",
    "address": "5440 Mariner St  Tampa, FL 33609",
    "location": "Pinellas"
  },
  {
    "name": "The Montembeault Group",
    "description": "Marketing Consultants",
    "phone": "(317) 514-9495",
    "address": "6409 Blue Sail Ln  Apollo Beach, FL 33572",
    "location": "Pinellas"
  },
  {
    "name": "Adenvision",
    "description": "Marketing Consultants",
    "phone": "(813) 773-6812",
    "address": "5340 W Kennedy Blvd  Tampa, FL 33609",
    "location": "Pinellas"
  },
  {
    "name": "Rai Bakers",
    "description": "Marketing Consultants",
    "phone": "(813) 773-6812",
    "address": "5340 W Kennedy Blvd  Tampa, FL 33609",
    "location": "Pinellas"
  },
  {
    "name": "Teasdale WW",
    "description": "Marketing Consultants",
    "phone": "(813) 868-1515",
    "address": "405 N Reo St  Tampa, FL 33609",
    "location": "Pinellas"
  },
  {
    "name": "Global 2U Now Marketing, Inc",
    "description": "Marketing Consultants",
    "phone": "(813) 315-3995",
    "address": "4514 Hamlin Way  Wimauma, FL 33598",
    "location": "Pinellas"
  },
  {
    "name": "Phil Balducci & Associates",
    "description": "Market Research & Analysis",
    "phone": "(941) 748-5053",
    "address": "918 River Basin Ct  Bradenton, FL 34212",
    "location": "Pinellas"
  }
]
