[
  {
    "name": "Click Thru Marketing",
    "description": "Marketing Consultants",
    "phone": "(863) 592-8086",
    "address": "4959 Tennessee Lake Dr  Auburndale, FL 33823",
    "location": "Polk"
  },
  {
    "name": "Evolving",
    "description": "Meeting & Event Planning Services",
    "phone": "(863) 513-0057",
    "address": "4003 Carey Ct  Auburndale, FL 33823",
    "location": "Polk"
  },
  {
    "name": "Cameostyle Custom Fit Bra",
    "description": "Marketing Consultants",
    "phone": "(863) 967-0660",
    "address": "2014 Brentwood Dr  Auburndale, FL 33823",
    "location": "Polk"
  },
  {
    "name": "CGLO Media",
    "description": "Internet Marketing & Advertising",
    "phone": "(561) 212-3429",
    "address": "807 Interlachen Pkwy  Lakeland, FL 33801",
    "location": "Polk"
  },
  {
    "name": "Mastro Digital Marketing",
    "description": "Marketing Programs & Services",
    "phone": "(863) 400-0407",
    "address": "502 E Main St  Lakeland, FL 33801",
    "location": "Polk"
  },
  {
    "name": "The Ledger",
    "description": "Marketing Programs & Services",
    "phone": "(863) 802-7000",
    "address": "300 W Lime St  Lakeland, FL 33815",
    "location": "Polk"
  },
  {
    "name": "Shed Marketer",
    "description": "Marketing Programs & Services",
    "phone": "(888) 348-1069",
    "address": "211 E Main St Ste 213  Lakeland, FL 33801",
    "location": "Polk"
  },
  {
    "name": "Jbt Corporation",
    "description": "Marketing Programs & Services",
    "phone": "(863) 683-5411",
    "address": "400 Fairway Ave  Lakeland, FL 33801",
    "location": "Polk"
  },
  {
    "name": "Latino Services International Inc",
    "description": "Marketing Programs & Services",
    "phone": "(863) 420-2037",
    "address": "236 Queen Mary Dr  Davenport, FL 33837",
    "location": "Polk"
  },
  {
    "name": "CDI Marketing",
    "description": "Marketing Programs & Services",
    "phone": "(863) 424-7255",
    "address": "45633 Highway 27  Davenport, FL 33897",
    "location": "Polk"
  },
  {
    "name": "Chilton Marketing Products",
    "description": "Marketing Programs & Services",
    "phone": "(863) 292-9800",
    "address": "549 Pope Ave NW  Winter Haven, FL 33881",
    "location": "Polk"
  },
  {
    "name": "Agriworld Business Inc",
    "description": "Marketing Programs & Services",
    "phone": "(863) 668-8025",
    "address": "2725 Mine And Mill Rd  Lakeland, FL 33801",
    "location": "Polk"
  },
  {
    "name": "Kellogg Marketing",
    "description": "Marketing Programs & Services",
    "phone": "(863) 583-3559",
    "address": "439 S Florida Ave  Lakeland, FL 33801",
    "location": "Polk"
  },
  {
    "name": "System Dynamix Inc.",
    "description": "Marketing Programs & Services",
    "phone": "(866) 579-7836",
    "address": "122 E Main St # 243  Lakeland, FL 33801",
    "location": "Polk"
  },
  {
    "name": "Central Florida Media Group",
    "description": "Marketing Programs & Services",
    "phone": "(863) 248-7537",
    "address": "56 4th St NW Ste 100  Winter Haven, FL 33881",
    "location": "Polk"
  },
  {
    "name": "Agent360Â°CRM | \"Agent360CRM\"",
    "description": "Marketing Programs & Services",
    "phone": "(863) 591-5611",
    "address": "502 E Main St  Lakeland, FL 33801",
    "location": "Polk"
  },
  {
    "name": "Local Marketing Pros",
    "description": "Marketing Programs & Services",
    "phone": "(863) 576-1180",
    "address": "6119 Brahman Dr  Lakeland, FL 33810",
    "location": "Polk"
  },
  {
    "name": "SoccerLeads",
    "description": "Marketing Programs & Services",
    "phone": "(863) 400-0407",
    "address": "502 E Main St  Lakeland, FL 33801",
    "location": "Polk"
  },
  {
    "name": "A Home Town Connection Marketing Solutions L.L.C.",
    "description": "Marketing Programs & Services",
    "phone": "(863) 221-8288",
    "address": "4266 Stafford Dr  Winter Haven, FL 33880",
    "location": "Polk"
  },
  {
    "name": "iDirect Media, LLC",
    "description": "Marketing Programs & Services",
    "phone": "(863) 875-3975",
    "address": "Po Box 938  Auburndale, FL 33823",
    "location": "Polk"
  },
  {
    "name": "Firefly Digital Marketing",
    "description": "Marketing Programs & Services",
    "phone": "(863) 777-2244",
    "address": "122 E Main St # 244  Lakeland, FL 33801",
    "location": "Polk"
  },
  {
    "name": "Secure Marketing Group",
    "description": "Marketing Programs & Services",
    "phone": "(863) 853-8000",
    "address": "4001 Us Highway 98 N  Lakeland, FL 33809",
    "location": "Polk"
  },
  {
    "name": "Ventilation Marketing Services Inc",
    "description": "Marketing Programs & Services",
    "phone": "(863) 294-2272",
    "address": "39 3rd St SW Ste 206  Winter Haven, FL 33880",
    "location": "Polk"
  },
  {
    "name": "Comet Media Group",
    "description": "Marketing Programs & Services",
    "phone": "(772) 480-3414",
    "address": "122 E Main St  Lakeland, FL 33801",
    "location": "Polk"
  },
  {
    "name": "Canvasback Design, LLC",
    "description": "Marketing Programs & Services",
    "phone": "(863) 606-8479",
    "address": "Po Box 3925  Lakeland, FL 33802",
    "location": "Polk"
  },
  {
    "name": "Woyster Media, Inc.",
    "description": "Internet Marketing & Advertising",
    "phone": "(863) 412-2076",
    "address": "PO Box 1534  Auburndale, FL 33823",
    "location": "Polk"
  },
  {
    "name": "Website Islands",
    "description": "Internet Marketing & Advertising",
    "phone": "(407) 243-8028",
    "address": "205 Rona Ln  Davenport, FL 33897",
    "location": "Polk"
  },
  {
    "name": "Nice Branding Agency",
    "description": "Internet Marketing & Advertising",
    "phone": "(863) 216-5683",
    "address": "123 S Tennessee Ave Ste 2  Lakeland, FL 33801",
    "location": "Polk"
  },
  {
    "name": "Xocai Healthy Chocolate",
    "description": "Internet Marketing & Advertising",
    "phone": "(863) 233-7160",
    "address": "1822 16th st nw  Winter HAven, FL 33881",
    "location": "Polk"
  },
  {
    "name": "MosierData - Lakeland Web Design & Internet Marketing",
    "description": "Web Site Design & Services",
    "phone": "(863) 687-0000",
    "address": "314 N Kentucky Ave  Lakeland, FL 33801",
    "location": "Polk"
  },
  {
    "name": "Rapid Action Marketing | Digital Marketing Agency",
    "description": "Internet Marketing & Advertising",
    "phone": "(863) 226-6263",
    "address": "122 E. Main St. #270  Lakeland, FL 33801",
    "location": "Polk"
  },
  {
    "name": "Dark Matter Creative, LLC.",
    "description": "Internet Marketing & Advertising",
    "phone": "(407) 913-0357",
    "address": "2232 Heritage Dr  Lakeland, FL 33801",
    "location": "Polk"
  },
  {
    "name": "St. Louis Software, Lakeland, FL",
    "description": "Internet Marketing & Advertising",
    "phone": "(863) 686-3741",
    "address": "817 South Blvd  Lakeland, FL 33801",
    "location": "Polk"
  },
  {
    "name": "Service Leads USA",
    "description": "Marketing Consultants",
    "phone": "(877) 268-2867",
    "address": "1549 Lakeland Hills Blvd Ste B  Lakeland, FL 33805",
    "location": "Polk"
  },
  {
    "name": "O2 Digital Marketing",
    "description": "Marketing Consultants",
    "phone": "(800) 450-7085",
    "address": "146 Montana Ave  Davenport, FL 33897",
    "location": "Polk"
  },
  {
    "name": "Dippidi",
    "description": "Advertising Agencies",
    "phone": "(863) 591-5384",
    "address": "502 E Main St  Lakeland, FL 33801",
    "location": "Polk"
  },
  {
    "name": "First Step Solutions, Inc",
    "description": "Marketing Consultants",
    "phone": "(407) 592-3833",
    "address": "1380 Palmetto Dunes St  Davenport, FL 33896",
    "location": "Polk"
  },
  {
    "name": "Hurimark SEO Agency",
    "description": "Advertising Agencies",
    "phone": "(650) 586-0072",
    "address": "122 E Main St Unit 130  Lakeland, FL 33801",
    "location": "Polk"
  },
  {
    "name": "Double Rainbow Enterprises International",
    "description": "Direct Marketing Services",
    "phone": "(863) 397-3661",
    "address": "307 Preston St  Auburndale, FL 33823",
    "location": "Polk"
  },
  {
    "name": "Atlasdoorrepair.com",
    "description": "Internet Marketing & Advertising",
    "phone": "(863) 559-1533",
    "address": "25111 Ramm Dr  Lakeland, FL 33809",
    "location": "Polk"
  },
  {
    "name": "McCoy & Associates",
    "description": "Internet Marketing & Advertising",
    "phone": "(863) 274-1859",
    "address": "2216 Deer Run  Lakeland, FL 33809",
    "location": "Polk"
  },
  {
    "name": "Tellyvu",
    "description": "Internet Marketing & Advertising",
    "phone": "(800) 873-9421",
    "address": "4967 Williamstown Blvd  Lakeland, FL 33810",
    "location": "Polk"
  },
  {
    "name": "BoBestValues",
    "description": "Internet Marketing & Advertising",
    "phone": "(863) 303-2066",
    "address": "236 Dolcetto Dr  Davenport, FL 33897",
    "location": "Polk"
  },
  {
    "name": "HealthyandWealthyHome",
    "description": "Internet Marketing & Advertising",
    "phone": "(863) 513-2125",
    "address": "3536 Lori Ln N  Lakeland, FL 33801",
    "location": "Polk"
  },
  {
    "name": "Vicente Lara Graphics",
    "description": "Internet Marketing & Advertising",
    "phone": "(863) 877-9720",
    "address": "210 E Central Ave  Winter Haven, FL 33880",
    "location": "Polk"
  },
  {
    "name": "Theeducation Central",
    "description": "Internet Marketing & Advertising",
    "phone": "(863) 680-6699",
    "address": "111 Lake Hollingsworth Dr  Lakeland, FL 33801",
    "location": "Polk"
  },
  {
    "name": "N G P World Wide",
    "description": "Marketing Consultants",
    "phone": "(863) 229-5931",
    "address": "1660 Seminole Ave  Auburndale, FL 33823",
    "location": "Polk"
  },
  {
    "name": "Sunbelt Worksite Marketing Inc",
    "description": "Marketing Consultants",
    "phone": "(863) 967-4986",
    "address": "1025 Berkley Rd  Auburndale, FL 33823",
    "location": "Polk"
  },
  {
    "name": "Dalton Sales Inc",
    "description": "Marketing Consultants",
    "phone": "(863) 666-5057",
    "address": "2833 Us Highway 92 E  Lakeland, FL 33801",
    "location": "Polk"
  },
  {
    "name": "Oley Power Marketing",
    "description": "Marketing Consultants",
    "phone": "(863) 353-5951",
    "address": "138 Huarez Ct  Davenport, FL 33896",
    "location": "Polk"
  },
  {
    "name": "Haines Marketing Group",
    "description": "Graphic Designers",
    "phone": "(863) 333-5301",
    "address": "1125 Bartow Rd Ste 302  Lakeland, FL 33801",
    "location": "Polk"
  },
  {
    "name": "KDM Creative Studio",
    "description": "Graphic Designers",
    "phone": "(863) 280-6118",
    "address": "245 W Central Ave  Winter Haven, FL 33880",
    "location": "Polk"
  },
  {
    "name": "Target Marketing Associates, Inc.",
    "description": "Product Design, Development & Marketing",
    "phone": "(863) 294-9900",
    "address": "20 3rd St SW Ste 308  Winter Haven, FL 33880",
    "location": "Polk"
  },
  {
    "name": "Arturi Consulting",
    "description": "Business Coaches & Consultants",
    "phone": "(863) 937-8966",
    "address": "120 E Pine St Ste 2  Lakeland, FL 33801",
    "location": "Polk"
  },
  {
    "name": "Logos Marketing",
    "description": "Marketing Consultants",
    "phone": "(863) 940-4327",
    "address": "120 E Pine St  Lakeland, FL 33801",
    "location": "Polk"
  },
  {
    "name": "Black Oak Creative",
    "description": "Marketing Consultants",
    "phone": "(863) 289-8714",
    "address": "332 Avenue B SW  Winter Haven, FL 33880",
    "location": "Polk"
  },
  {
    "name": "Legal Expert Connections Inc",
    "description": "Marketing Consultants",
    "phone": "(561) 266-1030",
    "address": "122 E Main St  Lakeland, FL 33801",
    "location": "Polk"
  },
  {
    "name": "Town Center Lp",
    "description": "Marketing Consultants",
    "phone": "(863) 424-2381",
    "address": "901 Charo Pkwy  Davenport, FL 33897",
    "location": "Polk"
  },
  {
    "name": "Monroe Marketing Design. LLC",
    "description": "Marketing Programs & Services",
    "phone": "(863) 288-8118",
    "address": "128 Terrace Dr Apt 3  Haines City, FL 33844",
    "location": "Polk"
  },
  {
    "name": "SouthState Corporation",
    "description": "Marketing Programs & Services",
    "phone": "(863) 293-4710",
    "address": "1101 1st St S  Winter Haven, FL 33880",
    "location": "Polk"
  },
  {
    "name": "Marketing Your Business",
    "description": "Marketing Programs & Services",
    "phone": "(863) 424-7838",
    "address": "105 Secluded Oak Ct  Davenport, FL 33896",
    "location": "Polk"
  },
  {
    "name": "Atlantic Coast Marketing",
    "description": "Marketing Programs & Services",
    "phone": "(863) 606-0233",
    "address": "2033 E Edgewood Dr  Lakeland, FL 33803",
    "location": "Polk"
  },
  {
    "name": "Partner Marketing Group",
    "description": "Marketing Programs & Services",
    "phone": "(863) 295-9118",
    "address": "4930 Dundee Rd  Winter Haven, FL 33884",
    "location": "Polk"
  },
  {
    "name": "Global Marketin G Services",
    "description": "Marketing Programs & Services",
    "phone": "(407) 507-5634",
    "address": "7822 W Irlo Bronson Memorial Hwy  Kissimmee, FL 34747",
    "location": "Polk"
  },
  {
    "name": "Tempus International Marketing",
    "description": "Marketing Programs & Services",
    "phone": "(407) 390-0216",
    "address": "7769 W Irlo Bronson Memorial Hwy  Kissimmee, FL 34747",
    "location": "Polk"
  },
  {
    "name": "Orange Lake Marketing",
    "description": "Marketing Programs & Services",
    "phone": "(407) 396-1116",
    "address": "7675 W Irlo Bronson Memorial Hwy  Kissimmee, FL 34747",
    "location": "Polk"
  },
  {
    "name": "Atco Parts",
    "description": "Marketing Programs & Services",
    "phone": "(863) 603-9595",
    "address": "309 Patten Heights St  Lakeland, FL 33803",
    "location": "Polk"
  },
  {
    "name": "The Fearn Partnership",
    "description": "Marketing Programs & Services",
    "phone": "(863) 682-8250",
    "address": "1804 S Florida Ave  Lakeland, FL 33803",
    "location": "Polk"
  },
  {
    "name": "FusionZONE Automotive",
    "description": "Marketing Programs & Services",
    "phone": "(888) 576-1136",
    "address": "1643 Williamsburg Sq  Lakeland, FL 33803",
    "location": "Polk"
  },
  {
    "name": "Lead Revenue",
    "description": "Marketing Programs & Services",
    "phone": "(888) 863-2848",
    "address": "1643 Williamsburg Sq  Lakeland, FL 33803",
    "location": "Polk"
  },
  {
    "name": "Blue Berg Marketing",
    "description": "Marketing Programs & Services",
    "phone": "(850) 774-2218",
    "address": "16340 Cagan Oaks  Clermont, FL 34714",
    "location": "Polk"
  },
  {
    "name": "Premier Marketing Group",
    "description": "Marketing Programs & Services",
    "phone": "(352) 404-9884",
    "address": "2110 US Highway 27  Clermont, FL 34714",
    "location": "Polk"
  },
  {
    "name": "V MARKETING EDGE CORP",
    "description": "Marketing Programs & Services",
    "phone": "(407) 823-7560",
    "address": "1420 Celebration Blvd #200  Celebration, FL 34747",
    "location": "Polk"
  },
  {
    "name": "Web Design of Lakeland by Brandtastic",
    "description": "Marketing Programs & Services",
    "phone": "(863) 271-7975",
    "address": "1643 Williamsburg Sq  Lakeland, FL 33803",
    "location": "Polk"
  },
  {
    "name": "Minuteman Press",
    "description": "Marketing Programs & Services",
    "phone": "(863) 337-6670",
    "address": "2058 E Edgewood Dr Ste C  Lakeland, FL 33803",
    "location": "Polk"
  },
  {
    "name": "Lakay Marketing",
    "description": "Marketing Programs & Services",
    "phone": "(877) 852-2276",
    "address": "332 Avenue BSW Suite 200-18  Winter Haven, FL 33880",
    "location": "Polk"
  },
  {
    "name": "Set-Apart Marketing",
    "description": "Marketing Programs & Services",
    "phone": "(407) 734-0158",
    "address": "16401 Nelson Park DR  Clermont, FL 34714",
    "location": "Polk"
  },
  {
    "name": "Zurda Group",
    "description": "Marketing Programs & Services",
    "phone": "(855) 948-2672",
    "address": "1000 Castle Pines Ct  Reunion, FL 34747",
    "location": "Polk"
  },
  {
    "name": "Lance Whipple Realtor",
    "description": "Real Estate Buyer Brokers",
    "phone": "(407) 494-6030",
    "address": "7940 Lake Wilson Rd  Davenport, FL 33896",
    "location": "Polk"
  },
  {
    "name": "LocalNet360",
    "description": "Directory & Guide Advertising",
    "phone": "(888) 304-4060",
    "address": "7862 W Irlo Bronson Memorial Hwy # 309  Kissimmee, FL 34747",
    "location": "Polk"
  },
  {
    "name": "Advantage Solutions",
    "description": "Food Products-Wholesale",
    "phone": "(863) 648-1881",
    "address": "2525 Drane Field Rd  Lakeland, FL 33811",
    "location": "Polk"
  },
  {
    "name": "Cove Concepts",
    "description": "Data Processing Service",
    "phone": "(321) 200-3311",
    "address": "1507 Blue Horizon Dr  Clermont, FL 34714",
    "location": "Polk"
  },
  {
    "name": "Newvision Mktings-Central Florida",
    "description": "Direct Marketing Services",
    "phone": "(863) 242-2443",
    "address": "735 Riggs Cir  Davenport, FL 33897",
    "location": "Polk"
  },
  {
    "name": "Blackmon Roberts Group Inc",
    "description": "Market Research & Analysis",
    "phone": "(863) 802-1280",
    "address": "902 S Florida Ave Ste 205  Lakeland, FL 33803",
    "location": "Polk"
  },
  {
    "name": "Evidence-Based Health Solutions",
    "description": "Market Research & Analysis",
    "phone": "(863) 877-0122",
    "address": "303 Bowen Rd  Davenport, FL 33837",
    "location": "Polk"
  },
  {
    "name": "American Directions Group",
    "description": "Market Research & Analysis",
    "phone": "(863) 709-0553",
    "address": "2525 Drane Field Rd  Lakeland, FL 33811",
    "location": "Polk"
  },
  {
    "name": "DesignBuddy's",
    "description": "Web Site Hosting",
    "phone": "(407) 625-6649",
    "address": "1205 Bella Cara Ct  Davenport, FL 33896",
    "location": "Polk"
  },
  {
    "name": "Ynivka.com",
    "description": "Internet Marketing & Advertising",
    "phone": "(234) 249-4338",
    "address": "700 N Highway 17 242  Eagle Lake, FL 33839",
    "location": "Polk"
  },
  {
    "name": "Witincreaser.com",
    "description": "Internet Marketing & Advertising",
    "phone": "(863) 204-4612",
    "address": "204 Robbins Rest Cir  Davenport, FL 33896",
    "location": "Polk"
  },
  {
    "name": "Letteredcandy.com",
    "description": "Internet Marketing & Advertising",
    "phone": "(407) 247-6444",
    "address": "Celebration Est  Kissimmee, FL 34747",
    "location": "Polk"
  },
  {
    "name": "Best Marketing And Media Co",
    "description": "Marketing Consultants",
    "phone": "(863) 682-2225",
    "address": "704 N Brunnell Pkwy  Lakeland, FL 33815",
    "location": "Polk"
  },
  {
    "name": "Helping Hand Marketing",
    "description": "Marketing Consultants",
    "phone": "(863) 937-8930",
    "address": "1005 S Florida Ave  Lakeland, FL 33803",
    "location": "Polk"
  },
  {
    "name": "Satellite Prolink Inc",
    "description": "Marketing Consultants",
    "phone": "(863) 606-0200",
    "address": "2905 Winter Lake Rd  Lakeland, FL 33803",
    "location": "Polk"
  },
  {
    "name": "Techanic Digital Marketing",
    "description": "Marketing Consultants",
    "phone": "(863) 602-0152",
    "address": "4750 Rushing Rd  Lakeland, FL 33810",
    "location": "Polk"
  },
  {
    "name": "R.L. Hammette",
    "description": "Advertising Specialties",
    "phone": "(863) 299-3901",
    "address": "1625 N US Highway 17  Eagle Lake, FL 33839",
    "location": "Polk"
  },
  {
    "name": "New Information Inc",
    "description": "Marketing Consultants",
    "phone": "(863) 318-0464",
    "address": "302 Martinique Dr  Winter Haven, FL 33884",
    "location": "Polk"
  },
  {
    "name": "Growers Marketing Service Inc",
    "description": "Marketing Consultants",
    "phone": "(863) 644-2037",
    "address": "3825 S Florida Ave  Lakeland, FL 33813",
    "location": "Polk"
  },
  {
    "name": "Pate Marketing Group",
    "description": "Marketing Consultants",
    "phone": "(863) 701-2575",
    "address": "2525 Drane Field Rd  Lakeland, FL 33811",
    "location": "Polk"
  },
  {
    "name": "Tri -Venture Marketing Inc",
    "description": "Food Products-Wholesale",
    "phone": "(863) 648-1881",
    "address": "2525 Drane Field Rd  Lakeland, FL 33811",
    "location": "Polk"
  },
  {
    "name": "B & B Marketing",
    "description": "Marketing Consultants",
    "phone": "(352) 394-1161",
    "address": "1011 US Highway 27  Clermont, FL 34714",
    "location": "Polk"
  },
  {
    "name": "Millennium Marketing Of Central Florida Inc",
    "description": "Marketing Consultants",
    "phone": "(407) 397-2010",
    "address": "8905 Legacy Ct  Kissimmee, FL 34747",
    "location": "Polk"
  },
  {
    "name": "Island One Resorts",
    "description": "Marketing Consultants",
    "phone": "(407) 239-8811",
    "address": "17777 Bali Blvd  Winter Garden, FL 34787",
    "location": "Polk"
  }
]
