[
  {
    "name": "Advanced Marketing & Consulting",
    "description": "Marketing Programs & Services",
    "phone": "(321) 205-7117",
    "address": "317 Stacy Grove Rd  Oak Hill, FL 32759",
    "location": "Putnam"
  },
  {
    "name": "Ronald Proffitt/R & D Marketing",
    "description": "Marketing Programs & Services",
    "phone": "(321) 480-1795",
    "address": "3410 Groah Ave  Mims, FL 32754",
    "location": "Putnam"
  },
  {
    "name": "Marketing Holders",
    "description": "Marketing Programs & Services",
    "phone": "(321) 607-2121",
    "address": "3320 W Main St  Mims, FL 32754",
    "location": "Putnam"
  },
  {
    "name": "Vacation Tours USA",
    "description": "Marketing Programs & Services",
    "phone": "(386) 323-1644",
    "address": "424 Luna Bella Ln  New Smyrna Beach, FL 32168",
    "location": "Putnam"
  },
  {
    "name": "Fins Up Digital Media",
    "description": "Marketing Programs & Services",
    "phone": "(386) 848-6921",
    "address": "2022 Umbrella Tree Dr  Edgewater, FL 32141",
    "location": "Putnam"
  },
  {
    "name": "Insight Lead Gen",
    "description": "Marketing Programs & Services",
    "phone": "(386) 603-6070",
    "address": "5300 S Atlantic Ave Apt 3207  New Smyrna Beach, FL 32169",
    "location": "Putnam"
  },
  {
    "name": "Jack the SEO Guy",
    "description": "Marketing Programs & Services",
    "phone": "(321) 355-2250",
    "address": "4416 Sherwood Forest Dr  Titusville, FL 32796",
    "location": "Putnam"
  },
  {
    "name": "Backwards Production",
    "description": "Internet Marketing & Advertising",
    "phone": "(386) 427-3467",
    "address": "3212 Royal Palm Dr  Edgewater, FL 32141",
    "location": "Putnam"
  },
  {
    "name": "Vintagevolvorestoration.com",
    "description": "Internet Marketing & Advertising",
    "phone": "(386) 220-4033",
    "address": "1952 Guava Dr  Edgewater, FL 32141",
    "location": "Putnam"
  },
  {
    "name": "Adword Consulting",
    "description": "Internet Products & Services",
    "phone": "(386) 689-9912",
    "address": "526 Coral Trace Blvd  Edgewater, FL 32132",
    "location": "Putnam"
  },
  {
    "name": "Kirk Marketing & Consultation",
    "description": "Marketing Consultants",
    "phone": "(386) 957-3479",
    "address": "1945 W Park Ave  Edgewater, FL 32132",
    "location": "Putnam"
  },
  {
    "name": "Mac Marketing",
    "description": "Marketing Consultants",
    "phone": "(386) 423-2223",
    "address": "210 Parktowne Blvd Ste 1  Edgewater, FL 32132",
    "location": "Putnam"
  },
  {
    "name": "New Way Marketing Inc",
    "description": "Marketing Consultants",
    "phone": "(386) 402-7882",
    "address": "612 N Ridgewood Ave Ste G  Edgewater, FL 32132",
    "location": "Putnam"
  },
  {
    "name": "Greatoceancondos.com",
    "description": "Internet Marketing & Advertising",
    "phone": "(386) 478-7863",
    "address": "2801 Hill St  New Smyrna Beach, FL 32169",
    "location": "Putnam"
  },
  {
    "name": "Saltyfeet Media LLC",
    "description": "Marketing Consultants",
    "phone": "(386) 410-4761",
    "address": "307 Lytle Ave  New Smyrna Beach, FL 32168",
    "location": "Putnam"
  },
  {
    "name": "Revenue Cycle Resources- RCR|HUB",
    "description": "Directory & Guide Advertising",
    "phone": "(407) 421-4940",
    "address": "538 Canal St  New Smyrna Beach, FL 32168",
    "location": "Putnam"
  },
  {
    "name": "The Small Biz Shop",
    "description": "Internet Marketing & Advertising",
    "phone": "(888) 448-4461",
    "address": "538 Canal St Ste 325  New Smyrna Beach, FL 32168",
    "location": "Putnam"
  },
  {
    "name": "Shark Bite Marketing",
    "description": "Internet Marketing & Advertising",
    "phone": "(386) 424-6931",
    "address": "439 Bouchelle Dr Apt 202  New Smyrna Beach, FL 32169",
    "location": "Putnam"
  },
  {
    "name": "Tropics Digital",
    "description": "Internet Marketing & Advertising",
    "phone": "(321) 222-7612",
    "address": "313 Desoto Dr  New Smyrna Beach, FL 32169",
    "location": "Putnam"
  },
  {
    "name": "Great Circle Marketing",
    "description": "Marketing Consultants",
    "phone": "(386) 428-1161",
    "address": "646 N Riverside Dr  New Smyrna Beach, FL 32168",
    "location": "Putnam"
  },
  {
    "name": "Headline Surfer",
    "description": "Interactive Media",
    "phone": "(386) 689-2830",
    "address": "168 Turnberry Cir  New Smyrna Beach, FL 32168",
    "location": "Putnam"
  },
  {
    "name": "Car People Marketing Inc",
    "description": "Marketing Consultants",
    "phone": "(386) 761-3131",
    "address": "2650 N Dixie Fwy  New Smyrna Beach, FL 32168",
    "location": "Putnam"
  },
  {
    "name": "Moog Marketing",
    "description": "Marketing Consultants",
    "phone": "(407) 324-3313",
    "address": "1515 Saddle Run Dr  Osteen, FL 32764",
    "location": "Putnam"
  }
]
