[
  {
    "name": "Enrollment Catalyst",
    "description": "Marketing Programs & Services",
    "phone": "(727) 647-0378",
    "address": "9770 Indian Key Trl  Seminole, FL 33776",
    "location": "Seminole"
  },
  {
    "name": "SUNsational Showhomes",
    "description": "Marketing Programs & Services",
    "phone": "(678) 457-7792",
    "address": "4525 Cove Cir Apt 106  Saint Petersburg, FL 33708",
    "location": "Seminole"
  },
  {
    "name": "DZS Inc",
    "description": "Marketing Programs & Services",
    "phone": "(727) 530-2545",
    "address": "7340 Bryan Dairy Rd  Seminole, FL 33777",
    "location": "Seminole"
  },
  {
    "name": "Travel Hotline",
    "description": "Marketing Programs & Services",
    "phone": "(727) 392-2499",
    "address": "10863 Park Blvd  Seminole, FL 33772",
    "location": "Seminole"
  },
  {
    "name": "My Marketing Department Inc",
    "description": "Marketing Programs & Services",
    "phone": "(727) 230-9679",
    "address": "11125 Park Blvd  Seminole, FL 33772",
    "location": "Seminole"
  },
  {
    "name": "The Jingle Writer",
    "description": "Marketing Programs & Services",
    "phone": "(727) 224-1791",
    "address": "11125 Park Blvd  Seminole, FL 33772",
    "location": "Seminole"
  },
  {
    "name": "Invincible Marketing Group Inc",
    "description": "Marketing Programs & Services",
    "phone": "(727) 545-1800",
    "address": "10931 75th St  Seminole, FL 33777",
    "location": "Seminole"
  },
  {
    "name": "BizBlueprint",
    "description": "Marketing Programs & Services",
    "phone": "(877) 632-1888",
    "address": "8998 Seminole Blvd  Seminole, FL 33772",
    "location": "Seminole"
  },
  {
    "name": "RWB Digital Imaging",
    "description": "Marketing Programs & Services",
    "phone": "(727) 385-1687",
    "address": "10461 Cirimoya Ln  Seminole, FL 33772",
    "location": "Seminole"
  },
  {
    "name": "Aqua Marketing & Communication",
    "description": "Marketing Programs & Services",
    "phone": "(727) 687-4670",
    "address": "6055 Long Bayou Way N  Saint Petersburg, FL 33708",
    "location": "Seminole"
  },
  {
    "name": "Cherry & Co",
    "description": "Marketing Programs & Services",
    "phone": "(727) 393-7737",
    "address": "11000 49th Ave N  Saint Petersburg, FL 33708",
    "location": "Seminole"
  },
  {
    "name": "Everybody Media",
    "description": "Marketing Programs & Services",
    "phone": "(800) 727-8643",
    "address": "10055 Seminole Blvd  Seminole, FL 33772",
    "location": "Seminole"
  },
  {
    "name": "Thinkdirect Marketing Group",
    "description": "Marketing Programs & Services",
    "phone": "(727) 369-2700",
    "address": "8285 Bryan Dairy Rd Ste 33777  Seminole, FL 33777",
    "location": "Seminole"
  },
  {
    "name": "OrangeTheory",
    "description": "Marketing Programs & Services",
    "phone": "(727) 378-9020",
    "address": "7600 Bryan Dairy Rd Suite B.  Seminole, FL 33777",
    "location": "Seminole"
  },
  {
    "name": "Wilde Ideas Web Design & Development",
    "description": "Marketing Programs & Services",
    "phone": "(727) 888-3801",
    "address": "8990 Seminole Blvd  Seminole, FL 33772",
    "location": "Seminole"
  },
  {
    "name": "My Marketing Department, Inc",
    "description": "Marketing Programs & Services",
    "phone": "(727) 888-1200",
    "address": "7777 131st St Ste 9  Seminole, FL 33776",
    "location": "Seminole"
  },
  {
    "name": "Xanjero Media",
    "description": "Marketing Programs & Services",
    "phone": "(727) 421-8770",
    "address": "9209 Seminole Blvd  Seminole, FL 33772",
    "location": "Seminole"
  },
  {
    "name": "Turnkey Merchandising Inc",
    "description": "Marketing Programs & Services",
    "phone": "(727) 213-1260",
    "address": "10810 72nd St  Seminole, FL 33777",
    "location": "Seminole"
  },
  {
    "name": "The Essential Admin",
    "description": "Marketing Programs & Services",
    "phone": "(513) 858-5533",
    "address": "Park Blvd  Seminole, FL 33777",
    "location": "Seminole"
  },
  {
    "name": "KDM Design & Marketing",
    "description": "Internet Marketing & Advertising",
    "phone": "(727) 344-2026",
    "address": "9855 59th AVE N  Saint Petersburg, FL 33708",
    "location": "Seminole"
  },
  {
    "name": "R.P. Digital Consulting",
    "description": "Marketing Consultants",
    "phone": "(727) 626-5230",
    "address": "8800 Bardmoor Blvd  Seminole, FL 33777",
    "location": "Seminole"
  },
  {
    "name": "Primenet Direct Marketing Solutions",
    "description": "Direct Mail Advertising",
    "phone": "(727) 447-6245",
    "address": "7320 Bryan Dairy Rd  Seminole, FL 33777",
    "location": "Seminole"
  },
  {
    "name": "Xanjero",
    "description": "Internet Marketing & Advertising",
    "phone": "(727) 421-8770",
    "address": "11125 Park Blvd Ste 104-327  Seminole, FL 33772",
    "location": "Seminole"
  },
  {
    "name": "Consumer Sales Solutions",
    "description": "Marketing Consultants",
    "phone": "(727) 733-8700",
    "address": "10601 Belcher Rd S  Seminole, FL 33777",
    "location": "Seminole"
  },
  {
    "name": "Tampa Bay Analytical Research",
    "description": "Market Research & Analysis",
    "phone": "(727) 540-0900",
    "address": "10810 72nd St  Seminole, FL 33777",
    "location": "Seminole"
  },
  {
    "name": "Trade Languages",
    "description": "International Trade Consultants",
    "phone": "(727) 244-5409",
    "address": "14539 Red Bird Ct  Seminole, FL 33776",
    "location": "Seminole"
  },
  {
    "name": "The Home Marketing Team",
    "description": "Marketing Consultants",
    "phone": "(727) 399-8500",
    "address": "10992 Park Blvd  Seminole, FL 33772",
    "location": "Seminole"
  },
  {
    "name": "New Wave Marketing Inc",
    "description": "Marketing Consultants",
    "phone": "(727) 319-3358",
    "address": "10795 Park Blvd  Seminole, FL 33772",
    "location": "Seminole"
  },
  {
    "name": "Knowinnovation, Inc",
    "description": "Marketing Consultants",
    "phone": "(813) 814-1902",
    "address": "7903 Seminole Blvd  Seminole, FL 33772",
    "location": "Seminole"
  },
  {
    "name": "A -Direct Advertising Specialty Company",
    "description": "Advertising Agencies",
    "phone": "(727) 398-1000",
    "address": "8950 Seminole Blvd  Seminole, FL 33772",
    "location": "Seminole"
  },
  {
    "name": "American Travel Partners",
    "description": "Marketing Consultants",
    "phone": "(727) 393-6000",
    "address": "9189 Park Blvd  Seminole, FL 33777",
    "location": "Seminole"
  },
  {
    "name": "Prem Marketing Inc",
    "description": "Marketing Consultants",
    "phone": "(727) 258-4825",
    "address": "10011 Seminole Blvd  Seminole, FL 33772",
    "location": "Seminole"
  },
  {
    "name": "In Touch Marketing",
    "description": "Marketing Consultants",
    "phone": "(727) 393-3399",
    "address": "8950 Park Blvd  Seminole, FL 33777",
    "location": "Seminole"
  },
  {
    "name": "Higher Response Marketing",
    "description": "Marketing Consultants",
    "phone": "(727) 953-3569",
    "address": "8755 Commodore Dr  Seminole, FL 33776",
    "location": "Seminole"
  },
  {
    "name": "Hit Promotional Products",
    "description": "Advertising-Promotional Products",
    "phone": "(727) 546-4800",
    "address": "10810 72nd St  Seminole, FL 33777",
    "location": "Seminole"
  },
  {
    "name": "Sales & Marketing Specialist",
    "description": "Marketing Consultants",
    "phone": "(727) 548-4250",
    "address": "10810 72nd St  Seminole, FL 33777",
    "location": "Seminole"
  },
  {
    "name": "Business Xposure",
    "description": "Marketing Programs & Services",
    "phone": "(727) 642-8924",
    "address": "2404 Boca Ciega Dr N  Saint Petersburg, FL 33710",
    "location": "Seminole"
  },
  {
    "name": "Beach 2 Bay Ads",
    "description": "Marketing Programs & Services",
    "phone": "(727) 233-0246",
    "address": "PO Box 245  Bay Pines, FL 33744",
    "location": "Seminole"
  },
  {
    "name": "Universal Survey Advertising Inc",
    "description": "Marketing Programs & Services",
    "phone": "(727) 517-0800",
    "address": "12597 Walsingham Rd  Largo, FL 33774",
    "location": "Seminole"
  },
  {
    "name": "Mad Dog Armory",
    "description": "Marketing Programs & Services",
    "phone": "(727) 304-4443",
    "address": "11606 Seminole Blvd  Largo, FL 33778",
    "location": "Seminole"
  },
  {
    "name": "Gcp",
    "description": "Marketing Programs & Services",
    "phone": "(252) 441-9401",
    "address": "13103 Cimarron Cir S  Largo, FL 33774",
    "location": "Seminole"
  },
  {
    "name": "Nu View Marketing",
    "description": "Marketing Programs & Services",
    "phone": "(727) 754-9743",
    "address": "11701 Belcher Rd S  Largo, FL 33773",
    "location": "Seminole"
  },
  {
    "name": "Braman Group",
    "description": "Marketing Programs & Services",
    "phone": "(813) 868-1782",
    "address": "9225 Ulmerton Rd Ste P  Largo, FL 33771",
    "location": "Seminole"
  },
  {
    "name": "Minuteman Press",
    "description": "Marketing Programs & Services",
    "phone": "(727) 954-0519",
    "address": "9600 66th St N Ste A  Pinellas Park, FL 33782",
    "location": "Seminole"
  },
  {
    "name": "Pro Marketing Inc",
    "description": "Marketing Programs & Services",
    "phone": "(727) 595-1269",
    "address": "18395 Gulf Blvd  Indian Shores, FL 33785",
    "location": "Seminole"
  },
  {
    "name": "Dream Giveaway",
    "description": "Marketing Programs & Services",
    "phone": "(727) 536-2777",
    "address": "12955 Starkey Rd Ste 3900  Largo, FL 33773",
    "location": "Seminole"
  },
  {
    "name": "Security First Planning Group",
    "description": "Marketing Programs & Services",
    "phone": "(727) 536-2777",
    "address": "19321 US Highway 19 N  Clearwater, FL 33764",
    "location": "Seminole"
  },
  {
    "name": "Digital Marcom, LLC",
    "description": "Internet Marketing & Advertising",
    "phone": "(770) 262-2862",
    "address": "13801 Walsingham Road Suite A #403  Largo, FL 33774",
    "location": "Seminole"
  },
  {
    "name": "Squires Global",
    "description": "Internet Marketing & Advertising",
    "phone": "(727) 541-5764",
    "address": "5009 68th St N  Saint Petersburg, FL 33709",
    "location": "Seminole"
  },
  {
    "name": "Mandalay Solutions Inc",
    "description": "Internet Marketing & Advertising",
    "phone": "(727) 374-7060",
    "address": "675 182nd Ave E  Redington Shores, FL 33708",
    "location": "Seminole"
  },
  {
    "name": "Jacarspa",
    "description": "Internet Marketing & Advertising",
    "phone": "(727) 422-0920",
    "address": "15507 Redington Dr  Redington Beach, FL 33708",
    "location": "Seminole"
  },
  {
    "name": "GooglePlacesForBusiness.Net",
    "description": "Internet Consultants",
    "phone": "(727) 238-5147",
    "address": "11819 104th St  Largo, FL 33773",
    "location": "Seminole"
  },
  {
    "name": "Web Design Tampa - ProDeveloper",
    "description": "Interactive Media",
    "phone": "(727) 215-7172",
    "address": "12191 77th St  Largo, FL 33782",
    "location": "Seminole"
  },
  {
    "name": "Baxter Christenson, Inc.",
    "description": "Advertising Specialties",
    "phone": "(727) 710-8711",
    "address": "14493 Bay Hills Dr  Largo, FL 33774",
    "location": "Seminole"
  },
  {
    "name": "Fly High Business Builders",
    "description": "Advertising Agencies",
    "phone": "(866) 359-3422",
    "address": "10225 Ulmerton Rd  Largo, FL 33771",
    "location": "Seminole"
  },
  {
    "name": "Find New Customers",
    "description": "Marketing Consultants",
    "phone": "(516) 456-8218",
    "address": "8035 26th Ave N  Saint Petersburg, FL 33710",
    "location": "Seminole"
  },
  {
    "name": "Hollowell Marketing",
    "description": "Print Advertising",
    "phone": "(727) 698-4031",
    "address": "12277 Eldon Dr  Largo, FL 33774",
    "location": "Seminole"
  },
  {
    "name": "C3NERGY DIRECT, LLC",
    "description": "Telemarketing Services",
    "phone": "(727) 307-5996",
    "address": "6623 84th ave n  Pinellas Park, FL 33781",
    "location": "Seminole"
  },
  {
    "name": "The Media Crew",
    "description": "Internet Marketing & Advertising",
    "phone": "(727) 517-3839",
    "address": "12597 Walsingham Rd  Largo, FL 33774",
    "location": "Seminole"
  },
  {
    "name": "Consumer Foreclosure Protection Services",
    "description": "Internet Marketing & Advertising",
    "phone": "(727) 588-3355",
    "address": "12945 Seminole Blvd  Largo, FL 33778",
    "location": "Seminole"
  },
  {
    "name": "Excellent-Supply.com",
    "description": "Internet Marketing & Advertising",
    "phone": "(727) 821-2020",
    "address": "8925 66th Ct N  Pinellas Park, FL 33782",
    "location": "Seminole"
  },
  {
    "name": "ComputerGeekz LLC",
    "description": "Internet Marketing & Advertising",
    "phone": "(727) 674-2378",
    "address": "8165 Perth Dr  Largo, FL 33773",
    "location": "Seminole"
  },
  {
    "name": "3g Business Partners",
    "description": "Marketing Consultants",
    "phone": "(800) 511-8676",
    "address": "12019 106th Ct  Largo, FL 33778",
    "location": "Seminole"
  },
  {
    "name": "Andzo CNSLTNG",
    "description": "Business Coaches & Consultants",
    "phone": "(772) 202-6914",
    "address": "7901 Fort St N  Saint Petersburg, FL 33702",
    "location": "Seminole"
  },
  {
    "name": "Elite Marketing & Investors Group",
    "description": "Marketing Consultants",
    "phone": "(727) 803-6603",
    "address": "10627 117th Dr  Largo, FL 33773",
    "location": "Seminole"
  },
  {
    "name": "National Marketing Associates Inc",
    "description": "Advertising Agencies",
    "phone": "(727) 320-2444",
    "address": "14503 Gulf Blvd  Madeira Beach, FL 33708",
    "location": "Seminole"
  },
  {
    "name": "Proforma Specialty Products",
    "description": "Print Advertising",
    "phone": "(727) 259-0222",
    "address": "12300 Seminole Blvd Lot 4  Largo, FL 33778",
    "location": "Seminole"
  },
  {
    "name": "Hit 8155 DC",
    "description": "Advertising Specialties",
    "phone": "(727) 329-8860",
    "address": "8155 Bryan Dairy Rd  Largo, FL 33777",
    "location": "Seminole"
  },
  {
    "name": "Tidewater Marketing Conslnts",
    "description": "Marketing Consultants",
    "phone": "(727) 483-5913",
    "address": "13540 Walsingham Rd  Largo, FL 33774",
    "location": "Seminole"
  },
  {
    "name": "B2b Services",
    "description": "Marketing Consultants",
    "phone": "(727) 535-6565",
    "address": "12508 Starkey Rd  Largo, FL 33773",
    "location": "Seminole"
  },
  {
    "name": "Sun State Marketing",
    "description": "Marketing Consultants",
    "phone": "(727) 545-0675",
    "address": "12505 Starkey Rd Ste M  Largo, FL 33773",
    "location": "Seminole"
  },
  {
    "name": "Prestige Marketing Concepts",
    "description": "Marketing Consultants",
    "phone": "(727) 754-9910",
    "address": "11580 Oakhurst Rd  Largo, FL 33774",
    "location": "Seminole"
  },
  {
    "name": "Direct Advertising",
    "description": "Advertising Agencies",
    "phone": "(727) 524-7600",
    "address": "12530 Enterprise Blvd  Largo, FL 33773",
    "location": "Seminole"
  },
  {
    "name": "Best of Tampa Bay",
    "description": "Marketing Consultants",
    "phone": "(727) 822-9000",
    "address": "10550 72nd St  Largo, FL 33777",
    "location": "Seminole"
  },
  {
    "name": "Select GCR Circuit",
    "description": "Marketing Consultants",
    "phone": "(727) 623-0680",
    "address": "7249 Bryan Dairy Rd  Largo, FL 33777",
    "location": "Seminole"
  },
  {
    "name": "Corporation Liberty Marketing",
    "description": "Marketing Consultants",
    "phone": "(727) 231-6744",
    "address": "8501 66th St N  Pinellas Park, FL 33781",
    "location": "Seminole"
  },
  {
    "name": "C2 Design Group",
    "description": "Graphic Designers",
    "phone": "(727) 595-1519",
    "address": "12551 Indian Rocks Rd  Largo, FL 33774",
    "location": "Seminole"
  },
  {
    "name": "Omega Marketing Solutions",
    "description": "Marketing Consultants",
    "phone": "(727) 230-1810",
    "address": "28870 US Highway 19 N  Clearwater, FL 33761",
    "location": "Seminole"
  },
  {
    "name": "Spatial Networks",
    "description": "Business Coaches & Consultants",
    "phone": "(727) 538-0545",
    "address": "18167 US Highway 19 N  Clearwater, FL 33764",
    "location": "Seminole"
  },
  {
    "name": "Concepts Marketing Solutions",
    "description": "Marketing Programs & Services",
    "phone": "(727) 228-2994",
    "address": "13100 56th Ct, Ste 703  Clearwater, FL 33760",
    "location": "Seminole"
  },
  {
    "name": "Wilson Printing USA",
    "description": "Marketing Programs & Services",
    "phone": "(727) 536-4173",
    "address": "14451 60th St N  Clearwater, FL 33760",
    "location": "Seminole"
  },
  {
    "name": "Seo Consulting Experts",
    "description": "Marketing Programs & Services",
    "phone": "(727) 276-4458",
    "address": "2100 E Bay Dr suite 233,  Largo, FL 33771",
    "location": "Seminole"
  },
  {
    "name": "Galaxy Marketing Solutions LLC",
    "description": "Marketing Programs & Services",
    "phone": "(727) 531-7171",
    "address": "14055 46th St N Ste 1102  Clearwater, FL 33762",
    "location": "Seminole"
  },
  {
    "name": "Wealth Health and Stealth",
    "description": "Marketing Programs & Services",
    "phone": "(727) 692-9487",
    "address": "Po Box 873  largo, FL 33779",
    "location": "Seminole"
  },
  {
    "name": "M K J Marketing",
    "description": "Marketing Programs & Services",
    "phone": "(727) 524-8100",
    "address": "1501 Belcher Rd S  Largo, FL 33771",
    "location": "Seminole"
  },
  {
    "name": "Munce Marketing Group Inc",
    "description": "Marketing Programs & Services",
    "phone": "(727) 596-7625",
    "address": "200 W Bay Dr  Largo, FL 33770",
    "location": "Seminole"
  },
  {
    "name": "Global Enterprises W. W. Inc.",
    "description": "Marketing Programs & Services",
    "phone": "(727) 286-8605",
    "address": "3665 E Bay Dr Ste 204  Largo, FL 33771",
    "location": "Seminole"
  },
  {
    "name": "Marketopia",
    "description": "Marketing Programs & Services",
    "phone": "(844) 482-4769",
    "address": "3600 75th Ter N  Pinellas Park, FL 33781",
    "location": "Seminole"
  },
  {
    "name": "Sail Marketing",
    "description": "Marketing Programs & Services",
    "phone": "(727) 324-7461",
    "address": "5325 Gulfport Blvd S  Gulfport, FL 33707",
    "location": "Seminole"
  },
  {
    "name": "Evolved Marketing",
    "description": "Marketing Programs & Services",
    "phone": "(727) 201-2256",
    "address": "630 Chestnut St Ste 200  Clearwater, FL 33756",
    "location": "Seminole"
  },
  {
    "name": "Proforma The One Source",
    "description": "Marketing Programs & Services",
    "phone": "(727) 460-3308",
    "address": "7419 10th Ave N  Saint Petersburg, FL 33710",
    "location": "Seminole"
  },
  {
    "name": "Our Town America",
    "description": "Marketing Programs & Services",
    "phone": "(727) 345-0811",
    "address": "13900 Us Highway 19 N  Clearwater, FL 33764",
    "location": "Seminole"
  },
  {
    "name": "Sign Language of Tampa Bay",
    "description": "Marketing Programs & Services",
    "phone": "(727) 572-8831",
    "address": "10880 49th St N  Clearwater, FL 33762",
    "location": "Seminole"
  },
  {
    "name": "Dupont Registry",
    "description": "Marketing Programs & Services",
    "phone": "(727) 573-9339",
    "address": "4600 140th Ave N  Clearwater, FL 33762",
    "location": "Seminole"
  },
  {
    "name": "Progressive Dental Marketing",
    "description": "Marketing Programs & Services",
    "phone": "(727) 286-6211",
    "address": "15950 Bay Vista Dr Ste 301  Clearwater, FL 33760",
    "location": "Seminole"
  },
  {
    "name": "Power Moves Digital Marketing & Websites",
    "description": "Marketing Programs & Services",
    "phone": "(727) 219-3721",
    "address": "1958 Promenade Way  Clearwater, FL 33760",
    "location": "Seminole"
  },
  {
    "name": "Teamworks Marketing",
    "description": "Marketing Programs & Services",
    "phone": "(888) 801-8168",
    "address": "8550 Ulmerton Rd  Largo, FL 33771",
    "location": "Seminole"
  },
  {
    "name": "DigitalJ2",
    "description": "Marketing Programs & Services",
    "phone": "(813) 205-3745",
    "address": "12360 66th St Suite H2  Largo, FL 33773",
    "location": "Seminole"
  },
  {
    "name": "Paul Bleigners Marketing",
    "description": "Marketing Programs & Services",
    "phone": "(727) 440-6084",
    "address": "3200 64th St N  Saint Petersburg, FL 33710",
    "location": "Seminole"
  },
  {
    "name": "Military Savings Book",
    "description": "Marketing Programs & Services",
    "phone": "(727) 329-8990",
    "address": "6177 Cedarbrook Dr N  Pinellas Park, FL 33782",
    "location": "Seminole"
  },
  {
    "name": "Diversified Marketing Service",
    "description": "Marketing Programs & Services",
    "phone": "(727) 581-6111",
    "address": "801 W Bay Dr  Largo, FL 33770",
    "location": "Seminole"
  },
  {
    "name": "Merchant Choice Payment Solutions",
    "description": "Marketing Programs & Services",
    "phone": "(727) 344-1275",
    "address": "1700 66th St N Ste 400  Saint Petersburg, FL 33710",
    "location": "Seminole"
  },
  {
    "name": "Agency Marketing Inc",
    "description": "Marketing Programs & Services",
    "phone": "(727) 384-6600",
    "address": "7024 Central Ave  Saint Petersburg, FL 33707",
    "location": "Seminole"
  },
  {
    "name": "The Growth Machine",
    "description": "Marketing Programs & Services",
    "phone": "(727) 788-4077",
    "address": "3600 75th Ter N  Pinellas Park, FL 33781",
    "location": "Seminole"
  },
  {
    "name": "Ziggi Marketing",
    "description": "Marketing Programs & Services",
    "phone": "(727) 216-3859",
    "address": "3575 Gandy Blvd N  Pinellas Park, FL 33781",
    "location": "Seminole"
  },
  {
    "name": "R Pick Marketing G",
    "description": "Marketing Programs & Services",
    "phone": "(727) 289-6791",
    "address": "3210 48th Ave N  Saint Petersburg, FL 33714",
    "location": "Seminole"
  },
  {
    "name": "Litchfield C/A Inc",
    "description": "Marketing Programs & Services",
    "phone": "(727) 322-1220",
    "address": "4215 Central Ave  Saint Petersburg, FL 33713",
    "location": "Seminole"
  },
  {
    "name": "MyEchelon Inc",
    "description": "Marketing Programs & Services",
    "phone": "(240) 216-5566",
    "address": "3001 Executive Dr Ste 140  Clearwater, FL 33762",
    "location": "Seminole"
  },
  {
    "name": "Level 6 Marketing",
    "description": "Marketing Programs & Services",
    "phone": "(727) 210-6600",
    "address": "19321 Us Highway 19 N  Clearwater, FL 33764",
    "location": "Seminole"
  },
  {
    "name": "Vector Marketing Corp",
    "description": "Marketing Programs & Services",
    "phone": "(716) 372-3111",
    "address": "1301 Seminole Blvd  Largo, FL 33770",
    "location": "Seminole"
  },
  {
    "name": "Marketing Masters Associates",
    "description": "Marketing Programs & Services",
    "phone": "(727) 547-7074",
    "address": "11350 66th St  Largo, FL 33773",
    "location": "Seminole"
  },
  {
    "name": "Media Simplified",
    "description": "Marketing Programs & Services",
    "phone": "(321) 890-6243",
    "address": "6187 101st Ave N  Pinellas Park, FL 33782",
    "location": "Seminole"
  },
  {
    "name": "Media Pro Marketing Inc",
    "description": "Marketing Programs & Services",
    "phone": "(727) 330-7564",
    "address": "152 8th Ave SW  Largo, FL 33770",
    "location": "Seminole"
  },
  {
    "name": "Fastpath Marketing",
    "description": "Marketing Programs & Services",
    "phone": "(727) 398-1855",
    "address": "6822 22nd Ave N  Saint Petersburg, FL 33710",
    "location": "Seminole"
  },
  {
    "name": "MTL Media Inc",
    "description": "Marketing Programs & Services",
    "phone": "(727) 596-7625",
    "address": "200 W Bay Dr  Largo, FL 33770",
    "location": "Seminole"
  },
  {
    "name": "First National Merchant Serv",
    "description": "Marketing Programs & Services",
    "phone": "(727) 344-1275",
    "address": "1700 66th St N  Saint Petersburg, FL 33710",
    "location": "Seminole"
  },
  {
    "name": "Strategic Media Worldwide",
    "description": "Marketing Programs & Services",
    "phone": "(727) 588-0015",
    "address": "311 Missouri Ave N  Largo, FL 33770",
    "location": "Seminole"
  },
  {
    "name": "Superior Marketing Company",
    "description": "Marketing Programs & Services",
    "phone": "(727) 304-8469",
    "address": "8800 49th St N Ste 111  Pinellas Park, FL 33782",
    "location": "Seminole"
  },
  {
    "name": "Wholesome Goods, Inc.",
    "description": "Marketing Programs & Services",
    "phone": "(844) 719-1093",
    "address": "5355 115th Ave N  Clearwater, FL 33760",
    "location": "Seminole"
  },
  {
    "name": "Eaton Marketing",
    "description": "Marketing Programs & Services",
    "phone": "(727) 531-0899",
    "address": "5325 115th Ave N  Clearwater, FL 33760",
    "location": "Seminole"
  },
  {
    "name": "Direct Check Marketing",
    "description": "Marketing Programs & Services",
    "phone": "(727) 536-3399",
    "address": "6399 142nd Ave N  Clearwater, FL 33760",
    "location": "Seminole"
  },
  {
    "name": "Webtivity Marketing & Design",
    "description": "Marketing Programs & Services",
    "phone": "(941) 753-7574",
    "address": "138 Pinellas Way N  Saint Petersburg, FL 33710",
    "location": "Seminole"
  },
  {
    "name": "Native Sun Sportswear",
    "description": "Marketing Programs & Services",
    "phone": "(727) 528-2111",
    "address": "4590 62nd Ave N  Pinellas Park, FL 33781",
    "location": "Seminole"
  },
  {
    "name": "Horizon Loyalty",
    "description": "Marketing Programs & Services",
    "phone": "(727) 289-7412",
    "address": "4531 68th Ave N  Pinellas Park, FL 33781",
    "location": "Seminole"
  },
  {
    "name": "Majesty Marketing",
    "description": "Marketing Programs & Services",
    "phone": "(727) 373-6085",
    "address": "14330 58th St N  Clearwater, FL 33760",
    "location": "Seminole"
  },
  {
    "name": "Scribe Opco, Inc",
    "description": "Marketing Programs & Services",
    "phone": "(727) 536-7895",
    "address": "14421 Myerlake Cir  Clearwater, FL 33760",
    "location": "Seminole"
  },
  {
    "name": "National Event Publications",
    "description": "Marketing Programs & Services",
    "phone": "(727) 254-5400",
    "address": "4908 Creekside Dr Ste A  Clearwater, FL 33760",
    "location": "Seminole"
  },
  {
    "name": "A2B Motion",
    "description": "Marketing Programs & Services",
    "phone": "(727) 497-1823",
    "address": "4911 Creekside Dr Ste A  Clearwater, FL 33760",
    "location": "Seminole"
  },
  {
    "name": "Uci",
    "description": "Marketing Programs & Services",
    "phone": "(727) 536-2777",
    "address": "4911 Creekside Dr  Clearwater, FL 33760",
    "location": "Seminole"
  },
  {
    "name": "PSP Sign",
    "description": "Marketing Programs & Services",
    "phone": "(813) 244-8148",
    "address": "3345 57th Ave N  Saint Petersburg, FL 33714",
    "location": "Seminole"
  },
  {
    "name": "Inc Stemnion Inc",
    "description": "Marketing Programs & Services",
    "phone": "(727) 216-6911",
    "address": "4600 140th Ave N  Clearwater, FL 33762",
    "location": "Seminole"
  },
  {
    "name": "Marketingmoves PLC",
    "description": "Marketing Programs & Services",
    "phone": "(408) 703-5811",
    "address": "4500 140th Ave N  Clearwater, FL 33762",
    "location": "Seminole"
  },
  {
    "name": "Quantum Marketing International Inc",
    "description": "Marketing Programs & Services",
    "phone": "(727) 791-7879",
    "address": "5680 Roosevelt Blvd  Clearwater, FL 33760",
    "location": "Seminole"
  },
  {
    "name": "Doyle Marketing Group Cnstr",
    "description": "Marketing Programs & Services",
    "phone": "(727) 410-8887",
    "address": "1717 Doncaster Rd  Clearwater, FL 33764",
    "location": "Seminole"
  },
  {
    "name": "Khampton Ventures",
    "description": "Marketing Programs & Services",
    "phone": "(727) 831-9102",
    "address": "1421 Temple St  Clearwater, FL 33756",
    "location": "Seminole"
  },
  {
    "name": "Fidelity Printing",
    "description": "Marketing Programs & Services",
    "phone": "(727) 526-9156",
    "address": "3662 Morris St N  Saint Petersburg, FL 33713",
    "location": "Seminole"
  },
  {
    "name": "RJG Marketing",
    "description": "Marketing Programs & Services",
    "phone": "(727) 536-8668",
    "address": "2557 Nursery Rd  Clearwater, FL 33764",
    "location": "Seminole"
  },
  {
    "name": "Your Seo Marketing Pro",
    "description": "Marketing Programs & Services",
    "phone": "(727) 542-6707",
    "address": "5943 Calais Blvd N Apt 6  Saint Petersburg, FL 33714",
    "location": "Seminole"
  },
  {
    "name": "Advantage Marketing",
    "description": "Marketing Programs & Services",
    "phone": "(727) 350-1030",
    "address": "2830 Scherer Dr N  Saint Petersburg, FL 33716",
    "location": "Seminole"
  },
  {
    "name": "David Hooks & Associates",
    "description": "Marketing Programs & Services",
    "phone": "(813) 417-8520",
    "address": "501 S Fort Harrison Ave  Clearwater, FL 33756",
    "location": "Seminole"
  },
  {
    "name": "In Position Marketing",
    "description": "Marketing Programs & Services",
    "phone": "(727) 483-2432",
    "address": "343 S Highland Ave  Clearwater, FL 33755",
    "location": "Seminole"
  },
  {
    "name": "Christian Marketing Experts",
    "description": "Marketing Programs & Services",
    "phone": "(727) 256-4427",
    "address": "1640 83rd Ave N  Saint Petersburg, FL 33702",
    "location": "Seminole"
  },
  {
    "name": "Professional Systems Printing and Promotions",
    "description": "Marketing Programs & Services",
    "phone": "(727) 572-0768",
    "address": "12180 28th St N  Saint Petersburg, FL 33716",
    "location": "Seminole"
  },
  {
    "name": "Olavare Marketing",
    "description": "Marketing Programs & Services",
    "phone": "(727) 560-7168",
    "address": "13575 58th St N  Clearwater, FL 33760",
    "location": "Seminole"
  },
  {
    "name": "AdAbler, LLC",
    "description": "Marketing Programs & Services",
    "phone": "(813) 420-0852",
    "address": "312 6th Ave  Indian Rocks Beach, FL 33785",
    "location": "Seminole"
  },
  {
    "name": "Strategic Media Inc",
    "description": "Marketing Programs & Services",
    "phone": "(727) 531-7622",
    "address": "2857 Executive Dr Ste 120  Clearwater, FL 33762",
    "location": "Seminole"
  },
  {
    "name": "Gladiatrix Digital Marketing Agency",
    "description": "Marketing Programs & Services",
    "phone": "(727) 644-5922",
    "address": "1432 San Juan CT  Clearwater, FL 33756",
    "location": "Seminole"
  },
  {
    "name": "Ads and Funnels",
    "description": "Marketing Programs & Services",
    "phone": "(727) 280-5912",
    "address": "12700 66th St Apt 2325  Largo, FL 33773",
    "location": "Seminole"
  },
  {
    "name": "Full Throttle Marketing Inc",
    "description": "Marketing Programs & Services",
    "phone": "(727) 210-0835",
    "address": "2480 E Bay Dr Ste 13  Largo, FL 33771",
    "location": "Seminole"
  },
  {
    "name": "Hsn",
    "description": "Marketing Programs & Services",
    "phone": "(727) 872-1000",
    "address": "1 Hsn Dr  Saint Petersburg, FL 33716",
    "location": "Seminole"
  },
  {
    "name": "GO Agency Digital Marketing",
    "description": "Marketing Programs & Services",
    "phone": "(813) 790-5909",
    "address": "2655 Ulmerton Rd Ste 219  Clearwater, FL 33762",
    "location": "Seminole"
  },
  {
    "name": "Red Palm Marketing",
    "description": "Marketing Programs & Services",
    "phone": "(727) 230-8880",
    "address": "13575 58th St N Ste 146  Clearwater, FL 33760",
    "location": "Seminole"
  },
  {
    "name": "AGR Group",
    "description": "Marketing Programs & Services",
    "phone": "(727) 572-0600",
    "address": "8550 Ulmerton Rd  Largo, FL 33771",
    "location": "Seminole"
  },
  {
    "name": "American Retail Alliance Corp.",
    "description": "Marketing Programs & Services",
    "phone": "(727) 581-1500",
    "address": "2979 W Bay Dr Ste 2  Belleair Bluffs, FL 33770",
    "location": "Seminole"
  },
  {
    "name": "Kicker Creative Productions",
    "description": "Marketing Programs & Services",
    "phone": "(727) 641-3007",
    "address": "3339 21st Pl SW  Largo, FL 33774",
    "location": "Seminole"
  },
  {
    "name": "Modern Mail & Print Solutions",
    "description": "Marketing Programs & Services",
    "phone": "(727) 572-6245",
    "address": "14201 58th St N  Clearwater, FL 33760",
    "location": "Seminole"
  },
  {
    "name": "Marketsurge",
    "description": "Marketing Programs & Services",
    "phone": "(727) 573-1763",
    "address": "4250 118th Ave N  Clearwater, FL 33762",
    "location": "Seminole"
  },
  {
    "name": "Kensjin, Inc.",
    "description": "Marketing Programs & Services",
    "phone": "(727) 906-0699",
    "address": "4500 140th Ave N Ste 101  Clearwater, FL 33762",
    "location": "Seminole"
  },
  {
    "name": "Excel Network",
    "description": "Marketing Programs & Services",
    "phone": "(800) 933-6919",
    "address": "3900 31st St N  Saint Petersburg, FL 33714",
    "location": "Seminole"
  },
  {
    "name": "Odyssey Promotions",
    "description": "Marketing Programs & Services",
    "phone": "(727) 388-3629",
    "address": "3125 30th Ave N  Saint Petersburg, FL 33713",
    "location": "Seminole"
  },
  {
    "name": "Kwik Kopy",
    "description": "Marketing Programs & Services",
    "phone": "(813) 286-1690",
    "address": "3225 Bennett St N Ste A  Saint Petersburg, FL 33713",
    "location": "Seminole"
  },
  {
    "name": "Landers & Partners",
    "description": "Advertising Specialties",
    "phone": "(727) 572-5228",
    "address": "13555 Automobile Blvd, Ste 610  Clearwater, FL 33762",
    "location": "Seminole"
  },
  {
    "name": "MOZA Digital LLC",
    "description": "Internet Marketing & Advertising",
    "phone": "(727) 470-3355",
    "address": "2472 61st Lane N  Saint Petersburg, FL 33710",
    "location": "Seminole"
  },
  {
    "name": "SMARTApproved Local Marketing",
    "description": "Marketing Consultants",
    "phone": "(877) 755-1150",
    "address": "4399 35th St N Ste 202  Saint Petersburg, FL 33714",
    "location": "Seminole"
  },
  {
    "name": "WenzelPPC Ltd.",
    "description": "Internet Marketing & Advertising",
    "phone": "(727) 451-9426",
    "address": "1809 1st St  Indian Rocks Beach, FL 33785",
    "location": "Seminole"
  },
  {
    "name": "Websults",
    "description": "Web Site Hosting",
    "phone": "(727) 597-7300",
    "address": "13555 Automobile Blvd Ste 370  Clearwater, FL 33762",
    "location": "Seminole"
  },
  {
    "name": "TheWrapElement.com The Wrap Element",
    "description": "Advertising Agencies",
    "phone": "(727) 244-3118",
    "address": "3575 Gandy Blvd N  Pinellas Park, FL 33781",
    "location": "Seminole"
  },
  {
    "name": "Chico Screen",
    "description": "Computer Network Design & Systems",
    "phone": "(727) 851-6932",
    "address": "3125 5th Ave N  Saint Petersburg, FL 33713",
    "location": "Seminole"
  },
  {
    "name": "Edifying Voyages",
    "description": "Marketing Consultants",
    "phone": "(949) 484-0606",
    "address": "4604 49th Street N #1552  Saint Petersburg, FL 33709",
    "location": "Seminole"
  },
  {
    "name": "Alligator Media",
    "description": "Internet Marketing & Advertising",
    "phone": "(727) 422-2845",
    "address": "1120 63rd St S  Gulfport, FL 33707",
    "location": "Seminole"
  },
  {
    "name": "Meridien Research",
    "description": "Market Research & Analysis",
    "phone": "(727) 347-8839",
    "address": "4751 66th St N  Kenneth City, FL 33709",
    "location": "Seminole"
  },
  {
    "name": "Arthritis & Wellness Institute",
    "description": "Market Research & Analysis",
    "phone": "(727) 461-4054",
    "address": "300 S. Duncan Ave., Suite 188  Clearwater, FL 33755",
    "location": "Seminole"
  },
  {
    "name": "Digital Eel Inc",
    "description": "Web Site Design & Services",
    "phone": "(727) 368-0270",
    "address": "9524 Blind Pass Rd Ste 14  St Pete Beach, FL 33706",
    "location": "Seminole"
  },
  {
    "name": "Nature Bay Web Design",
    "description": "Web Site Design & Services",
    "phone": "(727) 238-2216",
    "address": "6243 3rd Ave S  Saint Petersburg, FL 33707",
    "location": "Seminole"
  },
  {
    "name": "Web Twister SEO",
    "description": "Internet Consultants",
    "phone": "(727) 489-2626",
    "address": "1548 S Missouri Ave # 109  Clearwater, FL 33756",
    "location": "Seminole"
  },
  {
    "name": "Tidal Web",
    "description": "Internet Marketing & Advertising",
    "phone": "(727) 386-6201",
    "address": "PO Box 17152  Clearwater, FL 33762",
    "location": "Seminole"
  },
  {
    "name": "Throttle Web Design",
    "description": "Internet Marketing & Advertising",
    "phone": "(727) 432-0976",
    "address": "1726 York St S  Gulfport, FL 33707",
    "location": "Seminole"
  },
  {
    "name": "Forey & Associates - Internet Marketing",
    "description": "Internet Marketing & Advertising",
    "phone": "(727) 897-5545",
    "address": "2655 Ulmerton Rd Suite 242  Clearwater, FL 33762",
    "location": "Seminole"
  },
  {
    "name": "Mail Marketing",
    "description": "Advertising Agencies",
    "phone": "(727) 556-2500",
    "address": "12405 73rd Ct  Largo, FL 33773",
    "location": "Seminole"
  },
  {
    "name": "Phos Design Studio",
    "description": "Architectural Designers",
    "phone": "(727) 485-8301",
    "address": "11380 66th St Ste 137  Largo, FL 33773",
    "location": "Seminole"
  },
  {
    "name": "AGM Marketing Agency",
    "description": "Marketing Consultants",
    "phone": "(727) 477-1102",
    "address": "1200 Starkey Rd Ste 215-A  Largo, FL 33771",
    "location": "Seminole"
  },
  {
    "name": "Direct Mail Systems",
    "description": "Direct Mail Advertising",
    "phone": "(727) 573-1985",
    "address": "12450 Automobile Blvd  Clearwater, FL 33762",
    "location": "Seminole"
  },
  {
    "name": "Federal Contracting Center",
    "description": "Business Coaches & Consultants",
    "phone": "(855) 612-8077",
    "address": "15500 Roosevelt Blvd Ste 103  Clearwater, FL 33760",
    "location": "Seminole"
  },
  {
    "name": "CEA Marketing",
    "description": "Advertising Agencies",
    "phone": "(727) 523-8044",
    "address": "2233 Nursery Rd  Clearwater, FL 33764",
    "location": "Seminole"
  },
  {
    "name": "KBK Communications",
    "description": "Marketing Consultants",
    "phone": "(815) 464-8565",
    "address": "3163 Burns Dr  Clearwater, FL 33764",
    "location": "Seminole"
  },
  {
    "name": "Helinger Advertising",
    "description": "Advertising-Promotional Products",
    "phone": "(727) 327-3333",
    "address": "4201 Central Ave  Saint Petersburg, FL 33713",
    "location": "Seminole"
  },
  {
    "name": "Accurate Promotional Products",
    "description": "Advertising-Promotional Products",
    "phone": "(727) 522-0104",
    "address": "3030 Morris St N  St Petersburg, FL 33713",
    "location": "Seminole"
  },
  {
    "name": "Dialamerica",
    "description": "Market Research & Analysis",
    "phone": "(727) 531-2039",
    "address": "5501 Roosevelt Blvd  Clearwater, FL 33760",
    "location": "Seminole"
  },
  {
    "name": "My SEO Guys",
    "description": "Internet Consultants",
    "phone": "(813) 333-9666",
    "address": "1301 Seminole Blvd Suite #136  Largo, FL 33770",
    "location": "Seminole"
  },
  {
    "name": "Mega Turbo Marketing",
    "description": "Internet Marketing & Advertising",
    "phone": "(954) 465-0776",
    "address": "A St  Clearwater, FL 33755",
    "location": "Seminole"
  },
  {
    "name": "Drive Now",
    "description": "Direct Mail Advertising",
    "phone": "(760) 688-2305",
    "address": "1001 Starkey Rd  Largo, FL 33771",
    "location": "Seminole"
  },
  {
    "name": "MARIA F PEREZ HERNANDEZ INDEPENDENT SALES AGENT",
    "description": "Direct Marketing Services",
    "phone": "(727) 735-1678",
    "address": "1407 Lotus Path  Clearwater, FL 33756",
    "location": "Seminole"
  },
  {
    "name": "Eclipse Energy Systems",
    "description": "Market Research & Analysis",
    "phone": "(727) 344-7300",
    "address": "2345 Anvil St N  Saint Petersburg, FL 33710",
    "location": "Seminole"
  },
  {
    "name": "Radiant Research",
    "description": "Market Research & Analysis",
    "phone": "(727) 544-6367",
    "address": "6010 Park Blvd N  Pinellas Park, FL 33781",
    "location": "Seminole"
  },
  {
    "name": "International Magazine Co Inc",
    "description": "Market Research & Analysis",
    "phone": "(727) 536-9999",
    "address": "1205 Starkey Rd  Largo, FL 33771",
    "location": "Seminole"
  },
  {
    "name": "Alphamed Pharmaceuticals",
    "description": "Market Research & Analysis",
    "phone": "(727) 588-0000",
    "address": "2401 W Bay Dr  Largo, FL 33770",
    "location": "Seminole"
  },
  {
    "name": "Advent Medical Research Inc",
    "description": "Market Research & Analysis",
    "phone": "(727) 521-9200",
    "address": "4820 Park Blvd N  Pinellas Park, FL 33781",
    "location": "Seminole"
  },
  {
    "name": "Alba Clinical Research",
    "description": "Market Research & Analysis",
    "phone": "(727) 446-2522",
    "address": "1433 S Fort Harrison Ave  Clearwater, FL 33756",
    "location": "Seminole"
  },
  {
    "name": "Bulls Eye Auto Marketing Inc",
    "description": "Market Research & Analysis",
    "phone": "(727) 483-9602",
    "address": "18820 Us Highway 19 N  Clearwater, FL 33764",
    "location": "Seminole"
  },
  {
    "name": "Kyle Vena",
    "description": "Print Advertising",
    "phone": "(727) 564-8724",
    "address": "2310 Tall Pines Dr Ste 220  largo, FL 33771",
    "location": "Seminole"
  },
  {
    "name": "Just Click It Digital Marketing",
    "description": "Internet Marketing & Advertising",
    "phone": "(866) 757-7337",
    "address": "1301 Seminole Blvd Ste 13  Largo, FL 33770",
    "location": "Seminole"
  },
  {
    "name": "Epic Digital Marketing Online Services",
    "description": "Internet Marketing & Advertising",
    "phone": "(727) 223-9772",
    "address": "207 Canterbury Ln  Largo, FL 33770",
    "location": "Seminole"
  },
  {
    "name": "Wenzel",
    "description": "Internet Marketing & Advertising",
    "phone": "(727) 451-9426",
    "address": "205 Beach Trl  Indian Rocks Beach, FL 33785",
    "location": "Seminole"
  },
  {
    "name": "Yogabound Co Inc",
    "description": "Internet Marketing & Advertising",
    "phone": "(727) 586-5670",
    "address": "1201 Harbor Hills Dr  Largo, FL 33770",
    "location": "Seminole"
  },
  {
    "name": "Thru Sign",
    "description": "Internet Marketing & Advertising",
    "phone": "(727) 547-4020",
    "address": "5670 54th Ave N  Kenneth City, FL 33709",
    "location": "Seminole"
  },
  {
    "name": "EMP",
    "description": "Internet Marketing & Advertising",
    "phone": "(727) 492-1240",
    "address": "PO Box 2193  Pinellas Park, FL 33780",
    "location": "Seminole"
  },
  {
    "name": "Property Searchlight Online Magazine",
    "description": "Publishers-Directory & Guide",
    "phone": "(727) 678-9807",
    "address": "2840 W Bay Dr  Belleair Bluffs, FL 33770",
    "location": "Seminole"
  },
  {
    "name": "Wareham-Online.com",
    "description": "Internet Marketing & Advertising",
    "phone": "(727) 498-4736",
    "address": "507 Janice Pl  Indian Rocks Beach, FL 33785",
    "location": "Seminole"
  },
  {
    "name": "Vanityskitchens2Go.com",
    "description": "Internet Marketing & Advertising",
    "phone": "(850) 481-5945",
    "address": "2655 E Bay Dr  Largo, FL 33771",
    "location": "Seminole"
  },
  {
    "name": "Coast 2 Coast Bargain's",
    "description": "Internet Marketing & Advertising",
    "phone": "(727) 226-7782",
    "address": "447 6th Ave NE  Largo, FL 33770",
    "location": "Seminole"
  },
  {
    "name": "Florida City Net Inc",
    "description": "Internet Marketing & Advertising",
    "phone": "(727) 527-8161",
    "address": "4850 72nd Ave N  Pinellas Park, FL 33781",
    "location": "Seminole"
  },
  {
    "name": "Reliablewebsitehost.com",
    "description": "Internet Marketing & Advertising",
    "phone": "(727) 328-4794",
    "address": "4850 68th Ave N  Pinellas Park, FL 33781",
    "location": "Seminole"
  },
  {
    "name": "Isleepbetter.com",
    "description": "Internet Marketing & Advertising",
    "phone": "(727) 892-2928",
    "address": "5800 49th St N  Saint Petersburg, FL 33709",
    "location": "Seminole"
  },
  {
    "name": "Tenevlaw-Bg.com",
    "description": "Internet Marketing & Advertising",
    "phone": "(727) 697-7173",
    "address": "4605 49th St N  Saint Petersburg, FL 33709",
    "location": "Seminole"
  },
  {
    "name": "Liveconferences.com",
    "description": "Internet Marketing & Advertising",
    "phone": "(727) 341-1674",
    "address": "1184 79th St S  Saint Petersburg, FL 33707",
    "location": "Seminole"
  },
  {
    "name": "ZRP Video",
    "description": "Internet Marketing & Advertising",
    "phone": "(727) 538-4176",
    "address": "13575 58th St N Ste 200  Clearwater, FL 33760",
    "location": "Seminole"
  },
  {
    "name": "Best in Class Seo Inc",
    "description": "Internet Marketing & Advertising",
    "phone": "(877) 225-5821",
    "address": "13575 58th St N Ste 171  Clearwater, FL 33760",
    "location": "Seminole"
  },
  {
    "name": "King Media Ventures LLC",
    "description": "Internet Marketing & Advertising",
    "phone": "(888) 325-1068",
    "address": "13575 58th St N Ste 205  Clearwater, FL 33760",
    "location": "Seminole"
  },
  {
    "name": "Bluewater Media",
    "description": "Internet Marketing & Advertising",
    "phone": "(813) 944-2926",
    "address": "14375 Myerlake Cir  Clearwater, FL 33760",
    "location": "Seminole"
  },
  {
    "name": "Ronguerin.com",
    "description": "Internet Marketing & Advertising",
    "phone": "(727) 510-3701",
    "address": "250 58th St N  Saint Petersburg, FL 33710",
    "location": "Seminole"
  },
  {
    "name": "T M-Techmark.com Corp",
    "description": "Internet Marketing & Advertising",
    "phone": "(203) 272-3559",
    "address": "6800 Gulfport Blvd S  South Pasadena, FL 33707",
    "location": "Seminole"
  },
  {
    "name": "Advanced Digital Automotive Group",
    "description": "Internet Marketing & Advertising",
    "phone": "(727) 201-0069",
    "address": "4600 140th Ave N Ste 180B  Clearwater, FL 33762",
    "location": "Seminole"
  },
  {
    "name": "Gatorballs.com",
    "description": "Internet Marketing & Advertising",
    "phone": "(727) 510-8013",
    "address": "7407 Sunset Way  St Pete Beach, FL 33706",
    "location": "Seminole"
  },
  {
    "name": "JGreen Marketing Corporation",
    "description": "Internet Marketing & Advertising",
    "phone": "(727) 265-0985",
    "address": "1307 Boylan Ave  Clearwater, FL 33756",
    "location": "Seminole"
  },
  {
    "name": "Beachbumexcursion.com",
    "description": "Internet Marketing & Advertising",
    "phone": "(800) 286-4887",
    "address": "5903 Bimini Way N  St Pete Beach, FL 33706",
    "location": "Seminole"
  },
  {
    "name": "Direct Contact Marketing",
    "description": "Internet Marketing & Advertising",
    "phone": "(813) 699-9277",
    "address": "611 S Ft Harrison Ave Suite 244  Clearwater, FL 33756",
    "location": "Seminole"
  },
  {
    "name": "Socially United Information Technologies",
    "description": "Internet Marketing & Advertising",
    "phone": "(727) 481-7267",
    "address": "4550 21st St N  Saint Petersburg, FL 33714",
    "location": "Seminole"
  },
  {
    "name": "Your Ad Television Inc",
    "description": "Internet Marketing & Advertising",
    "phone": "(727) 323-1390",
    "address": "3125 5th Ave N  Saint Petersburg, FL 33713",
    "location": "Seminole"
  },
  {
    "name": "Tampa Bay Interconnect",
    "description": "Internet Marketing & Advertising",
    "phone": "(727) 578-2662",
    "address": "700 Carillon Pkwy  Saint Petersburg, FL 33716",
    "location": "Seminole"
  },
  {
    "name": "Core Vision Group",
    "description": "Marketing Consultants",
    "phone": "(877) 472-1629",
    "address": "10341 66th St N Ste 382  Pinellas Park, FL 33782",
    "location": "Seminole"
  },
  {
    "name": "Infinity Marketing Group",
    "description": "Marketing Consultants",
    "phone": "(727) 581-1810",
    "address": "1501 Lake Ave SE  Largo, FL 33771",
    "location": "Seminole"
  },
  {
    "name": "The Marketing Source",
    "description": "Marketing Consultants",
    "phone": "(727) 530-1720",
    "address": "12600 Belcher Rd S  Largo, FL 33773",
    "location": "Seminole"
  },
  {
    "name": "GP&M Advisory Services, Inc.",
    "description": "Business Coaches & Consultants",
    "phone": "(727) 545-5093",
    "address": "11350 66th St  Largo, FL 33773",
    "location": "Seminole"
  },
  {
    "name": "Vici Marketing Group",
    "description": "Cellular Telephone Service",
    "phone": "(727) 533-8730",
    "address": "11515 66th St  Largo, FL 33773",
    "location": "Seminole"
  },
  {
    "name": "613Creative",
    "description": "Marketing Consultants",
    "phone": "(727) 709-1035",
    "address": "613 2nd Street #1  Indian Rocks Beach, FL 33785",
    "location": "Seminole"
  },
  {
    "name": "Makiby Promotions of Florida",
    "description": "Advertising-Promotional Products",
    "phone": "(727) 595-1510",
    "address": "702 2nd St  Indian Rocks Beach, FL 33785",
    "location": "Seminole"
  },
  {
    "name": "Worker Insights",
    "description": "Marketing Consultants",
    "phone": "(727) 592-8234",
    "address": "6822 22nd Ave N  Saint Petersburg, FL 33710",
    "location": "Seminole"
  },
  {
    "name": "HD Hudson Design & Marketing",
    "description": "Marketing Consultants",
    "phone": "(727) 564-2645",
    "address": "6803 16th Pl N  Saint Petersburg, FL 33710",
    "location": "Seminole"
  },
  {
    "name": "American Vacant Lot Services",
    "description": "Marketing Consultants",
    "phone": "(727) 623-4820",
    "address": "5560 56th Way N  Saint Petersburg, FL 33709",
    "location": "Seminole"
  },
  {
    "name": "Envision Market",
    "description": "Marketing Consultants",
    "phone": "(727) 216-6192",
    "address": "1200 Belcher Rd S  Largo, FL 33771",
    "location": "Seminole"
  },
  {
    "name": "Energy Marketing Group Ll",
    "description": "Marketing Consultants",
    "phone": "(727) 754-9557",
    "address": "801 W Bay Dr  Largo, FL 33770",
    "location": "Seminole"
  },
  {
    "name": "Slwm",
    "description": "Advertising Agencies",
    "phone": "(727) 531-1112",
    "address": "12161 62nd St  Largo, FL 33773",
    "location": "Seminole"
  },
  {
    "name": "Image Station",
    "description": "Marketing Consultants",
    "phone": "(727) 821-2424",
    "address": "8150 52nd St N  Pinellas Park, FL 33781",
    "location": "Seminole"
  },
  {
    "name": "Theodore Barber & Company",
    "description": "Marketing Consultants",
    "phone": "(727) 581-5522",
    "address": "1715 E Bay Dr Ste E  Largo, FL 33771",
    "location": "Seminole"
  },
  {
    "name": "Innovative Marketing of America",
    "description": "Marketing Consultants",
    "phone": "(727) 532-4141",
    "address": "1101 Belcher Rd S  Largo, FL 33771",
    "location": "Seminole"
  },
  {
    "name": "Dial Directories",
    "description": "Publishers-Directory & Guide",
    "phone": "(727) 585-1100",
    "address": "2401 W Bay Dr Ste 430  Largo, FL 33770",
    "location": "Seminole"
  },
  {
    "name": "Phillips Sales & Marketing",
    "description": "Marketing Consultants",
    "phone": "(727) 581-1500",
    "address": "2401 W Bay Dr Ste 304  Largo, FL 33770",
    "location": "Seminole"
  },
  {
    "name": "Professional Media Group",
    "description": "Marketing Consultants",
    "phone": "(727) 584-5511",
    "address": "1915 E Bay Dr Ste B3  Largo, FL 33771",
    "location": "Seminole"
  },
  {
    "name": "Mark My Words Media Inc",
    "description": "Advertising Agencies",
    "phone": "(800) 243-2077",
    "address": "10228 Paradise Blvd  Treasure Island, FL 33706",
    "location": "Seminole"
  },
  {
    "name": "Clear Advantage Profit Solutions",
    "description": "Business Coaches & Consultants",
    "phone": "(727) 230-0609",
    "address": "2840 W Bay Dr # 334  Belleair Bluffs, FL 33770",
    "location": "Seminole"
  },
  {
    "name": "Asset Recovery & Conversion",
    "description": "Marketing Consultants",
    "phone": "(727) 524-2400",
    "address": "13749 65th St  Largo, FL 33771",
    "location": "Seminole"
  },
  {
    "name": "Admark Marketing",
    "description": "Marketing Consultants",
    "phone": "(727) 530-1438",
    "address": "3900 Belle Oak Blvd  Largo, FL 33771",
    "location": "Seminole"
  },
  {
    "name": "Primary Marketing System",
    "description": "Marketing Consultants",
    "phone": "(727) 531-0555",
    "address": "13900 US Highway 19 N  Clearwater, FL 33764",
    "location": "Seminole"
  },
  {
    "name": "Action Gem",
    "description": "Marketing Consultants",
    "phone": "(800) 736-9942",
    "address": "5270 36th Ave N  Saint Petersburg, FL 33710",
    "location": "Seminole"
  },
  {
    "name": "Enspire Marketing",
    "description": "Marketing Consultants",
    "phone": "(727) 916-7102",
    "address": "10300 49th St N Suite 410  Clearwater, FL 33762",
    "location": "Seminole"
  },
  {
    "name": "St Clair Group Inc",
    "description": "Marketing Consultants",
    "phone": "(727) 530-5887",
    "address": "4175 E Bay Dr  Clearwater, FL 33764",
    "location": "Seminole"
  },
  {
    "name": "Competitive Web",
    "description": "Graphic Designers",
    "phone": "(727) 687-0405",
    "address": "4491 62nd Ave N  Pinellas Park, FL 33781",
    "location": "Seminole"
  },
  {
    "name": "Medicare Marketing",
    "description": "Marketing Consultants",
    "phone": "(800) 443-1702",
    "address": "4625 E Bay Dr  Clearwater, FL 33764",
    "location": "Seminole"
  },
  {
    "name": "Nuview Marketing",
    "description": "Marketing Consultants",
    "phone": "(727) 754-9743",
    "address": "4625 E Bay Dr Ste 103  Clearwater, FL 33764",
    "location": "Seminole"
  },
  {
    "name": "Utilities Marketing Group",
    "description": "Telemarketing Services",
    "phone": "(727) 572-0601",
    "address": "13161 56th Ct  Clearwater, FL 33760",
    "location": "Seminole"
  },
  {
    "name": "Marketing Solutions",
    "description": "Marketing Consultants",
    "phone": "(727) 538-4167",
    "address": "13575 58th St N  Clearwater, FL 33760",
    "location": "Seminole"
  },
  {
    "name": "Global B2b",
    "description": "Marketing Consultants",
    "phone": "(727) 475-1019",
    "address": "14350 60th St N  Clearwater, FL 33760",
    "location": "Seminole"
  },
  {
    "name": "Quik Companies Inc",
    "description": "Marketing Consultants",
    "phone": "(727) 527-5000",
    "address": "6255 42nd St N  Pinellas Park, FL 33781",
    "location": "Seminole"
  },
  {
    "name": "Rapid Response Marketing & PR",
    "description": "Marketing Consultants",
    "phone": "(866) 983-3025",
    "address": "6860 Gulfport Blvd S  South Pasadena, FL 33707",
    "location": "Seminole"
  },
  {
    "name": "Q A Worldwide",
    "description": "Marketing Consultants",
    "phone": "(727) 299-9190",
    "address": "4740 126th Ave N  Clearwater, FL 33762",
    "location": "Seminole"
  },
  {
    "name": "Aspire Marketing",
    "description": "Marketing Consultants",
    "phone": "(727) 914-7019",
    "address": "4900 Creekside Dr  Clearwater, FL 33760",
    "location": "Seminole"
  },
  {
    "name": "Dreamgiveaway.Com",
    "description": "Marketing Consultants",
    "phone": "(727) 592-2364",
    "address": "4911 Creekside Dr  Clearwater, FL 33760",
    "location": "Seminole"
  },
  {
    "name": "Focused Marketing",
    "description": "Marketing Consultants",
    "phone": "(727) 593-3754",
    "address": "612 Belle Isle Ave  Belleair Beach, FL 33786",
    "location": "Seminole"
  },
  {
    "name": "Southland Marketing",
    "description": "Marketing Consultants",
    "phone": "(727) 345-1030",
    "address": "5665 Central Ave  Saint Petersburg, FL 33710",
    "location": "Seminole"
  },
  {
    "name": "The St Clair Group Inc",
    "description": "Marketing Consultants",
    "phone": "(727) 530-5887",
    "address": "4707 140th Ave N  Clearwater, FL 33762",
    "location": "Seminole"
  },
  {
    "name": "GSP Marketing Technologies, Inc",
    "description": "Business Coaches & Consultants",
    "phone": "(727) 532-0647",
    "address": "14055 46th St N  Clearwater, FL 33762",
    "location": "Seminole"
  },
  {
    "name": "Group Inc Lam",
    "description": "Marketing Consultants",
    "phone": "(727) 333-7900",
    "address": "1584 Oak Ln  Clearwater, FL 33764",
    "location": "Seminole"
  },
  {
    "name": "Springboard Consultants",
    "description": "Marketing Consultants",
    "phone": "(727) 524-9696",
    "address": "4500 140th Ave N  Clearwater, FL 33762",
    "location": "Seminole"
  },
  {
    "name": "Mail Marketing Services",
    "description": "Mail & Shipping Services",
    "phone": "(727) 556-2500",
    "address": "3638 131st Ave N  Clearwater, FL 33762",
    "location": "Seminole"
  },
  {
    "name": "Hype Group",
    "description": "Marketing Consultants",
    "phone": "(727) 623-9085",
    "address": "4563 Central Ave  Saint Petersburg, FL 33713",
    "location": "Seminole"
  },
  {
    "name": "Galaxy Marketing Solutions",
    "description": "Marketing Consultants",
    "phone": "(727) 540-0100",
    "address": "11800 30th Ct N  Saint Petersburg, FL 33716",
    "location": "Seminole"
  },
  {
    "name": "Zeraq",
    "description": "Advertising-Promotional Products",
    "phone": "(727) 323-9819",
    "address": "4265 Central Ave  Saint Petersburg, FL 33713",
    "location": "Seminole"
  },
  {
    "name": "Total Marketing Solutions",
    "description": "Marketing Consultants",
    "phone": "(727) 532-0803",
    "address": "18469 Us Highway 19 N  Clearwater, FL 33764",
    "location": "Seminole"
  },
  {
    "name": "Majestic Marketing",
    "description": "Marketing Consultants",
    "phone": "(727) 384-0500",
    "address": "5714 Gulfport Blvd S  Gulfport, FL 33707",
    "location": "Seminole"
  },
  {
    "name": "Pros Marketing Of America",
    "description": "Marketing Consultants",
    "phone": "(727) 461-1211",
    "address": "611 Druid Rd E  Clearwater, FL 33756",
    "location": "Seminole"
  },
  {
    "name": "World Media Technologies Inc",
    "description": "Computer Software & Services",
    "phone": "(727) 252-3373",
    "address": "2862 21st Ave N  Saint Petersburg, FL 33713",
    "location": "Seminole"
  },
  {
    "name": "Tilly Berry 200",
    "description": "Marketing Consultants",
    "phone": "(727) 322-8945",
    "address": "2585 27th Ave N  Saint Petersburg, FL 33713",
    "location": "Seminole"
  },
  {
    "name": "Dolan Media and Design",
    "description": "Marketing Consultants",
    "phone": "(813) 563-2261",
    "address": "5927 Bayview Cir S  Gulfport, FL 33707",
    "location": "Seminole"
  },
  {
    "name": "Circosta Bob Communications",
    "description": "Marketing Consultants",
    "phone": "(727) 572-8855",
    "address": "3001 Executive Dr  Clearwater, FL 33762",
    "location": "Seminole"
  },
  {
    "name": "Innovative Marketing Of America",
    "description": "Marketing Consultants",
    "phone": "(727) 532-4141",
    "address": "1101 S Belcher Rd  Clearwater, FL 33764",
    "location": "Seminole"
  },
  {
    "name": "Strops Marketing Inc",
    "description": "Advertising Agencies",
    "phone": "(727) 462-0019",
    "address": "635 Court St  Clearwater, FL 33756",
    "location": "Seminole"
  },
  {
    "name": "The Clarke Group Inc",
    "description": "Marketing Consultants",
    "phone": "(727) 573-3610",
    "address": "2575 Ulmerton Rd  Clearwater, FL 33762",
    "location": "Seminole"
  },
  {
    "name": "Wreck Ignition Marketing",
    "description": "Marketing Consultants",
    "phone": "(727) 677-9483",
    "address": "2845 7th Ave N  Saint Petersburg, FL 33713",
    "location": "Seminole"
  },
  {
    "name": "Cliktree",
    "description": "Marketing Consultants",
    "phone": "(727) 220-5923",
    "address": "2845 7th Ave N  Saint Petersburg, FL 33713",
    "location": "Seminole"
  },
  {
    "name": "Pinstripe Marketing",
    "description": "Marketing Consultants",
    "phone": "(727) 214-1555",
    "address": "1728 46th Ave N  Saint Petersburg, FL 33714",
    "location": "Seminole"
  },
  {
    "name": "J&M Impact Management",
    "description": "Marketing Consultants",
    "phone": "(813) 482-5473",
    "address": "970 Carillon Pkwy  Saint Petersburg, FL 33716",
    "location": "Seminole"
  },
  {
    "name": "Ameri Life Group",
    "description": "Marketing Programs & Services",
    "phone": "(727) 726-0726",
    "address": "2650 Mccormick Dr  Clearwater, FL 33759",
    "location": "Seminole"
  },
  {
    "name": "P3 Agency",
    "description": "Marketing Programs & Services",
    "phone": "(727) 224-3543",
    "address": "325 N Belcher Rd  Clearwater, FL 33765",
    "location": "Seminole"
  },
  {
    "name": "Sticky Multimedia",
    "description": "Marketing Programs & Services",
    "phone": "(727) 403-7803",
    "address": "300 82nd Ave N  Saint Petersburg, FL 33702",
    "location": "Seminole"
  },
  {
    "name": "Agency Marketing Services",
    "description": "Marketing Programs & Services",
    "phone": "(727) 384-1036",
    "address": "9800 4th St N  Saint Petersburg, FL 33702",
    "location": "Seminole"
  },
  {
    "name": "Calusa Marketing",
    "description": "Marketing Programs & Services",
    "phone": "(800) 946-0997",
    "address": "111 2nd Ave NE Ste 802  Saint Petersburg, FL 33701",
    "location": "Seminole"
  },
  {
    "name": "Five Mile Marketing",
    "description": "Marketing Programs & Services",
    "phone": "(727) 220-5923",
    "address": "200 2nd Ave S  St Petersburg, FL 33701",
    "location": "Seminole"
  },
  {
    "name": "Painter Marketing Pros",
    "description": "Marketing Programs & Services",
    "phone": "(800) 813-4385",
    "address": "4047 Overlook Dr NE  Saint Petersburg, FL 33703",
    "location": "Seminole"
  },
  {
    "name": "Eckerd Connects",
    "description": "Marketing Programs & Services",
    "phone": "(727) 461-2990",
    "address": "100 N Starcrest Dr  Clearwater, FL 33765",
    "location": "Seminole"
  },
  {
    "name": "Acquirgy",
    "description": "Marketing Programs & Services",
    "phone": "(727) 576-6630",
    "address": "877 Executive Center Dr W Ste 300  Saint Petersburg, FL 33702",
    "location": "Seminole"
  },
  {
    "name": "Unilens Corp USA",
    "description": "Marketing Programs & Services",
    "phone": "(727) 544-2531",
    "address": "21 N Park Place Blvd  Clearwater, FL 33759",
    "location": "Seminole"
  },
  {
    "name": "AM Digital Productions LLC",
    "description": "Marketing Programs & Services",
    "phone": "(813) 668-2706",
    "address": "7901 4th St N  Saint Petersburg, FL 33702",
    "location": "Seminole"
  },
  {
    "name": "Music Promo BHT",
    "description": "Marketing Programs & Services",
    "phone": "(727) 403-1046",
    "address": "431 11th Ave N  Saint Petersburg, FL 33701",
    "location": "Seminole"
  },
  {
    "name": "St Petersburg Saturday Morning Market",
    "description": "Marketing Programs & Services",
    "phone": "(727) 455-4921",
    "address": "Al Lang Stadium Parking Lot 101 1st St Se  St. Petersburg, FL 33701",
    "location": "Seminole"
  },
  {
    "name": "Marketing Clearwater",
    "description": "Marketing Programs & Services",
    "phone": "(727) 953-2963",
    "address": "2454 Australia Way E  Clearwater, FL 33763",
    "location": "Seminole"
  },
  {
    "name": "4 Sight Marketing Inc",
    "description": "Marketing Programs & Services",
    "phone": "(727) 938-3313",
    "address": "1350 County Road 1  Dunedin, FL 34697",
    "location": "Seminole"
  },
  {
    "name": "Marketleef",
    "description": "Marketing Programs & Services",
    "phone": "(727) 469-3057",
    "address": "2451 N Mcmullen Booth Rd Ste 250  Clearwater, FL 33759",
    "location": "Seminole"
  },
  {
    "name": "Loop",
    "description": "Marketing Programs & Services",
    "phone": "(877) 850-2010",
    "address": "33 N Garden Ave Lbby  Clearwater, FL 33755",
    "location": "Seminole"
  },
  {
    "name": "Creative Business Strategies",
    "description": "Marketing Programs & Services",
    "phone": "(727) 304-5000",
    "address": "2057 Dawn Dr  Clearwater, FL 33763",
    "location": "Seminole"
  },
  {
    "name": "Citywide Source",
    "description": "Marketing Programs & Services",
    "phone": "(727) 202-9043",
    "address": "970 Lake Carillon Dr  Saint Petersburg, FL 33716",
    "location": "Seminole"
  },
  {
    "name": "Lighthouse Sales & Marketing",
    "description": "Marketing Programs & Services",
    "phone": "(727) 443-1400",
    "address": "1130 Cleveland St  Clearwater, FL 33755",
    "location": "Seminole"
  },
  {
    "name": "Florida Spine Institute",
    "description": "Marketing Programs & Services",
    "phone": "(727) 465-5100",
    "address": "1280 Cleveland St  Clearwater, FL 33755",
    "location": "Seminole"
  },
  {
    "name": "Coffee Chameleon Media",
    "description": "Marketing Programs & Services",
    "phone": "(727) 303-3806",
    "address": "2380 Drew St  Clearwater, FL 33765",
    "location": "Seminole"
  },
  {
    "name": "The Pog Group",
    "description": "Marketing Programs & Services",
    "phone": "(866) 875-8956",
    "address": "7901 4th St N Ste 4532  Saint Petersburg, FL 33702",
    "location": "Seminole"
  },
  {
    "name": "Capital Marketing Solutions Inc",
    "description": "Marketing Programs & Services",
    "phone": "(727) 216-6393",
    "address": "21937 Us Highway 19 N  Clearwater, FL 33765",
    "location": "Seminole"
  },
  {
    "name": "Evolve & Co",
    "description": "Marketing Programs & Services",
    "phone": "(727) 914-8780",
    "address": "475 Central Ave  Saint Petersburg, FL 33701",
    "location": "Seminole"
  },
  {
    "name": "Phoenix 3 Marketing",
    "description": "Marketing Programs & Services",
    "phone": "(727) 592-1916",
    "address": "76 4th St N  Saint Petersburg, FL 33701",
    "location": "Seminole"
  },
  {
    "name": "Marketing Mate",
    "description": "Marketing Programs & Services",
    "phone": "(610) 246-5911",
    "address": "430 3rd Ave S  St Petersburg, FL 33701",
    "location": "Seminole"
  },
  {
    "name": "Paradise Advertising & Marketing, Inc.",
    "description": "Marketing Programs & Services",
    "phone": "(727) 821-5155",
    "address": "150 2nd Ave N Ste 800  Saint Petersburg, FL 33701",
    "location": "Seminole"
  },
  {
    "name": "Florida Progress Corporation",
    "description": "Marketing Programs & Services",
    "phone": "(727) 824-6400",
    "address": "1 Progress Plz  Saint Petersburg, FL 33701",
    "location": "Seminole"
  },
  {
    "name": "Family & Friends Financial",
    "description": "Marketing Programs & Services",
    "phone": "(727) 895-6551",
    "address": "1 Progress Plz  Saint Petersburg, FL 33701",
    "location": "Seminole"
  },
  {
    "name": "Diamond Star Media",
    "description": "Marketing Programs & Services",
    "phone": "(727) 822-4674",
    "address": "100 2nd Ave S  Saint Petersburg, FL 33701",
    "location": "Seminole"
  },
  {
    "name": "Skyway Media",
    "description": "Marketing Programs & Services",
    "phone": "(727) 317-6826",
    "address": "1029 Central Ave Ste 200 St. Petersburg Fl 33705 Usa  St. Petersburg, FL 33705",
    "location": "Seminole"
  },
  {
    "name": "Horizon Marketing Group Inc",
    "description": "Marketing Programs & Services",
    "phone": "(727) 525-0034",
    "address": "3900 14th St NE  Saint Petersburg, FL 33703",
    "location": "Seminole"
  },
  {
    "name": "Rdo Marketing",
    "description": "Marketing Programs & Services",
    "phone": "(727) 526-3030",
    "address": "3948 14th Way NE  Saint Petersburg, FL 33703",
    "location": "Seminole"
  },
  {
    "name": "The CShop-Quadrant Sales & Marketing",
    "description": "Marketing Programs & Services",
    "phone": "(727) 733-6959",
    "address": "Po Box 2156  Dunedin, FL 34697",
    "location": "Seminole"
  },
  {
    "name": "Global Marketing Resources",
    "description": "Marketing Programs & Services",
    "phone": "(727) 738-4200",
    "address": "1415 Pinehurst Rd Ste M  Dunedin, FL 34698",
    "location": "Seminole"
  },
  {
    "name": "Reache Eblast Marketing",
    "description": "Marketing Programs & Services",
    "phone": "(727) 798-6861",
    "address": "3135 1st Ave N  Saint Petersburg, FL 33730",
    "location": "Seminole"
  },
  {
    "name": "Sliverbox Studios",
    "description": "Marketing Programs & Services",
    "phone": "(727) 418-3282",
    "address": "970 Lake Carillon Dr  Saint Petersburg, FL 33716",
    "location": "Seminole"
  },
  {
    "name": "Wabamm",
    "description": "Marketing Programs & Services",
    "phone": "(727) 301-6245",
    "address": "645 Cleveland St  Clearwater, FL 33755",
    "location": "Seminole"
  },
  {
    "name": "Michael Baybak & Co",
    "description": "Marketing Programs & Services",
    "phone": "(727) 443-0000",
    "address": "331 Cleveland St  Clearwater, FL 33755",
    "location": "Seminole"
  },
  {
    "name": "Dark Horse Marketing",
    "description": "Marketing Programs & Services",
    "phone": "(714) 262-3333",
    "address": "207 Vine Ave  Clearwater, FL 33755",
    "location": "Seminole"
  },
  {
    "name": "The Agile Marketing Academy",
    "description": "Marketing Programs & Services",
    "phone": "(773) 941-0972",
    "address": "2732 6th Ave S  Saint Petersburg, FL 33712",
    "location": "Seminole"
  },
  {
    "name": "Michael Baybak & Company",
    "description": "Marketing Programs & Services",
    "phone": "(727) 443-0000",
    "address": "2110 Drew St  Clearwater, FL 33765",
    "location": "Seminole"
  },
  {
    "name": "Global Service Solutions",
    "description": "Marketing Programs & Services",
    "phone": "(727) 827-2824",
    "address": "1411 16th St N  Saint Petersburg, FL 33704",
    "location": "Seminole"
  },
  {
    "name": "O'Neill Marketing",
    "description": "Marketing Programs & Services",
    "phone": "(813) 489-4156",
    "address": "2260 1st Ave S  Saint Petersburg, FL 33712",
    "location": "Seminole"
  },
  {
    "name": "Affluent Media Network",
    "description": "Marketing Programs & Services",
    "phone": "(727) 466-0433",
    "address": "200 Brightwater Dr  Clearwater Beach, FL 33767",
    "location": "Seminole"
  },
  {
    "name": "Chain Drug Marketing Association Inc",
    "description": "Marketing Programs & Services",
    "phone": "(248) 449-9300",
    "address": "9620 Executive Center Dr N  Saint Petersburg, FL 33702",
    "location": "Seminole"
  },
  {
    "name": "Smart Marketing Group",
    "description": "Marketing Programs & Services",
    "phone": "(727) 798-7988",
    "address": "764 Forest Glen Rd  Clearwater, FL 33765",
    "location": "Seminole"
  },
  {
    "name": "Millionaire Marketing Inc.",
    "description": "Marketing Programs & Services",
    "phone": "(727) 562-0880",
    "address": "140 Island Way # 248  Clearwater Beach, FL 33767",
    "location": "Seminole"
  },
  {
    "name": "Tsunami Marketing",
    "description": "Marketing Programs & Services",
    "phone": "(727) 895-6264",
    "address": "726 25th Ave N  Saint Petersburg, FL 33704",
    "location": "Seminole"
  },
  {
    "name": "JB Edwards",
    "description": "Marketing Programs & Services",
    "phone": "(727) 736-0880",
    "address": "2069 Range Rd  Clearwater, FL 33765",
    "location": "Seminole"
  },
  {
    "name": "Gozone Wifi",
    "description": "Marketing Programs & Services",
    "phone": "(727) 314-6910",
    "address": "1211 1st Ave N  Saint Petersburg, FL 33705",
    "location": "Seminole"
  },
  {
    "name": "MR Marketing",
    "description": "Marketing Programs & Services",
    "phone": "(727) 471-8262",
    "address": "4435 1st st ne unit 105  Saint Petersburg, FL 33703",
    "location": "Seminole"
  },
  {
    "name": "J2 Web Marketing",
    "description": "Marketing Programs & Services",
    "phone": "(727) 410-2288",
    "address": "204 37th Ave N  Saint Petersburg, FL 33704",
    "location": "Seminole"
  },
  {
    "name": "Team Inc Corporate Marketing",
    "description": "Marketing Programs & Services",
    "phone": "(727) 577-8051",
    "address": "115 112th Ave NE  Saint Petersburg, FL 33716",
    "location": "Seminole"
  },
  {
    "name": "1 Smart Puppy",
    "description": "Marketing Programs & Services",
    "phone": "(727) 235-2841",
    "address": "4920 Locust St NE  Saint Petersburg, FL 33703",
    "location": "Seminole"
  },
  {
    "name": "Get on Social",
    "description": "Marketing Programs & Services",
    "phone": "(877) 504-3385",
    "address": "696 1st Ave N  Saint Petersburg, FL 33701",
    "location": "Seminole"
  },
  {
    "name": "Sandi Brown Marketing",
    "description": "Marketing Programs & Services",
    "phone": "(727) 824-8889",
    "address": "623 Segovia Ct NE  Saint Petersburg, FL 33703",
    "location": "Seminole"
  },
  {
    "name": "Precision Marketing",
    "description": "Marketing Programs & Services",
    "phone": "(727) 443-5263",
    "address": "1901 N Highland Ave  Clearwater, FL 33755",
    "location": "Seminole"
  },
  {
    "name": "Peer360-Horizon Marketing Group Company",
    "description": "Marketing Programs & Services",
    "phone": "(727) 420-9883",
    "address": "475 Central Ave  Saint Petersburg, FL 33701",
    "location": "Seminole"
  },
  {
    "name": "Marxent Labs",
    "description": "Marketing Programs & Services",
    "phone": "(727) 851-9522",
    "address": "433 Central Ave Ste 204  Saint Petersburg, FL 33701",
    "location": "Seminole"
  },
  {
    "name": "Communications Inc",
    "description": "Marketing Programs & Services",
    "phone": "(727) 892-9280",
    "address": "360 Central Ave Ste 420  Saint Petersburg, FL 33701",
    "location": "Seminole"
  },
  {
    "name": "Cyclespoke",
    "description": "Marketing Programs & Services",
    "phone": "(800) 476-3340",
    "address": "360 Central Ave  Saint Petersburg, FL 33701",
    "location": "Seminole"
  },
  {
    "name": "Empower Network, LLC.",
    "description": "Marketing Programs & Services",
    "phone": "(727) 328-4104",
    "address": "146 2nd St N Ste 201  Saint Petersburg, FL 33701",
    "location": "Seminole"
  },
  {
    "name": "Natda",
    "description": "Marketing Programs & Services",
    "phone": "(727) 538-4167",
    "address": "111 2nd Ave NE Ste 900  Saint Petersburg, FL 33701",
    "location": "Seminole"
  },
  {
    "name": "Harrington Multi Media Marketing",
    "description": "Marketing Programs & Services",
    "phone": "(727) 230-1036",
    "address": "7400 14th St NE  Saint Petersburg, FL 33702",
    "location": "Seminole"
  },
  {
    "name": "T2 Marketing",
    "description": "Marketing Programs & Services",
    "phone": "(727) 351-1976",
    "address": "200 2nd Ave S  Saint Petersburg, FL 33701",
    "location": "Seminole"
  },
  {
    "name": "Fastflow Marketing",
    "description": "Marketing Programs & Services",
    "phone": "(307) 223-9109",
    "address": "2001 World Parkway Blvd  Clearwater, FL 33763",
    "location": "Seminole"
  },
  {
    "name": "Capitol Marketing Concepts Inc",
    "description": "Marketing Programs & Services",
    "phone": "(727) 895-8151",
    "address": "696 1st Ave N Ste 400  Saint Petersburg, FL 33701",
    "location": "Seminole"
  },
  {
    "name": "411 Clearwater",
    "description": "Marketing Programs & Services",
    "phone": "(727) 238-2020",
    "address": "880 Mandalay Ave  Clearwater Beach, FL 33767",
    "location": "Seminole"
  },
  {
    "name": "Sales Up Solutions",
    "description": "Marketing Programs & Services",
    "phone": "(727) 755-3614",
    "address": "204 37th Ave N  Saint Petersburg, FL 33704",
    "location": "Seminole"
  },
  {
    "name": "MH Consulting",
    "description": "Marketing Programs & Services",
    "phone": "(727) 470-5543",
    "address": "2601 47th St S  Gulfport, FL 33711",
    "location": "Seminole"
  },
  {
    "name": "Kobie Marketing",
    "description": "Marketing Programs & Services",
    "phone": "(727) 822-5353",
    "address": "111 2nd Ave NE  Saint Petersburg, FL 33701",
    "location": "Seminole"
  },
  {
    "name": "Prosperous Concepts",
    "description": "Marketing Programs & Services",
    "phone": "(727) 403-0482",
    "address": "411 Cleveland St # 238  Clearwater, FL 33755",
    "location": "Seminole"
  },
  {
    "name": "Affordable SEO Company Clearwater",
    "description": "Marketing Programs & Services",
    "phone": "(813) 321-0577",
    "address": "2451 N Mcmullen Booth Rd Ste 205  Clearwater, FL 33759",
    "location": "Seminole"
  },
  {
    "name": "Catalina Marketing Corporation",
    "description": "Marketing Programs & Services",
    "phone": "(727) 579-5000",
    "address": "200 Carillon Pkwy  Saint Petersburg, FL 33716",
    "location": "Seminole"
  },
  {
    "name": "Ubee Marketing",
    "description": "Marketing Programs & Services",
    "phone": "(727) 400-3257",
    "address": "1447 Drew St  Clearwater, FL 33755",
    "location": "Seminole"
  },
  {
    "name": "Belt Creative",
    "description": "Marketing Programs & Services",
    "phone": "(585) 204-0292",
    "address": "8100 6th St N  Saint Petersburg, FL 33702",
    "location": "Seminole"
  },
  {
    "name": "eileenmorenoconsulting LLC",
    "description": "Marketing Programs & Services",
    "phone": "(800) 782-2144",
    "address": "7901 4th St STE 300  Saint Petersburg, FL 33702",
    "location": "Seminole"
  },
  {
    "name": "Castnet Media",
    "description": "Marketing Programs & Services",
    "phone": "(727) 892-2391",
    "address": "490 1st Ave S  St Petersburg, FL 33701",
    "location": "Seminole"
  },
  {
    "name": "Stahl Robert L",
    "description": "Marketing Programs & Services",
    "phone": "(727) 391-9791",
    "address": "110 Carillon Pkwy  Saint Petersburg, FL 33716",
    "location": "Seminole"
  },
  {
    "name": "LocalMediaInsider",
    "description": "Marketing Programs & Services",
    "phone": "(408) 892-9815",
    "address": "2544 2nd Ave N  Saint Petersburg, FL 33713",
    "location": "Seminole"
  },
  {
    "name": "Forthfox",
    "description": "Marketing Programs & Services",
    "phone": "(727) 998-1849",
    "address": "PO Box 13946  Saint Petersburg, FL 33733",
    "location": "Seminole"
  },
  {
    "name": "Dragon Digital Marketing",
    "description": "Marketing Programs & Services",
    "phone": "(727) 308-0030",
    "address": "7901 4th St N Ste 4040  Saint Petersburg, FL 33702",
    "location": "Seminole"
  },
  {
    "name": "Search Global Ventures",
    "description": "Marketing Programs & Services",
    "phone": "(727) 776-1591",
    "address": "1517 Lakeside Dr  Dunedin, FL 34698",
    "location": "Seminole"
  },
  {
    "name": "I SEO U Company",
    "description": "Marketing Programs & Services",
    "phone": "(727) 938-8891",
    "address": "628 Cleveland St  Clearwater, FL 33755",
    "location": "Seminole"
  },
  {
    "name": "Brand Builder Coaching",
    "description": "Marketing Programs & Services",
    "phone": "(727) 758-3008",
    "address": "600 Cleveland St Ste 343  Clearwater, FL 33755",
    "location": "Seminole"
  },
  {
    "name": "Blubird Marketing",
    "description": "Marketing Programs & Services",
    "phone": "(727) 637-7021",
    "address": "740 4th St N # 198  Saint Petersburg, FL 33701",
    "location": "Seminole"
  },
  {
    "name": "QR Consulting, LLC",
    "description": "Marketing Programs & Services",
    "phone": "(800) 555-2785",
    "address": "PO Box 1902  Saint Petersburg, FL 33731",
    "location": "Seminole"
  },
  {
    "name": "Auto Internet Marketing, Inc.",
    "description": "Marketing Programs & Services",
    "phone": "(727) 791-0825",
    "address": "2495 Enterprise Rd  Clearwater, FL 33763",
    "location": "Seminole"
  },
  {
    "name": "Dealer Solutions One",
    "description": "Marketing Programs & Services",
    "phone": "(727) 330-7621",
    "address": "600 Cleveland St  Clearwater, FL 33755",
    "location": "Seminole"
  },
  {
    "name": "Big Nerd Marketing",
    "description": "Marketing Programs & Services",
    "phone": "(844) 637-3439",
    "address": "11300 Dr Martin Luther King Jr St N  Saint Petersburg, FL 33716",
    "location": "Seminole"
  },
  {
    "name": "ProTech Web Solutions LLC",
    "description": "Marketing Programs & Services",
    "phone": "(352) 355-9028",
    "address": "7901 4th Street Ste 300  Saint Petersburg, FL 33702",
    "location": "Seminole"
  },
  {
    "name": "Intent Local",
    "description": "Marketing Programs & Services",
    "phone": "(727) 278-3926",
    "address": "33 6th St S Ste 501  Saint Petersburg, FL 33701",
    "location": "Seminole"
  },
  {
    "name": "Joy Rockwell Enterprises",
    "description": "Marketing Programs & Services",
    "phone": "(727) 442-6440",
    "address": "2145 Sunnydale Blvd  Clearwater, FL 33765",
    "location": "Seminole"
  },
  {
    "name": "The Pr Group",
    "description": "Marketing Programs & Services",
    "phone": "(727) 441-2956",
    "address": "1130 Commodore St  Clearwater, FL 33755",
    "location": "Seminole"
  },
  {
    "name": "RAV Enterprises",
    "description": "Marketing Programs & Services",
    "phone": "(727) 228-0006",
    "address": "303 Main St Unit 812  Safety Harbor, FL 34695",
    "location": "Seminole"
  },
  {
    "name": "Tampa Bay Partners",
    "description": "Marketing Programs & Services",
    "phone": "(727) 669-7775",
    "address": "101 Phillippe Pkwy  Safety Harbor, FL 34695",
    "location": "Seminole"
  },
  {
    "name": "Clear Advantage LLC",
    "description": "Marketing Programs & Services",
    "phone": "(727) 489-5611",
    "address": "1497 Main St # 123  Dunedin, FL 34698",
    "location": "Seminole"
  },
  {
    "name": "DirectMail 2.0",
    "description": "Marketing Programs & Services",
    "phone": "(727) 222-4030",
    "address": "600 Cleveland St Ste 920  Clearwater, FL 33755",
    "location": "Seminole"
  },
  {
    "name": "Design by M2",
    "description": "Marketing Programs & Services",
    "phone": "(727) 323-6945",
    "address": "2811 Miriam St S  Gulfport, FL 33711",
    "location": "Seminole"
  },
  {
    "name": "Delphi Integration",
    "description": "Marketing Programs & Services",
    "phone": "(727) 515-5779",
    "address": "1820 11th St N  Saint Petersburg, FL 33704",
    "location": "Seminole"
  },
  {
    "name": "Adzado",
    "description": "Marketing Programs & Services",
    "phone": "(833) 401-5587",
    "address": "7904 4th St N  Saint Petersburg, FL 33702",
    "location": "Seminole"
  },
  {
    "name": "E Push",
    "description": "Marketing Programs & Services",
    "phone": "(727) 362-3679",
    "address": "433 Central Ave  Saint Petersburg, FL 33701",
    "location": "Seminole"
  },
  {
    "name": "Design Strategies Inc",
    "description": "Marketing Programs & Services",
    "phone": "(727) 466-6888",
    "address": "2119 Bramblewood Dr S  Clearwater, FL 33763",
    "location": "Seminole"
  },
  {
    "name": "Best Edge SEO",
    "description": "Internet Marketing & Advertising",
    "phone": "(727) 290-9527",
    "address": "6171 Bahia Del Mar Blvd Apt 215  Saint Petersburg, FL 33715",
    "location": "Seminole"
  },
  {
    "name": "Mr Technique",
    "description": "Web Site Design & Services",
    "phone": "(727) 209-7995",
    "address": "136 4th St N Ste 204  Saint Petersburg, FL 33701",
    "location": "Seminole"
  },
  {
    "name": "Brian Cash Claus Coupon Book",
    "description": "Sales Promotion Service",
    "phone": "(727) 228-0115",
    "address": "1497 Main St #277  Dunedin, FL 34698",
    "location": "Seminole"
  },
  {
    "name": "Florida Getaways",
    "description": "Real Estate Rental Service",
    "phone": "(727) 403-5677",
    "address": "110 3rd Ave  St Pete Beach, FL 33706",
    "location": "Seminole"
  },
  {
    "name": "Social Networkz - Social Media Marketing",
    "description": "Internet Consultants",
    "phone": "(813) 364-2214",
    "address": "524 Bay St NE Apt 3  Saint Petersburg, FL 33701",
    "location": "Seminole"
  },
  {
    "name": "Easywayit",
    "description": "Internet Marketing & Advertising",
    "phone": "(727) 563-9200",
    "address": "8401 Dr Martin Luther King Jr St N  Saint Petersburg, FL 33702",
    "location": "Seminole"
  },
  {
    "name": "Ultimate Hosting & Website Design",
    "description": "Internet Marketing & Advertising",
    "phone": "(727) 466-3300",
    "address": "P.O.Box 7263  Clearwater, FL 33758",
    "location": "Seminole"
  },
  {
    "name": "iHeartMedia",
    "description": "Advertising Agencies",
    "phone": "(813) 832-1000",
    "address": "13577 Feather Sound Dr  Clearwater, FL 33762",
    "location": "Seminole"
  },
  {
    "name": "Oyova",
    "description": "Internet Marketing & Advertising",
    "phone": "(727) 289-6549",
    "address": "290 Dr Martin Luther King Jr St N #201  Saint Petersburg, FL 33705",
    "location": "Seminole"
  },
  {
    "name": "IMN",
    "description": "Internet Marketing & Advertising",
    "phone": "(727) 282-4988",
    "address": "411 Cleveland St # 231  Clearwater, FL 33755",
    "location": "Seminole"
  },
  {
    "name": "Roonex Media",
    "description": "Internet Marketing & Advertising",
    "phone": "(727) 491-8943",
    "address": "7901 4th St N Ste No 19608  Saint Petersburg, FL 33702",
    "location": "Seminole"
  },
  {
    "name": "Apexx.ai",
    "description": "Computer Software Publishers & Developers",
    "phone": "(727) 902-2265",
    "address": "7901 4th St N Ste 300  St Petersburg, FL 33702",
    "location": "Seminole"
  },
  {
    "name": "The Buzz CRM",
    "description": "Internet Marketing & Advertising",
    "phone": "(888) 901-7530",
    "address": "7901 4th St N Ste 300  St Petersburg, FL 33702",
    "location": "Seminole"
  },
  {
    "name": "Cyberlicious",
    "description": "Internet Marketing & Advertising",
    "phone": "(727) 820-1988",
    "address": "735 Arlington Ave N  Saint Petersburg, FL 33701",
    "location": "Seminole"
  },
  {
    "name": "RuleLocal",
    "description": "Internet Marketing & Advertising",
    "phone": "(727) 258-0132",
    "address": "146 2nd St N Ste 301  Saint Petersburg, FL 33701",
    "location": "Seminole"
  },
  {
    "name": "Tampa Marketing Services",
    "description": "Internet Consultants",
    "phone": "(727) 394-4057",
    "address": "524 Bay St NE  Saint Petersburg, FL 33701",
    "location": "Seminole"
  },
  {
    "name": "Think Tank, Inc.",
    "description": "Internet Marketing & Advertising",
    "phone": "(727) 537-9279",
    "address": "200 Central Ave Ste 135  Saint Petersburg, FL 33701",
    "location": "Seminole"
  },
  {
    "name": "Monumental SEO",
    "description": "Internet Marketing & Advertising",
    "phone": "(727) 857-7383",
    "address": "2822 54th Ave S Suite 119  Saint Petersburg, FL 33712",
    "location": "Seminole"
  },
  {
    "name": "Coastal Clicks Marketing",
    "description": "Internet Marketing & Advertising",
    "phone": "(727) 250-9634",
    "address": "1106 Pinehurst Rd  Dunedin, FL 34698",
    "location": "Seminole"
  },
  {
    "name": "Internet Specialist",
    "description": "Internet Marketing & Advertising",
    "phone": "(727) 698-6567",
    "address": "639 Cleveland St  Clearwater, FL 33755",
    "location": "Seminole"
  },
  {
    "name": "Dependable Marketing Solutions",
    "description": "Web Site Design & Services",
    "phone": "(727) 736-2255",
    "address": "600 Cleveland St Ste 342  Clearwater, FL 33755",
    "location": "Seminole"
  },
  {
    "name": "Blue Atlas Marketing",
    "description": "Internet Marketing & Advertising",
    "phone": "(888) 266-7153",
    "address": "600 Cleveland St Ste 246  Clearwater, FL 33755",
    "location": "Seminole"
  },
  {
    "name": "Let Me Ink You",
    "description": "Internet Marketing & Advertising",
    "phone": "(407) 979-6264",
    "address": "2252 Gulf To Bay Blvd  Clearwater, FL 33765",
    "location": "Seminole"
  },
  {
    "name": "GenerateMoreLeads.com",
    "description": "Internet Marketing & Advertising",
    "phone": "(727) 644-3384",
    "address": "800 S Gulfview Blvd  Clearwater Beach, FL 33767",
    "location": "Seminole"
  },
  {
    "name": "Good Health Marketing Services",
    "description": "Internet Marketing & Advertising",
    "phone": "(727) 235-6756",
    "address": "11401 Dr M.L.K. Jr St N  Saint Petersburg, FL 33716",
    "location": "Seminole"
  },
  {
    "name": "SuperMedia LLC",
    "description": "Internet Directories",
    "phone": "(727) 576-1300",
    "address": "10200 Dr Martin Luther King Jr St N  Saint Petersburg, FL 33716",
    "location": "Seminole"
  },
  {
    "name": "Alphabet Marketing",
    "description": "Web Site Design & Services",
    "phone": "(813) 639-8736",
    "address": "700 N Osceola Ave  Clearwater, FL 33755",
    "location": "Seminole"
  },
  {
    "name": "Titan SEO Group",
    "description": "Internet Marketing & Advertising",
    "phone": "(813) 964-7459",
    "address": "7901 4th St N  St. Petersburg, FL 33702",
    "location": "Seminole"
  },
  {
    "name": "Ryse Seo",
    "description": "Internet Marketing & Advertising",
    "phone": "(727) 344-9311",
    "address": "321 NE Blvd N  Saint Petersburg, FL 33702",
    "location": "Seminole"
  },
  {
    "name": "WeDJ.com",
    "description": "Internet Marketing & Advertising",
    "phone": "(727) 216-2997",
    "address": "140 Island Way # 257  Clearwater Beach, FL 33767",
    "location": "Seminole"
  },
  {
    "name": "Studiohof",
    "description": "Internet Marketing & Advertising",
    "phone": "(727) 303-7363",
    "address": "8501 Riverside Dr NE  Saint Petersburg, FL 33702",
    "location": "Seminole"
  },
  {
    "name": "Simple Site Designs",
    "description": "Internet Marketing & Advertising",
    "phone": "(727) 871-0754",
    "address": "6443 Pine St NE  Saint Petersburg, FL 33702",
    "location": "Seminole"
  },
  {
    "name": "DigiLogic, Inc.",
    "description": "Web Site Design & Services",
    "phone": "(866) 222-5030",
    "address": "505 Mandalay Ave Apt 56  Clearwater Beach, FL 33767",
    "location": "Seminole"
  },
  {
    "name": "Life Improvement Media Group",
    "description": "Internet Marketing & Advertising",
    "phone": "(866) 930-9337",
    "address": "735 Arlington Ave N Ste 31  Saint Petersburg, FL 33701",
    "location": "Seminole"
  },
  {
    "name": "SMP",
    "description": "Internet Consultants",
    "phone": "(888) 300-3443",
    "address": "1814 Sunset Point Rd  Clearwater, FL 33765",
    "location": "Seminole"
  },
  {
    "name": "bucamedia",
    "description": "Audio-Visual Creative Services",
    "phone": "(772) 828-2822",
    "address": "PO Box 886  Saint Petersburg, FL 33731",
    "location": "Seminole"
  },
  {
    "name": "Advanced Digital Media Services",
    "description": "Web Site Design & Services",
    "phone": "(727) 201-5296",
    "address": "360 Central Ave  Saint Petersburg, FL 33701",
    "location": "Seminole"
  },
  {
    "name": "PowerChord, Inc.",
    "description": "Computer Software Publishers & Developers",
    "phone": "(727) 823-1530",
    "address": "360 Central Ave Fifth Floor  Saint Petersburg, FL 33701",
    "location": "Seminole"
  },
  {
    "name": "JCTWEB",
    "description": "Internet Marketing & Advertising",
    "phone": "(727) 328-7575",
    "address": "146 2nd St N Ste 204  Saint Petersburg, FL 33701",
    "location": "Seminole"
  },
  {
    "name": "WebFX",
    "description": "Web Site Design & Services",
    "phone": "(727) 202-5387",
    "address": "260 1st Ave S Ste 114  Saint Petersburg, FL 33701",
    "location": "Seminole"
  },
  {
    "name": "SJ Creative Designs",
    "description": "Internet Marketing & Advertising",
    "phone": "(813) 377-7784",
    "address": "3801 6th st s Suite B  Saint Petersburg, FL 33705",
    "location": "Seminole"
  },
  {
    "name": "Women Who Rock With Success",
    "description": "Marketing Consultants",
    "phone": "(877) 476-6895",
    "address": "970 Lake Carillon Dr  Saint Petersburg, FL 33716",
    "location": "Seminole"
  },
  {
    "name": "Boominess Digital Marketing",
    "description": "Advertising Agencies",
    "phone": "(727) 297-5463",
    "address": "912 Drew St Ste 202  Clearwater, FL 33755",
    "location": "Seminole"
  },
  {
    "name": "Badger Marketing",
    "description": "Marketing Consultants",
    "phone": "(813) 644-9588",
    "address": "1201 Gandy Blvd N Unit 21445  Saint Petersburg, FL 33742",
    "location": "Seminole"
  },
  {
    "name": "Black Connect Network",
    "description": "Marketing Consultants",
    "phone": "(813) 532-9870",
    "address": "2727 5th Ave S  Saint Petersburg, FL 33712",
    "location": "Seminole"
  },
  {
    "name": "Puzzles Consulting",
    "description": "Business Coaches & Consultants",
    "phone": "(561) 782-3440",
    "address": "7901 4th St N Ste 300  St Petersburg, FL 33702",
    "location": "Seminole"
  },
  {
    "name": "Dre Ennis",
    "description": "Marketing Consultants",
    "phone": "(727) 482-9268",
    "address": "501 116th Avenue North, Apt 201  St. Petersburg, FL 33716",
    "location": "Seminole"
  },
  {
    "name": "Lux Digital Marketing",
    "description": "Marketing Consultants",
    "phone": "(727) 855-8221",
    "address": "260 1st Ave S  St Petersburg, FL 33701",
    "location": "Seminole"
  },
  {
    "name": "Empathy First Media",
    "description": "Advertising Agencies",
    "phone": "(727) 291-7384",
    "address": "260 1st Ave S Ste 166  St Petersburg, FL 33701",
    "location": "Seminole"
  },
  {
    "name": "Bogdanov",
    "description": "Marketing Consultants",
    "phone": "(727) 317-7989",
    "address": "140 1st Ave N  Saint Petersburg, FL 33701",
    "location": "Seminole"
  },
  {
    "name": "Pingunio Consultants, LLC",
    "description": "Advertising Agencies",
    "phone": "(813) 304-4881",
    "address": "415 Norfolk St  Dunedin, FL 34698",
    "location": "Seminole"
  },
  {
    "name": "Hooked Marketing",
    "description": "Advertising Agencies",
    "phone": "(727) 333-5270",
    "address": "2050 Los Lomas Dr  Clearwater, FL 33763",
    "location": "Seminole"
  },
  {
    "name": "dbaPlatform",
    "description": "Computer Software & Services",
    "phone": "(727) 240-2720",
    "address": "113 5th St E  Saint Petersburg, FL 33715",
    "location": "Seminole"
  },
  {
    "name": "Titan Publishing",
    "description": "Product Design, Development & Marketing",
    "phone": "(727) 777-6748",
    "address": "828 3rd Ave S  Tierra Verde, FL 33715",
    "location": "Seminole"
  },
  {
    "name": "AIM Above",
    "description": "Business Coaches & Consultants",
    "phone": "(727) 258-8844",
    "address": "7310 Sunshine Skyway Ln S Apt 220  Saint Petersburg, FL 33711",
    "location": "Seminole"
  },
  {
    "name": "My Blue Robot Creative Agency",
    "description": "Interactive Media",
    "phone": "(727) 637-4251",
    "address": "1717 Cypress Trace Dr  Safety Harbor, FL 34695",
    "location": "Seminole"
  },
  {
    "name": "Makta LLC",
    "description": "Market Research & Analysis",
    "phone": "(727) 643-4416",
    "address": "2435 1st Ave N  Saint Petersburg, FL 33713",
    "location": "Seminole"
  },
  {
    "name": "Craft Brands",
    "description": "Advertising Agencies",
    "phone": "(239) 691-0561",
    "address": "P.O. Box 12825  St. Petersburg, FL 33733",
    "location": "Seminole"
  },
  {
    "name": "3Geeks Interactive, LLC SEO Services",
    "description": "Internet Marketing & Advertising",
    "phone": "(727) 537-6336",
    "address": "9952 Gandy Blvd N Ste C  Saint Petersburg, FL 33702",
    "location": "Seminole"
  },
  {
    "name": "Clear PH Design",
    "description": "Internet Marketing & Advertising",
    "phone": "(727) 851-9596",
    "address": "689 Central Ave Ste 105  Saint Petersburg, FL 33701",
    "location": "Seminole"
  },
  {
    "name": "Kapok Marketing",
    "description": "Internet Consultants",
    "phone": "(800) 640-8082",
    "address": "447 3rd Ave N Ste 300  Saint Petersburg, FL 33701",
    "location": "Seminole"
  },
  {
    "name": "Big Sea, Inc.",
    "description": "Internet Marketing & Advertising",
    "phone": "(727) 386-8031",
    "address": "646 2nd Ave S  Saint Petersburg, FL 33701",
    "location": "Seminole"
  },
  {
    "name": "WeRank",
    "description": "Internet Marketing & Advertising",
    "phone": "(727) 304-4455",
    "address": "2451 N Mcmullen Booth Rd Ste 255  Clearwater, FL 33759",
    "location": "Seminole"
  },
  {
    "name": "Information Management Systems Inc",
    "description": "Market Research & Analysis",
    "phone": "(813) 559-9500",
    "address": "3000 Gulf To Bay Blvd  Clearwater, FL 33759",
    "location": "Seminole"
  },
  {
    "name": "Florida Research",
    "description": "Market Research & Analysis",
    "phone": "(727) 441-4101",
    "address": "436 E Shore Dr  Clearwater Beach, FL 33767",
    "location": "Seminole"
  },
  {
    "name": "Foundation Research",
    "description": "Market Research & Analysis",
    "phone": "(727) 898-6237",
    "address": "900 Central Ave  Saint Petersburg, FL 33705",
    "location": "Seminole"
  },
  {
    "name": "Wildlife Trust",
    "description": "Market Research & Analysis",
    "phone": "(727) 895-7140",
    "address": "233 3rd St N  Saint Petersburg, FL 33701",
    "location": "Seminole"
  },
  {
    "name": "The Customer Dr",
    "description": "Market Research & Analysis",
    "phone": "(727) 577-2883",
    "address": "879 Addison Dr NE  Saint Petersburg, FL 33716",
    "location": "Seminole"
  },
  {
    "name": "Verispan",
    "description": "Market Research & Analysis",
    "phone": "(727) 724-1748",
    "address": "320 5th Ave N  Safety Harbor, FL 34695",
    "location": "Seminole"
  },
  {
    "name": "The Consumer Center",
    "description": "Market Research & Analysis",
    "phone": "(727) 726-0844",
    "address": "101 Philippe Pkwy Ste A  Safety Harbor, FL 34695",
    "location": "Seminole"
  },
  {
    "name": "C & C Market Research",
    "description": "Market Research & Analysis",
    "phone": "(727) 796-2000",
    "address": "27001 US Highway 19 N  Clearwater, FL 33761",
    "location": "Seminole"
  },
  {
    "name": "Triton-Domains",
    "description": "Internet Consultants",
    "phone": "(480) 624-2500",
    "address": "24 S Fredrica Ave  Clearwater, FL 33756",
    "location": "Seminole"
  },
  {
    "name": "Buzzazz",
    "description": "Web Site Design & Services",
    "phone": "(727) 443-7300",
    "address": "639 Cleveland St Ste 200  Clearwater, FL 33755",
    "location": "Seminole"
  },
  {
    "name": "GreatCircle Studios",
    "description": "Web Site Design & Services",
    "phone": "(727) 216-8758",
    "address": "600 Cleveland St Lbby  Clearwater, FL 33755",
    "location": "Seminole"
  },
  {
    "name": "Life Improvement Media",
    "description": "Internet Marketing & Advertising",
    "phone": "(866) 930-9937",
    "address": "PO Box 76335  Saint Petersburg, FL 33734",
    "location": "Seminole"
  },
  {
    "name": "Jeoies.com",
    "description": "Internet Marketing & Advertising",
    "phone": "(909) 632-4720",
    "address": "1284 Palmetto St  Clearwater, FL 33755",
    "location": "Seminole"
  },
  {
    "name": "Bonjo Tech - Digital Marketing Agency",
    "description": "Internet Marketing & Advertising",
    "phone": "(321) 396-7795",
    "address": "7910 4th St N  Saint Petersburg, FL 33702",
    "location": "Seminole"
  },
  {
    "name": "Empire Pictures Marketing",
    "description": "Internet Marketing & Advertising",
    "phone": "(229) 992-1005",
    "address": "7901 4th St N Ste 11404  St Petersburg, FL 33702",
    "location": "Seminole"
  },
  {
    "name": "Luminary Leap Marketing",
    "description": "Internet Marketing & Advertising",
    "phone": "(407) 279-3985",
    "address": "7901 4th St. N Ste 4000  Pinellas, FL 33702",
    "location": "Seminole"
  },
  {
    "name": "Visual Edge Design, Inc.",
    "description": "Internet Marketing & Advertising",
    "phone": "(727) 446-0834",
    "address": "1300 N Fort Harrison Ave  Clearwater, FL 33755",
    "location": "Seminole"
  },
  {
    "name": "Palladium Media Group",
    "description": "Internet Marketing & Advertising",
    "phone": "(727) 897-9600",
    "address": "945 11th St N  Saint Petersburg, FL 33705",
    "location": "Seminole"
  },
  {
    "name": "Guaranteed Places",
    "description": "Internet Marketing & Advertising",
    "phone": "(727) 678-1393",
    "address": "140 Island Way Ste 119  Clearwater Beach, FL 33767",
    "location": "Seminole"
  },
  {
    "name": "Yada Yada Marketing Inc",
    "description": "Internet Marketing & Advertising",
    "phone": "(727) 442-5888",
    "address": "2058 Weaver Park Dr  Clearwater, FL 33765",
    "location": "Seminole"
  },
  {
    "name": "Medartist.com",
    "description": "Internet Marketing & Advertising",
    "phone": "(727) 521-1143",
    "address": "175 59th Ave NE  Saint Petersburg, FL 33703",
    "location": "Seminole"
  },
  {
    "name": "4th Street Web",
    "description": "Internet Marketing & Advertising",
    "phone": "(727) 537-9731",
    "address": "8501 Riverside Dr NE  Saint Petersburg, FL 33702",
    "location": "Seminole"
  },
  {
    "name": "Moirai Marketing",
    "description": "Internet Marketing & Advertising",
    "phone": "(888) 242-6585",
    "address": "204 37th AVE N  Saint Petersburg, FL 33704",
    "location": "Seminole"
  },
  {
    "name": "Global Ninja Alliance",
    "description": "Internet Marketing & Advertising",
    "phone": "(352) 507-5770",
    "address": "344 1/2 7th St N Apt 5  Saint Petersburg, FL 33701",
    "location": "Seminole"
  },
  {
    "name": "Careerfranchises.com",
    "description": "Internet Marketing & Advertising",
    "phone": "(727) 515-5955",
    "address": "661 Riviera Bay Dr NE  Saint Petersburg, FL 33702",
    "location": "Seminole"
  },
  {
    "name": "Capmri.com",
    "description": "Internet Marketing & Advertising",
    "phone": "(734) 377-9629",
    "address": "624 Quintana Pl NE  Saint Petersburg, FL 33703",
    "location": "Seminole"
  },
  {
    "name": "Rainbow411",
    "description": "Internet Marketing & Advertising",
    "phone": "(813) 644-2836",
    "address": "4601 34th St S  Saint Petersburg, FL 33711",
    "location": "Seminole"
  },
  {
    "name": "Beach Lion Studios",
    "description": "Advertising Agencies",
    "phone": "(727) 207-1108",
    "address": "433 Central Ave Suite 212  St Petersburg, FL 33701",
    "location": "Seminole"
  },
  {
    "name": "Fortress Media",
    "description": "Internet Marketing & Advertising",
    "phone": "(941) 723-7800",
    "address": "76 4th St N  Saint Petersburg, FL 33701",
    "location": "Seminole"
  },
  {
    "name": "Effectiveagents.com",
    "description": "Internet Marketing & Advertising",
    "phone": "(855) 472-9275",
    "address": "360 Central Ave  Saint Petersburg, FL 33701",
    "location": "Seminole"
  },
  {
    "name": "A Creative Bureau",
    "description": "Internet Marketing & Advertising",
    "phone": "(813) 465-2819",
    "address": "51 2nd St N  Saint Petersburg, FL 33701",
    "location": "Seminole"
  },
  {
    "name": "Gpstpete.com",
    "description": "Internet Marketing & Advertising",
    "phone": "(727) 898-4639",
    "address": "100 2nd Ave N  Saint Petersburg, FL 33701",
    "location": "Seminole"
  },
  {
    "name": "The Hoth",
    "description": "Internet Marketing & Advertising",
    "phone": "(877) 720-4684",
    "address": "111 2nd Ave NE  Saint Petersburg, FL 33701",
    "location": "Seminole"
  },
  {
    "name": "Backgroundexperts.com",
    "description": "Internet Marketing & Advertising",
    "phone": "(727) 953-3416",
    "address": "201 Douglas Ave  Dunedin, FL 34698",
    "location": "Seminole"
  },
  {
    "name": "Manaflow Agency",
    "description": "Internet Marketing & Advertising",
    "phone": "(727) 501-5754",
    "address": "4035 Huntington St NE  Saint Petersburg, FL 33703",
    "location": "Seminole"
  },
  {
    "name": "Happy Grasshopper",
    "description": "Internet Marketing & Advertising",
    "phone": "(727) 232-9117",
    "address": "500 Main St  Safety Harbor, FL 34695",
    "location": "Seminole"
  },
  {
    "name": "H2Ofilters.com",
    "description": "Internet Marketing & Advertising",
    "phone": "(727) 738-9635",
    "address": "1558 Andover Dr  Dunedin, FL 34698",
    "location": "Seminole"
  },
  {
    "name": "Required Media, LLC",
    "description": "Internet Consultants",
    "phone": "(727) 288-2177",
    "address": "2451 N Mcmullen Booth Rd Ste 200  Clearwater, FL 33759",
    "location": "Seminole"
  },
  {
    "name": "Clarke's Group Inc",
    "description": "Marketing Consultants",
    "phone": "(727) 573-3610",
    "address": "2771 Heron Pl  Clearwater, FL 33762",
    "location": "Seminole"
  },
  {
    "name": "The Ai Consulting Lab",
    "description": "Business Coaches & Consultants",
    "phone": "(727) 472-3854",
    "address": "3026 Burlington Ave N  Saint Petersburg, FL 33713",
    "location": "Seminole"
  },
  {
    "name": "Quickshare LLC",
    "description": "Artists Agents",
    "phone": "(727) 686-2329",
    "address": "1928 Gulf To Bay Blvd  Clearwater, FL 33765",
    "location": "Seminole"
  },
  {
    "name": "Gulf Coast Financial Solutions",
    "description": "Consultants Referral Service",
    "phone": "(727) 379-1740",
    "address": "970 Lake Carillon Dr Ste 300  Saint Petersburg, FL 33716",
    "location": "Seminole"
  },
  {
    "name": "Legendary Marketer",
    "description": "Marketing Consultants",
    "phone": "(727) 498-5138",
    "address": "970 Lake Carillon Dr  Saint Petersburg, FL 33716",
    "location": "Seminole"
  },
  {
    "name": "Matlock Web Consulting",
    "description": "Web Site Hosting",
    "phone": "(727) 266-0575",
    "address": "411 Cleveland St # 189  Clearwater, FL 33755",
    "location": "Seminole"
  },
  {
    "name": "G S P Marketing",
    "description": "Marketing Consultants",
    "phone": "(727) 533-8776",
    "address": "1280 Cleveland St  Clearwater, FL 33755",
    "location": "Seminole"
  },
  {
    "name": "Norcon Marketing Inc",
    "description": "Marketing Consultants",
    "phone": "(727) 822-5000",
    "address": "2901 1st Ave N Ste 102  Saint Petersburg, FL 33713",
    "location": "Seminole"
  },
  {
    "name": "Blu Lab Design",
    "description": "Graphic Designers",
    "phone": "(440) 525-1030",
    "address": "2717 Seville Blvd Apt 16204  Clearwater, FL 33764",
    "location": "Seminole"
  },
  {
    "name": "Strops Marketing",
    "description": "Marketing Consultants",
    "phone": "(727) 462-0019",
    "address": "1166 NE Cleveland St  Clearwater, FL 33755",
    "location": "Seminole"
  },
  {
    "name": "Gsa Access Group",
    "description": "Marketing Consultants",
    "phone": "(727) 577-9419",
    "address": "10701 Danka Way N Ste 200  Saint Petersburg, FL 33716",
    "location": "Seminole"
  },
  {
    "name": "Bright Think Marketing",
    "description": "Marketing Consultants",
    "phone": "(714) 262-3333",
    "address": "207 Vine Ave  Clearwater, FL 33755",
    "location": "Seminole"
  },
  {
    "name": "TampaBaySocial.com",
    "description": "Marketing Consultants",
    "phone": "(813) 444-7580",
    "address": "2400 Feather Sound Drive #1233  Clearwater, FL 33762",
    "location": "Seminole"
  },
  {
    "name": "FJD Marketing",
    "description": "Marketing Consultants",
    "phone": "(727) 230-0801",
    "address": "600 Bypass Dr  Clearwater, FL 33764",
    "location": "Seminole"
  },
  {
    "name": "Itttnmpsc",
    "description": "Marketing Consultants",
    "phone": "(727) 289-7212",
    "address": "9100 Dr Martin Luther King Jr St N Apt 1008  Saint Petersburg, FL 33702",
    "location": "Seminole"
  },
  {
    "name": "Bovsi Studios",
    "description": "Marketing Consultants",
    "phone": "(813) 704-7953",
    "address": "2732 6th Ave S  Saint Petersburg, FL 33712",
    "location": "Seminole"
  },
  {
    "name": "Big Sea Inc",
    "description": "Advertising Agencies",
    "phone": "(727) 386-8031",
    "address": "2622 Fairfield Ave S  Saint Petersburg, FL 33712",
    "location": "Seminole"
  },
  {
    "name": "Drilling Down Project",
    "description": "Marketing Consultants",
    "phone": "(727) 895-5454",
    "address": "1224 24th Ave N  Saint Petersburg, FL 33704",
    "location": "Seminole"
  },
  {
    "name": "Thunder Road Digital",
    "description": "Marketing Consultants",
    "phone": "(813) 618-8458",
    "address": "720 N Village Dr N Apt 204  Saint Petersburg, FL 33716",
    "location": "Seminole"
  },
  {
    "name": "Pinellas County Dealz",
    "description": "Marketing Consultants",
    "phone": "(727) 249-5719",
    "address": "1006 Ridge Ave  Clearwater, FL 33755",
    "location": "Seminole"
  },
  {
    "name": "Empire Marketing",
    "description": "Marketing Consultants",
    "phone": "(727) 465-0808",
    "address": "701 N Hercules Ave  Clearwater, FL 33765",
    "location": "Seminole"
  },
  {
    "name": "Expert Marketing",
    "description": "Marketing Consultants",
    "phone": "(727) 239-4343",
    "address": "9721 Executive Center Dr N #140  Saint Petersburg, FL 33702",
    "location": "Seminole"
  },
  {
    "name": "3 Square Creative Studios",
    "description": "Marketing Consultants",
    "phone": "(727) 791-3939",
    "address": "107 Hampton Rd  Clearwater, FL 33759",
    "location": "Seminole"
  },
  {
    "name": "Mca Marketing Group",
    "description": "Marketing Consultants",
    "phone": "(727) 791-3939",
    "address": "107 Hampton Rd Ste 150  Clearwater, FL 33759",
    "location": "Seminole"
  },
  {
    "name": "Marcaden Consulting, Inc.",
    "description": "Business Coaches & Consultants",
    "phone": "(727) 578-8496",
    "address": "9600 Koger Blvd N Ste 225  Saint Petersburg, FL 33702",
    "location": "Seminole"
  },
  {
    "name": "VIZR Corp.",
    "description": "Marketing Consultants",
    "phone": "(727) 306-1896",
    "address": "7901 4th St N Ste 15783  Saint Petersburg, FL 33702",
    "location": "Seminole"
  },
  {
    "name": "Truevail",
    "description": "Marketing Consultants",
    "phone": "(505) 445-8147",
    "address": "7901 4th St N  Saint Petersburg, FL 33702",
    "location": "Seminole"
  },
  {
    "name": "Prolific Marketing Enterprises",
    "description": "Marketing Consultants",
    "phone": "(800) 998-9041",
    "address": "7901 4th St N ste 300  Saint Petersburg, FL 33702",
    "location": "Seminole"
  },
  {
    "name": "Booker Marketing Group",
    "description": "Marketing Consultants",
    "phone": "(800) 962-8207",
    "address": "7901 4th St N #21988  Saint Petersburg, FL 33702",
    "location": "Seminole"
  },
  {
    "name": "Mosaic Development",
    "description": "Advertising Agencies",
    "phone": "(239) 603-8596",
    "address": "1763 1st Ave N  Saint Petersburg, FL 33713",
    "location": "Seminole"
  },
  {
    "name": "Suncoast Marketing Dba",
    "description": "Direct Mail Advertising",
    "phone": "(727) 576-6000",
    "address": "8601 4th St N  Saint Petersburg, FL 33702",
    "location": "Seminole"
  },
  {
    "name": "Connectivity Marketing and Media",
    "description": "Marketing Consultants",
    "phone": "(727) 538-7774",
    "address": "2530 Drew St  Clearwater, FL 33765",
    "location": "Seminole"
  },
  {
    "name": "Concept Marketing Solutions",
    "description": "Marketing Consultants",
    "phone": "(727) 531-1010",
    "address": "2530 Drew St  Clearwater, FL 33765",
    "location": "Seminole"
  },
  {
    "name": "True Blue Communications",
    "description": "Public Relations Counselors",
    "phone": "(727) 726-3000",
    "address": "3000 Gulf To Bay Blvd Ste 401  Clearwater, FL 33759",
    "location": "Seminole"
  },
  {
    "name": "Godfrey Design & Advertising",
    "description": "Advertising Specialties",
    "phone": "(727) 579-1899",
    "address": "275 96th Ave N Ste 7  Saint Petersburg, FL 33702",
    "location": "Seminole"
  },
  {
    "name": "Blue Dog Promotions",
    "description": "Advertising-Promotional Products",
    "phone": "(727) 209-3400",
    "address": "4501 4th St N  Saint Petersburg, FL 33703",
    "location": "Seminole"
  },
  {
    "name": "Cypress Enterprises",
    "description": "Marketing Consultants",
    "phone": "(727) 367-9999",
    "address": "2 Alhambra St  St Pete Beach, FL 33706",
    "location": "Seminole"
  },
  {
    "name": "Excellent Marketing Results",
    "description": "Advertising Agencies",
    "phone": "(727) 446-5200",
    "address": "2055 Range Rd  Clearwater, FL 33765",
    "location": "Seminole"
  },
  {
    "name": "Major League Alumni Marketing",
    "description": "Marketing Consultants",
    "phone": "(727) 898-8900",
    "address": "1 Tropicana Dr  Saint Petersburg, FL 33705",
    "location": "Seminole"
  },
  {
    "name": "Lta International",
    "description": "Marketing Consultants",
    "phone": "(727) 896-7555",
    "address": "1120 1st Ave N  Saint Petersburg, FL 33705",
    "location": "Seminole"
  },
  {
    "name": "Marketing Matters",
    "description": "Advertising Agencies",
    "phone": "(954) 925-1511",
    "address": "204 37th Ave N  Saint Petersburg, FL 33704",
    "location": "Seminole"
  },
  {
    "name": "Atlas Marketing & Media",
    "description": "Marketing Consultants",
    "phone": "(727) 953-3339",
    "address": "1823 East Dr  Clearwater, FL 33755",
    "location": "Seminole"
  },
  {
    "name": "Top Hat",
    "description": "Marketing Consultants",
    "phone": "(412) 695-3153",
    "address": "689 Central Ave Ste 200-A  St Petersburg, FL 33701",
    "location": "Seminole"
  },
  {
    "name": "B Hive Awards and Promotional Products",
    "description": "Advertising-Promotional Products",
    "phone": "(727) 442-7163",
    "address": "1810 N Hercules Ave  Clearwater, FL 33765",
    "location": "Seminole"
  },
  {
    "name": "319 N Holding",
    "description": "Marketing Consultants",
    "phone": "(727) 823-7392",
    "address": "319 5th St N  Saint Petersburg, FL 33701",
    "location": "Seminole"
  },
  {
    "name": "Clickfirst Marketing",
    "description": "Marketing Consultants",
    "phone": "(844) 879-3456",
    "address": "319 5th St N  Saint Petersburg, FL 33701",
    "location": "Seminole"
  },
  {
    "name": "Roma Direct Marketing",
    "description": "Advertising Agencies",
    "phone": "(727) 498-8999",
    "address": "33 6th St S  Saint Petersburg, FL 33701",
    "location": "Seminole"
  },
  {
    "name": "McGruff Arfmann Marketing",
    "description": "Marketing Consultants",
    "phone": "(727) 725-9674",
    "address": "2146 Sunnydale Blvd  Clearwater, FL 33765",
    "location": "Seminole"
  },
  {
    "name": "New Era Management International",
    "description": "Business Coaches & Consultants",
    "phone": "(877) 831-2299",
    "address": "1988 Freedom Dr  Clearwater, FL 33755",
    "location": "Seminole"
  },
  {
    "name": "Perk International",
    "description": "Marketing Consultants",
    "phone": "(727) 502-0646",
    "address": "475 Central Ave  Saint Petersburg, FL 33701",
    "location": "Seminole"
  },
  {
    "name": "Aces Marketing Group",
    "description": "Marketing Consultants",
    "phone": "(727) 822-4202",
    "address": "475 Central Ave Ste M2  Saint Petersburg, FL 33701",
    "location": "Seminole"
  },
  {
    "name": "Devery Enterprises",
    "description": "Advertising Specialties",
    "phone": "(727) 821-6316",
    "address": "661 34th Ave NE  Saint Petersburg, FL 33704",
    "location": "Seminole"
  },
  {
    "name": "Macintire Marketing Enterprises",
    "description": "Marketing Consultants",
    "phone": "(727) 564-9009",
    "address": "864 11th Ave S  Saint Petersburg, FL 33701",
    "location": "Seminole"
  },
  {
    "name": "The Ims Group",
    "description": "Marketing Consultants",
    "phone": "(727) 550-0830",
    "address": "323 2nd St N  Saint Petersburg, FL 33701",
    "location": "Seminole"
  },
  {
    "name": "Hunger & Thirst",
    "description": "Marketing Consultants",
    "phone": "(727) 698-5568",
    "address": "330 1st Ave S  Saint Petersburg, FL 33701",
    "location": "Seminole"
  },
  {
    "name": "Aspen Marketing",
    "description": "Marketing Consultants",
    "phone": "(727) 821-4200",
    "address": "150 2nd Ave N Ste 810  Saint Petersburg, FL 33701",
    "location": "Seminole"
  },
  {
    "name": "Pyper Young, Inc",
    "description": "Advertising Agencies",
    "phone": "(727) 873-1210",
    "address": "235 Central Ave  Saint Petersburg, FL 33701",
    "location": "Seminole"
  },
  {
    "name": "Lta International Global Services, Inc.",
    "description": "Marketing Consultants",
    "phone": "(727) 896-7555",
    "address": "100 3rd St S  Saint Petersburg, FL 33701",
    "location": "Seminole"
  },
  {
    "name": "Carter Group",
    "description": "Marketing Consultants",
    "phone": "(727) 898-3008",
    "address": "270 1st Ave S Ste 200  Saint Petersburg, FL 33701",
    "location": "Seminole"
  },
  {
    "name": "Outsource Media Group Inc",
    "description": "Marketing Consultants",
    "phone": "(727) 894-3644",
    "address": "1 Progress Plz  Saint Petersburg, FL 33701",
    "location": "Seminole"
  },
  {
    "name": "Healthfocus International",
    "description": "Marketing Consultants",
    "phone": "(727) 821-7499",
    "address": "100 2nd Ave N  Saint Petersburg, FL 33701",
    "location": "Seminole"
  },
  {
    "name": "Symphoni Group",
    "description": "Marketing Consultants",
    "phone": "(727) 343-3970",
    "address": "111 2nd Ave NE Ste 900  Saint Petersburg, FL 33701",
    "location": "Seminole"
  },
  {
    "name": "Magentpro, Inc.",
    "description": "Marketing Consultants",
    "phone": "(727) 344-9540",
    "address": "111 2nd Ave NE Ste 304  Saint Petersburg, FL 33701",
    "location": "Seminole"
  },
  {
    "name": "Computermail South",
    "description": "Mailing Lists",
    "phone": "(727) 579-1000",
    "address": "200 2nd Ave S  Saint Petersburg, FL 33701",
    "location": "Seminole"
  },
  {
    "name": "The Louvre Group, LLC",
    "description": "Civil Engineers",
    "phone": "(727) 495-6035",
    "address": "200 2nd Ave. South Suite 326  Saint Petersburg, FL 33701",
    "location": "Seminole"
  },
  {
    "name": "The POG Group LLC",
    "description": "Marketing Consultants",
    "phone": "(866) 875-8956",
    "address": "709 4th St N Ste 4532  Saint Petersburg, FL 33702",
    "location": "Seminole"
  },
  {
    "name": "Three Commas Marketing",
    "description": "Marketing Consultants",
    "phone": "(727) 223-9973",
    "address": "2762 Morningside Dr  Clearwater, FL 33759",
    "location": "Seminole"
  },
  {
    "name": "Mazeltov Marketing Inc",
    "description": "Marketing Consultants",
    "phone": "(727) 738-4595",
    "address": "112 Patricia Ave  Dunedin, FL 34698",
    "location": "Seminole"
  },
  {
    "name": "Custom Concepts",
    "description": "Advertising-Promotional Products",
    "phone": "(727) 528-8222",
    "address": "3958 14th St NE  Saint Petersburg, FL 33703",
    "location": "Seminole"
  },
  {
    "name": "Global Marketing Consultants",
    "description": "Marketing Consultants",
    "phone": "(727) 239-7676",
    "address": "400 Douglas Ave Ste C  Dunedin, FL 34698",
    "location": "Seminole"
  },
  {
    "name": "T N T Design and Marketing",
    "description": "Marketing Consultants",
    "phone": "(727) 363-8081",
    "address": "105 21st Ave SE  Saint Petersburg, FL 33705",
    "location": "Seminole"
  },
  {
    "name": "Southern Financial Marketing",
    "description": "Marketing Consultants",
    "phone": "(727) 754-7904",
    "address": "25030 Us Highway 19 N  Clearwater, FL 33763",
    "location": "Seminole"
  },
  {
    "name": "Urban Exposure, Inc.",
    "description": "Marketing Consultants",
    "phone": "(727) 515-5024",
    "address": "1982 55th Ave S  Saint Petersburg, FL 33712",
    "location": "Seminole"
  },
  {
    "name": "Blackhagen-Design Inc",
    "description": "Designers-Industrial & Commercial",
    "phone": "(727) 736-0582",
    "address": "333 Scotland St  Dunedin, FL 34698",
    "location": "Seminole"
  },
  {
    "name": "Baker's Consulting Service",
    "description": "Business Coaches & Consultants",
    "phone": "(727) 239-0812",
    "address": "2123 Greenbriar Blvd  Clearwater, FL 33763",
    "location": "Seminole"
  },
  {
    "name": "Parus Solution Marketing",
    "description": "Marketing Consultants",
    "phone": "(727) 726-8018",
    "address": "935 Main St  Safety Harbor, FL 34695",
    "location": "Seminole"
  },
  {
    "name": "Suncoast Marketing Inc",
    "description": "Marketing Consultants",
    "phone": "(727) 724-1916",
    "address": "143 8th Ave N  Safety Harbor, FL 34695",
    "location": "Seminole"
  },
  {
    "name": "ConsultEugene, Inc",
    "description": "Employment Training",
    "phone": "(727) 873-3914",
    "address": "5801 16th St S  Saint Petersburg, FL 33705",
    "location": "Seminole"
  },
  {
    "name": "Expert Communications Marketing",
    "description": "Marketing Consultants",
    "phone": "(727) 450-4980",
    "address": "100 Main St  Safety Harbor, FL 34695",
    "location": "Seminole"
  },
  {
    "name": "Chesapeake Insurance Marketing Inc",
    "description": "Insurance",
    "phone": "(727) 939-0074",
    "address": "1043 Weathersfield Dr  Dunedin, FL 34698",
    "location": "Seminole"
  },
  {
    "name": "Kea Marketing",
    "description": "Marketing Consultants",
    "phone": "(727) 475-9827",
    "address": "1040 Concord Dr W  Dunedin, FL 34698",
    "location": "Seminole"
  },
  {
    "name": "Cruising Guide Publications Inc",
    "description": "Publishers-Directory & Guide",
    "phone": "(727) 733-5322",
    "address": "1130 Pinehurst Rd  Dunedin, FL 34698",
    "location": "Seminole"
  },
  {
    "name": "Omega Business Marketing Inc",
    "description": "Marketing Consultants",
    "phone": "(727) 748-1240",
    "address": "2340 State Road 580 Ste B  Clearwater, FL 33763",
    "location": "Seminole"
  },
  {
    "name": "Paradise Promotional Products",
    "description": "Advertising-Promotional Products",
    "phone": "(727) 799-3720",
    "address": "2451 N Mcmullen Booth Rd  Clearwater, FL 33759",
    "location": "Seminole"
  },
  {
    "name": "K&J Consulting Services INC.",
    "description": "Business Coaches & Consultants",
    "phone": "(855) 244-6638",
    "address": "2451 N Mcmullen Booth Rd  Clearwater, FL 33759",
    "location": "Seminole"
  },
  {
    "name": "Excel Advertising & Marketing",
    "description": "Advertising Agencies",
    "phone": "(727) 791-0182",
    "address": "2725 Park Dr  Clearwater, FL 33763",
    "location": "Seminole"
  },
  {
    "name": "KMG Marketing",
    "description": "Marketing Programs & Services",
    "phone": "(727) 376-7200",
    "address": "33920 Us Highway 19 N Ste 325  Palm Harbor, FL 34684",
    "location": "Seminole"
  },
  {
    "name": "Tampa Bay FM",
    "description": "Marketing Programs & Services",
    "phone": "(727) 687-9973",
    "address": "1630 San Helen Dr  Dunedin, FL 34698",
    "location": "Seminole"
  },
  {
    "name": "VSF Marketing",
    "description": "Marketing Programs & Services",
    "phone": "(813) 606-4171",
    "address": "3827 Lake Shore Dr  Palm Harbor, FL 34684",
    "location": "Seminole"
  },
  {
    "name": "Witt IT Consulting",
    "description": "Marketing Programs & Services",
    "phone": "(855) 948-8482",
    "address": "495 Alt 19 Unit 1386  Palm Harbor, FL 34682",
    "location": "Seminole"
  },
  {
    "name": "Vital Growth Digital Marketing",
    "description": "Marketing Programs & Services",
    "phone": "(727) 203-2017",
    "address": "422 Still Meadows Cir E  Palm Harbor, FL 34683",
    "location": "Seminole"
  },
  {
    "name": "AdVoText",
    "description": "Marketing Programs & Services",
    "phone": "(813) 384-8164",
    "address": "12712 Saddle Club Cir  Tampa, FL 33635",
    "location": "Seminole"
  },
  {
    "name": "Dtr Inc",
    "description": "Marketing Programs & Services",
    "phone": "(727) 474-4817",
    "address": "28100 US Highway 19 N  Clearwater, FL 33761",
    "location": "Seminole"
  },
  {
    "name": "Nations First Financial",
    "description": "Marketing Programs & Services",
    "phone": "(727) 736-3003",
    "address": "2058 Bayshore Blvd  Dunedin, FL 34698",
    "location": "Seminole"
  },
  {
    "name": "Quadrant in Touch Marketing",
    "description": "Marketing Programs & Services",
    "phone": "(727) 733-6959",
    "address": "1449 Wetherington Way  Palm Harbor, FL 34683",
    "location": "Seminole"
  },
  {
    "name": "Tropical Aquatics Marketing Inc",
    "description": "Marketing Programs & Services",
    "phone": "(727) 786-1912",
    "address": "30725 Us Highway 19 N  Palm Harbor, FL 34684",
    "location": "Seminole"
  },
  {
    "name": "Peck Marketing Of The Suncoast",
    "description": "Marketing Programs & Services",
    "phone": "(727) 953-7801",
    "address": "3028 Bonaventure Cir  Palm Harbor, FL 34684",
    "location": "Seminole"
  },
  {
    "name": "JP Marketing",
    "description": "Marketing Programs & Services",
    "phone": "(813) 925-1365",
    "address": "4025 Tampa Rd  Oldsmar, FL 34677",
    "location": "Seminole"
  },
  {
    "name": "Spectrio",
    "description": "Marketing Programs & Services",
    "phone": "(800) 584-4653",
    "address": "4033 Tampa Rd Ste 103  Oldsmar, FL 34677",
    "location": "Seminole"
  },
  {
    "name": "Action Sales and Marketing",
    "description": "Marketing Programs & Services",
    "phone": "(813) 882-0700",
    "address": "5815 Memorial Hwy  Tampa, FL 33615",
    "location": "Seminole"
  },
  {
    "name": "Rental Marketing Solutions",
    "description": "Marketing Programs & Services",
    "phone": "(727) 821-1999",
    "address": "2729 Pine Tree Ln  Clearwater, FL 33761",
    "location": "Seminole"
  },
  {
    "name": "Ekkos Global Associates",
    "description": "Marketing Programs & Services",
    "phone": "(727) 871-2687",
    "address": "2520 N Mcmullen Booth Rd Ste B114  Clearwater, FL 33761",
    "location": "Seminole"
  },
  {
    "name": "Infinity Marketing Group Inc",
    "description": "Marketing Programs & Services",
    "phone": "(727) 234-0934",
    "address": "28870 Us Highway 19 N Ste 400  Clearwater, FL 33761",
    "location": "Seminole"
  },
  {
    "name": "Novatel Marketing",
    "description": "Marketing Programs & Services",
    "phone": "(727) 669-1004",
    "address": "28870 Us Highway 19 N  Clearwater, FL 33761",
    "location": "Seminole"
  },
  {
    "name": "Sovereign Cruises",
    "description": "Marketing Programs & Services",
    "phone": "(727) 669-8820",
    "address": "118 Woodland Ct  Safety Harbor, FL 34695",
    "location": "Seminole"
  },
  {
    "name": "Assisted Carefree Moves Inc",
    "description": "Marketing Programs & Services",
    "phone": "(727) 784-2626",
    "address": "2742 Jarvis Cir  Palm Harbor, FL 34683",
    "location": "Seminole"
  },
  {
    "name": "Harnish Marketing",
    "description": "Marketing Programs & Services",
    "phone": "(727) 754-2952",
    "address": "30700 Us Highway 19 N Lot 19n  Palm Harbor, FL 34684",
    "location": "Seminole"
  },
  {
    "name": "G & J Marketing Co",
    "description": "Marketing Programs & Services",
    "phone": "(727) 786-0819",
    "address": "292 North St  Palm Harbor, FL 34683",
    "location": "Seminole"
  },
  {
    "name": "Smart Marketing Concepts",
    "description": "Marketing Programs & Services",
    "phone": "(813) 385-1658",
    "address": "120 State St E  Oldsmar, FL 34677",
    "location": "Seminole"
  },
  {
    "name": "Wildkat Media Inc",
    "description": "Marketing Programs & Services",
    "phone": "(727) 460-6662",
    "address": "300 State St E  Oldsmar, FL 34677",
    "location": "Seminole"
  },
  {
    "name": "G & J Marketing Licensing",
    "description": "Marketing Programs & Services",
    "phone": "(727) 785-0066",
    "address": "292 Alt 19  Palm Harbor, FL 34683",
    "location": "Seminole"
  },
  {
    "name": "Guac Digital Marketing",
    "description": "Marketing Programs & Services",
    "phone": "(813) 321-5690",
    "address": "N Rocky Point Dr  Tampa, FL 33607",
    "location": "Seminole"
  },
  {
    "name": "Emphalic Marketing",
    "description": "Marketing Programs & Services",
    "phone": "(813) 316-2390",
    "address": "2502 N Rocky Point Dr  Rocky Point, FL 33607",
    "location": "Seminole"
  },
  {
    "name": "Schriner International Hdqrs",
    "description": "Marketing Programs & Services",
    "phone": "(813) 281-0300",
    "address": "2900 N Rocky Point Dr  Rocky Point, FL 33607",
    "location": "Seminole"
  },
  {
    "name": "VAR Channel Marketing",
    "description": "Marketing Programs & Services",
    "phone": "(813) 868-7684",
    "address": "3030 N Rocky Point Dr W Ste 150  Tampa, FL 33607",
    "location": "Seminole"
  },
  {
    "name": "Mdesign Media",
    "description": "Marketing Programs & Services",
    "phone": "(813) 495-7070",
    "address": "3001 N Rocky Point Dr E Ste 200  Tampa, FL 33607",
    "location": "Seminole"
  },
  {
    "name": "Local SEO Tampa Company",
    "description": "Marketing Programs & Services",
    "phone": "(813) 358-4498",
    "address": "3030 N Rocky Point Dr W Ste 150  Tampa, FL 33607",
    "location": "Seminole"
  },
  {
    "name": "Potter Marketing & Branding",
    "description": "Marketing Programs & Services",
    "phone": "(727) 812-8982",
    "address": "2523 Estancia Blvd  Clearwater, FL 33761",
    "location": "Seminole"
  },
  {
    "name": "Central Florida Marketing",
    "description": "Marketing Programs & Services",
    "phone": "(727) 902-8165",
    "address": "Po Box 1211  Safety Harbor, FL 34695",
    "location": "Seminole"
  },
  {
    "name": "Integrated Marketing Association",
    "description": "Marketing Programs & Services",
    "phone": "(816) 729-4405",
    "address": "306 N Bay Hills Blvd  Safety Harbor, FL 34695",
    "location": "Seminole"
  },
  {
    "name": "Traffic Advertising",
    "description": "Marketing Programs & Services",
    "phone": "(727) 216-6470",
    "address": "33920 Us Highway 19 N Ste 200  Palm Harbor, FL 34684",
    "location": "Seminole"
  },
  {
    "name": "Marketing Bionics",
    "description": "Marketing Programs & Services",
    "phone": "(727) 228-1984",
    "address": "2519 N Mcmullen Booth Rd Ste 111  Clearwater, FL 33761",
    "location": "Seminole"
  },
  {
    "name": "Scott Keever SEO",
    "description": "Marketing Programs & Services",
    "phone": "(813) 455-1455",
    "address": "3030 N Rocky Point Dr 150a Ste 1  Tampa, FL 33607",
    "location": "Seminole"
  },
  {
    "name": "The Launch Group",
    "description": "Marketing Programs & Services",
    "phone": "(727) 261-1667",
    "address": "3438 E Lake Rd Ste 14-658  Palm Harbor, FL 34685",
    "location": "Seminole"
  },
  {
    "name": "Jomar Media",
    "description": "Marketing Programs & Services",
    "phone": "(813) 724-1472",
    "address": "3001 N Rocky Point Dr E Ste 200  Tampa, FL 33607",
    "location": "Seminole"
  },
  {
    "name": "Homeport Marketing",
    "description": "Marketing Programs & Services",
    "phone": "(813) 675-9002",
    "address": "6107 Memorial Hwy  Tampa, FL 33615",
    "location": "Seminole"
  },
  {
    "name": "60 Second Agency",
    "description": "Marketing Programs & Services",
    "phone": "(727) 888-6027",
    "address": "1372 Bay Harbor Dr Apt 305  Palm Harbor, FL 34685",
    "location": "Seminole"
  },
  {
    "name": "Richter Publishing LLC",
    "description": "Marketing Programs & Services",
    "phone": "(727) 487-2088",
    "address": "3030 N Rocky Point Dr W  Rocky Point, FL 33607",
    "location": "Seminole"
  },
  {
    "name": "Winn Technology Group",
    "description": "Marketing Programs & Services",
    "phone": "(727) 789-0006",
    "address": "523 Alt 19  Palm Harbor, FL 34683",
    "location": "Seminole"
  },
  {
    "name": "Socius Marketing",
    "description": "Marketing Programs & Services",
    "phone": "(813) 282-8300",
    "address": "2701 N Rocky Point Dr Ste 410  Tampa, FL 33607",
    "location": "Seminole"
  },
  {
    "name": "Longley Group",
    "description": "Marketing Programs & Services",
    "phone": "(727) 754-7870",
    "address": "989 Georgia Ave  Palm Harbor, FL 34683",
    "location": "Seminole"
  },
  {
    "name": "J & M Advertising",
    "description": "Marketing Programs & Services",
    "phone": "(727) 451-6510",
    "address": "13618 W Hillsborough Ave  Tampa, FL 33635",
    "location": "Seminole"
  },
  {
    "name": "Elite Marketing",
    "description": "Marketing Programs & Services",
    "phone": "(813) 884-3545",
    "address": "6339 Memorial Hwy  Tampa, FL 33615",
    "location": "Seminole"
  },
  {
    "name": "Digital Dynamix",
    "description": "Internet Marketing & Advertising",
    "phone": "(727) 232-9010",
    "address": "28050 Us Highway 19 N Ste 203  Clearwater, FL 33761",
    "location": "Seminole"
  },
  {
    "name": "Nu Cen-tury Inc",
    "description": "Marketing Consultants",
    "phone": "(877) 686-5453",
    "address": "32196 Us Highway 19 N Ste A  Palm Harbor, FL 34684",
    "location": "Seminole"
  },
  {
    "name": "Affinity Marketing & Communications, Inc.",
    "description": "Internet Marketing & Advertising",
    "phone": "(727) 733-9332",
    "address": "333 Marie St  Palm Harbor, FL 34683",
    "location": "Seminole"
  },
  {
    "name": "Solicitation Department",
    "description": "Advertising Agencies",
    "phone": "(844) 560-7708",
    "address": "33920 Us Highway 19 N Ste 180  Palm Harbor, FL 34684",
    "location": "Seminole"
  },
  {
    "name": "Zidan Marketing & Media Inc",
    "description": "Internet Marketing & Advertising",
    "phone": "(727) 280-6708",
    "address": "2744 Summerdale Dr  Clearwater, FL 33761",
    "location": "Seminole"
  },
  {
    "name": "YP Marketing Solutions",
    "description": "Directory & Guide Advertising",
    "phone": "(813) 336-6000",
    "address": "3001 N Rocky Point Dr E Ste 200  Rocky Point, FL 33607",
    "location": "Seminole"
  },
  {
    "name": "Pure Digital Marketing",
    "description": "Internet Marketing & Advertising",
    "phone": "(813) 419-7873",
    "address": "3001 N Rocky Point Dr E Ste 200  Rocky Point, FL 33607",
    "location": "Seminole"
  },
  {
    "name": "Foxhound",
    "description": "Internet Marketing & Advertising",
    "phone": "(650) 332-2023",
    "address": "7616 W Courtney Campbell Cswy  Tampa, FL 33607",
    "location": "Seminole"
  },
  {
    "name": "The Menu Spring",
    "description": "Restaurant Management & Consultants",
    "phone": "(813) 924-7087",
    "address": "30725 Us Highway 19 N # 137  Palm Harbor, FL 34684",
    "location": "Seminole"
  },
  {
    "name": "Black Book Market Research",
    "description": "Market Research & Analysis",
    "phone": "(800) 863-7590",
    "address": "3030 N Rocky Point Dr  Tampa, FL 33607",
    "location": "Seminole"
  },
  {
    "name": "Lewis SEO",
    "description": "Internet Marketing & Advertising",
    "phone": "(727) 325-1316",
    "address": "2454 N. McMullen Booth Road  Clearwater, FL 33759",
    "location": "Seminole"
  },
  {
    "name": "Whall Productions",
    "description": "Internet Marketing & Advertising",
    "phone": "(813) 699-9309",
    "address": "2765 Meadow Oak Dr E  Clearwater, FL 33761",
    "location": "Seminole"
  },
  {
    "name": "Visual Realm",
    "description": "Web Site Design & Services",
    "phone": "(727) 474-1212",
    "address": "108 Harbor Dr  Palm Harbor, FL 34683",
    "location": "Seminole"
  },
  {
    "name": "Innovative Concept Group",
    "description": "Marketing Consultants",
    "phone": "(813) 282-0200",
    "address": "13521 Prestige Pl  Tampa, FL 33635",
    "location": "Seminole"
  },
  {
    "name": "Venetia Design Inc",
    "description": "Advertising Agencies",
    "phone": "(813) 350-7902",
    "address": "3030 N Rocky Point Dr W  Tampa, FL 33607",
    "location": "Seminole"
  },
  {
    "name": "Wordpress Seo Experts",
    "description": "Advertising Agencies",
    "phone": "(813) 492-4080",
    "address": "5350 Bridge St  Tampa, FL 33611",
    "location": "Seminole"
  },
  {
    "name": "Clarity Media Solutions",
    "description": "Advertising Agencies",
    "phone": "(813) 421-4125",
    "address": "334 E Lake Rd # 149  Palm Harbor, FL 34685",
    "location": "Seminole"
  },
  {
    "name": "Schaaf & Vitorillo Group, LLC",
    "description": "Internet Marketing & Advertising",
    "phone": "(813) 803-5633",
    "address": "3001 N Rocky Point Dr E  Rocky Point, FL 33607",
    "location": "Seminole"
  },
  {
    "name": "MiTek Software Solutions",
    "description": "Internet Marketing & Advertising",
    "phone": "(844) 456-2715",
    "address": "5811 Memorial Hwy Ste 202  Tampa, FL 33615",
    "location": "Seminole"
  },
  {
    "name": "Regal Hospitality Group",
    "description": "Market Research & Analysis",
    "phone": "(813) 854-1855",
    "address": "13940 W Hillsborough Ave  Tampa, FL 33635",
    "location": "Seminole"
  },
  {
    "name": "Digital Media Solutions",
    "description": "Internet Marketing & Advertising",
    "phone": "(727) 287-0440",
    "address": "28100 Us Highway 19 N Ste 204  Clearwater, FL 33761",
    "location": "Seminole"
  },
  {
    "name": "Angelik Web Designs",
    "description": "Web Site Design & Services",
    "phone": "(727) 485-4022",
    "address": "293 Orange St  Ozona, FL 34660",
    "location": "Seminole"
  },
  {
    "name": "Web Stop",
    "description": "Web Site Design & Services",
    "phone": "(727) 942-2797",
    "address": "3488 E Lake Rd  Palm Harbor, FL 34685",
    "location": "Seminole"
  },
  {
    "name": "Designo International, Inc.",
    "description": "Internet Marketing & Advertising",
    "phone": "(800) 457-3870",
    "address": "3001 N Rocky Point Dr E  Rocky Point, FL 33607",
    "location": "Seminole"
  },
  {
    "name": "Re Sales & Marketing Inc",
    "description": "Marketing Consultants",
    "phone": "(727) 726-0583",
    "address": "2720 Haverhill Ct  Clearwater, FL 33761",
    "location": "Seminole"
  },
  {
    "name": "Wenstrom Communication",
    "description": "Advertising Agencies",
    "phone": "(727) 791-1188",
    "address": "2431 Estancia Blvd Ste C  Clearwater, FL 33761",
    "location": "Seminole"
  },
  {
    "name": "The CShop Quadrant Sales & Marketing",
    "description": "Marketing Consultants",
    "phone": "(727) 733-6959",
    "address": "Po Box 2156  Dunedin, FL 34697",
    "location": "Seminole"
  },
  {
    "name": "Ib Systems Inc",
    "description": "Computer Software & Services",
    "phone": "(727) 797-3051",
    "address": "28870 Us Highway 19 N Ste 336  Clearwater, FL 33761",
    "location": "Seminole"
  },
  {
    "name": "Creative Solutions Marketing Inc",
    "description": "Marketing Consultants",
    "phone": "(727) 726-2277",
    "address": "28870 Us Highway 19 N Ste 100  Clearwater, FL 33761",
    "location": "Seminole"
  },
  {
    "name": "L K Adventures Inc",
    "description": "Marketing Consultants",
    "phone": "(727) 781-1405",
    "address": "2224 Spanish Vistas Dr  Dunedin, FL 34698",
    "location": "Seminole"
  },
  {
    "name": "S4 Marketors",
    "description": "Marketing Consultants",
    "phone": "(727) 781-3300",
    "address": "2410 Northside Dr  Clearwater, FL 33761",
    "location": "Seminole"
  },
  {
    "name": "Tropical Aquatics Marketing",
    "description": "Marketing Consultants",
    "phone": "(727) 786-1912",
    "address": "1690 Country Ln  Dunedin, FL 34698",
    "location": "Seminole"
  },
  {
    "name": "Online Presence Manager",
    "description": "Marketing Consultants",
    "phone": "(727) 330-1005",
    "address": "1528 Canopy Oaks  Palm Harbor, FL 34683",
    "location": "Seminole"
  },
  {
    "name": "Make Money From Home",
    "description": "Marketing Consultants",
    "phone": "(727) 239-7190",
    "address": "947 Wicks Dr  Palm Harbor, FL 34684",
    "location": "Seminole"
  },
  {
    "name": "K & R Management Resources",
    "description": "Business Coaches & Consultants",
    "phone": "(727) 756-5220",
    "address": "31201 Us Highway 19 N  Palm Harbor, FL 34684",
    "location": "Seminole"
  },
  {
    "name": "Gold Coast Promotions",
    "description": "Advertising-Promotional Products",
    "phone": "(727) 785-0919",
    "address": "261 Alt 19 S  Palm Harbor, FL 34683",
    "location": "Seminole"
  },
  {
    "name": "MarketPro Direct",
    "description": "Marketing Consultants",
    "phone": "(727) 403-7554",
    "address": "507 Arlington Ave E  Oldsmar, FL 34677",
    "location": "Seminole"
  },
  {
    "name": "Nu Century Inc",
    "description": "Marketing Consultants",
    "phone": "(813) 775-2344",
    "address": "3980 Tampa Rd  Oldsmar, FL 34677",
    "location": "Seminole"
  },
  {
    "name": "King Com",
    "description": "Advertising Specialties",
    "phone": "(727) 784-7905",
    "address": "2782 Valencia Ln W  Palm Harbor, FL 34684",
    "location": "Seminole"
  },
  {
    "name": "S4 Marketers",
    "description": "Marketing Consultants",
    "phone": "(727) 781-3300",
    "address": "3440 E Lake Rd  Palm Harbor, FL 34685",
    "location": "Seminole"
  },
  {
    "name": "The Marketing Animals",
    "description": "Marketing Consultants",
    "phone": "(727) 787-2275",
    "address": "155 Garland Cir  Palm Harbor, FL 34683",
    "location": "Seminole"
  },
  {
    "name": "James Pullara SEO Agency",
    "description": "Internet Products & Services",
    "phone": "(727) 657-1119",
    "address": "3998 Stone Hollow Ct Apt 9  Palm Harbor, FL 34684",
    "location": "Seminole"
  },
  {
    "name": "Mortgage Marketing Animals",
    "description": "Marketing Consultants",
    "phone": "(727) 787-2275",
    "address": "802 Michigan Ave  Palm Harbor, FL 34683",
    "location": "Seminole"
  },
  {
    "name": "Rmc Marketing",
    "description": "Marketing Consultants",
    "phone": "(727) 772-8000",
    "address": "1314 Alt 19  Palm Harbor, FL 34683",
    "location": "Seminole"
  },
  {
    "name": "Shoreline Image Works",
    "description": "Advertising-Promotional Products",
    "phone": "(727) 786-6184",
    "address": "1754 Lago Vista Blvd  Palm Harbor, FL 34685",
    "location": "Seminole"
  },
  {
    "name": "K & R Manage Solutions",
    "description": "Marketing Consultants",
    "phone": "(813) 925-1213",
    "address": "13510 Prestige Pl  Tampa, FL 33635",
    "location": "Seminole"
  },
  {
    "name": "Sansone Industries Inc",
    "description": "Marketing Consultants",
    "phone": "(813) 609-6503",
    "address": "3212 Bay Club Cir  Tampa, FL 33607",
    "location": "Seminole"
  },
  {
    "name": "Cyberwalker Digital",
    "description": "Advertising Agencies",
    "phone": "(813) 341-2979",
    "address": "3030 N Rocky Point Dr W  Tampa, FL 33607",
    "location": "Seminole"
  },
  {
    "name": "Bluleadz",
    "description": "Advertising Agencies",
    "phone": "(866) 995-8720",
    "address": "3030 N Rocky Point Dr W Ste 600  Tampa, FL 33607",
    "location": "Seminole"
  },
  {
    "name": "Lead St Marketi Ng",
    "description": "Marketing Consultants",
    "phone": "(813) 515-5624",
    "address": "7436 Transom Ct  Tampa, FL 33607",
    "location": "Seminole"
  },
  {
    "name": "Chacka Marketing",
    "description": "Marketing Consultants",
    "phone": "(813) 885-6555",
    "address": "6105 Memorial Hwy Ste A15  Tampa, FL 33615",
    "location": "Seminole"
  },
  {
    "name": "Real Performance Marketing West",
    "description": "Marketing Consultants",
    "phone": "(813) 889-9100",
    "address": "5811 Memorial Hwy Ste 208  Tampa, FL 33615",
    "location": "Seminole"
  },
  {
    "name": "Sociali",
    "description": "Marketing Programs & Services",
    "phone": "(813) 586-0149",
    "address": "5401 W Kennedy Blvd  Tampa, FL 33609",
    "location": "Seminole"
  },
  {
    "name": "Travel Club Marketing Inc",
    "description": "Marketing Programs & Services",
    "phone": "(813) 570-8476",
    "address": "5700 Memorial Hwy  Tampa, FL 33615",
    "location": "Seminole"
  },
  {
    "name": "On-Demand Marketing Service Inc",
    "description": "Marketing Programs & Services",
    "phone": "(813) 559-9800",
    "address": "5700 Memorial Hwy  Tampa, FL 33615",
    "location": "Seminole"
  },
  {
    "name": "Roger West Creative and Code | Digital Marketing Agency",
    "description": "Marketing Programs & Services",
    "phone": "(813) 286-9100",
    "address": "550 N Reo St Ste 100  Tampa, FL 33609",
    "location": "Seminole"
  },
  {
    "name": "Mainstay Marketing",
    "description": "Marketing Programs & Services",
    "phone": "(813) 261-3775",
    "address": "550 N Reo St Ste 203  Tampa, FL 33609",
    "location": "Seminole"
  },
  {
    "name": "Choice Marketing",
    "description": "Marketing Programs & Services",
    "phone": "(813) 289-6111",
    "address": "550 N Reo St  Tampa, FL 33609",
    "location": "Seminole"
  },
  {
    "name": "Gentech Marketing",
    "description": "Marketing Programs & Services",
    "phone": "(850) 788-2740",
    "address": "5401 W Kennedy Blvd  Tampa, FL 33609",
    "location": "Seminole"
  },
  {
    "name": "Ivans",
    "description": "Marketing Programs & Services",
    "phone": "(813) 282-7000",
    "address": "5405 Cypress Center Dr  Tampa, FL 33609",
    "location": "Seminole"
  },
  {
    "name": "Intelligent Direct Marketing",
    "description": "Marketing Programs & Services",
    "phone": "(813) 321-0050",
    "address": "5405 Cypress Center Dr Ste 220  Tampa, FL 33609",
    "location": "Seminole"
  },
  {
    "name": "Truth Marketing Concepts",
    "description": "Marketing Programs & Services",
    "phone": "(813) 882-4900",
    "address": "4902 Eisenhower Blvd  Tampa, FL 33634",
    "location": "Seminole"
  },
  {
    "name": "Capital Marketing Solutions",
    "description": "Marketing Programs & Services",
    "phone": "(813) 644-6990",
    "address": "5110 Eisenhower Blvd  Tampa, FL 33634",
    "location": "Seminole"
  },
  {
    "name": "Family First",
    "description": "Marketing Programs & Services",
    "phone": "(813) 222-8300",
    "address": "5509 W Gray St  Tampa, FL 33609",
    "location": "Seminole"
  },
  {
    "name": "Americo Direct",
    "description": "Marketing Programs & Services",
    "phone": "(813) 261-5111",
    "address": "550 N Reo St  Tampa, FL 33609",
    "location": "Seminole"
  },
  {
    "name": "LeadingResponse",
    "description": "Marketing Programs & Services",
    "phone": "(800) 660-2550",
    "address": "4805 Independence Pkwy  Tampa, FL 33634",
    "location": "Seminole"
  },
  {
    "name": "RME360 - Response Marketing Excellence",
    "description": "Marketing Programs & Services",
    "phone": "(888) 383-8770",
    "address": "4805 Independence Pkwy  Tampa, FL 33634",
    "location": "Seminole"
  },
  {
    "name": "MileMark Media",
    "description": "Marketing Programs & Services",
    "phone": "(813) 200-5844",
    "address": "5100 W Kennedy Blvd Ste 152  Tampa, FL 33609",
    "location": "Seminole"
  },
  {
    "name": "Tampa SEO Training Academy",
    "description": "Internet Marketing & Advertising",
    "phone": "(813) 330-0736",
    "address": "5404 Cypress Center Dr Ste 125a  Tampa, FL 33609",
    "location": "Seminole"
  },
  {
    "name": "Adenvision",
    "description": "Marketing Consultants",
    "phone": "(813) 773-6812",
    "address": "5340 W Kennedy Blvd  Tampa, FL 33609",
    "location": "Seminole"
  },
  {
    "name": "Rai Bakers",
    "description": "Marketing Consultants",
    "phone": "(813) 773-6812",
    "address": "5340 W Kennedy Blvd  Tampa, FL 33609",
    "location": "Seminole"
  },
  {
    "name": "Bluleadz Inbound Marketing",
    "description": "Marketing Consultants",
    "phone": "(813) 636-5075",
    "address": "5405 Cypress Center Dr  Tampa, FL 33609",
    "location": "Seminole"
  },
  {
    "name": "Plaza Research Corporation - Tampa",
    "description": "Market Research & Analysis",
    "phone": "(813) 769-2900",
    "address": "4301 Anchor Plaza Pkwy Ste 150  Tampa, FL 33634",
    "location": "Seminole"
  },
  {
    "name": "Schwartz Research Services Inc",
    "description": "Market Research & Analysis",
    "phone": "(813) 207-0332",
    "address": "5027 W Laurel St  Tampa, FL 33607",
    "location": "Seminole"
  },
  {
    "name": "L & E Research",
    "description": "Market Research & Analysis",
    "phone": "(813) 443-8209",
    "address": "5110 Eisenhower Blvd Ste 300  Tampa, FL 33634",
    "location": "Seminole"
  },
  {
    "name": "Delphian",
    "description": "Internet Marketing & Advertising",
    "phone": "(813) 330-0900",
    "address": "3000 Bayport Dr  Tampa, FL 33607",
    "location": "Seminole"
  },
  {
    "name": "LotVantage",
    "description": "Internet Marketing & Advertising",
    "phone": "(813) 470-7094",
    "address": "3415 E Frontage Rd Ste B  Tampa, FL 33607",
    "location": "Seminole"
  },
  {
    "name": "Leadgen Marketing Inc",
    "description": "Marketing Consultants",
    "phone": "(813) 570-8446",
    "address": "5700 Memorial Hwy  Tampa, FL 33615",
    "location": "Seminole"
  },
  {
    "name": "CNC Insurance and Marketing Consultants",
    "description": "Marketing Consultants",
    "phone": "(813) 579-9693",
    "address": "5535 Memorial Hwy  Tampa, FL 33634",
    "location": "Seminole"
  },
  {
    "name": "Octane Marketing",
    "description": "Media Brokers",
    "phone": "(813) 887-1800",
    "address": "3934 E Eden Roc Cir  Rocky Point, FL 33634",
    "location": "Seminole"
  },
  {
    "name": "Safetynetwork.Me",
    "description": "Marketing Consultants",
    "phone": "(813) 469-9978",
    "address": "5660 W Cypress St  Tampa, FL 33607",
    "location": "Seminole"
  },
  {
    "name": "Trend Marketing Services Inc",
    "description": "Food Products-Wholesale",
    "phone": "(813) 286-1920",
    "address": "5440 Mariner St  Tampa, FL 33609",
    "location": "Seminole"
  },
  {
    "name": "Teasdale WW",
    "description": "Marketing Consultants",
    "phone": "(813) 868-1515",
    "address": "405 N Reo St  Tampa, FL 33609",
    "location": "Seminole"
  },
  {
    "name": "Global Mortgage",
    "description": "Marketing Consultants",
    "phone": "(813) 261-5094",
    "address": "550 N Reo St Ste 104  Tampa, FL 33609",
    "location": "Seminole"
  },
  {
    "name": "Larrea & Associates",
    "description": "Marketing Consultants",
    "phone": "(813) 287-1914",
    "address": "5300 W Cypress St  Tampa, FL 33607",
    "location": "Seminole"
  },
  {
    "name": "Reach Local",
    "description": "Marketing Consultants",
    "phone": "(813) 217-8249",
    "address": "4805 Independence Pkwy Ste 125  Tampa, FL 33634",
    "location": "Seminole"
  },
  {
    "name": "Rme Leads Financial Marketing Experts",
    "description": "Marketing Consultants",
    "phone": "(813) 885-8201",
    "address": "4805 Independence Pkwy  Tampa, FL 33634",
    "location": "Seminole"
  },
  {
    "name": "Sphyra",
    "description": "Customs Consultants",
    "phone": "(813) 280-4970",
    "address": "5100 W Lemon St Ste 110  Tampa, FL 33609",
    "location": "Seminole"
  },
  {
    "name": "Salem Surround Tampa",
    "description": "Marketing Consultants",
    "phone": "(813) 425-8623",
    "address": "5211 W Laurel St Ste A  Tampa, FL 33607",
    "location": "Seminole"
  }
]
