[
  {
    "name": "FMC Marketing",
    "description": "Marketing Programs & Services",
    "phone": "(904) 729-3923",
    "address": "22 Ashlar Dr  Saint Johns, FL 32259",
    "location": "St._Johns"
  },
  {
    "name": "Fable Heart Media",
    "description": "Marketing Programs & Services",
    "phone": "(904) 479-1472",
    "address": "255 Rivertown Shops Dr Ste 102 PMB 126  Saint Johns, FL 32259",
    "location": "St._Johns"
  },
  {
    "name": "Merkley Marketing Group",
    "description": "Marketing Programs & Services",
    "phone": "(904) 217-3430",
    "address": "357 Maplewood Dr  Saint Johns, FL 32259",
    "location": "St._Johns"
  },
  {
    "name": "Lists",
    "description": "Marketing Programs & Services",
    "phone": "(904) 660-0596",
    "address": "1820 State Road 13 N  Saint Johns, FL 32259",
    "location": "St._Johns"
  },
  {
    "name": "DRIVEN2WIN",
    "description": "Sales Promotion Service",
    "phone": "(904) 638-7200",
    "address": "450 State Road 13 Ste 106  Saint Johns, FL 32259",
    "location": "St._Johns"
  },
  {
    "name": "Paradigm Mobile",
    "description": "Marketing Consultants",
    "phone": "(904) 217-7354",
    "address": "512 Royal Stewart Ct  Saint Johns, FL 32259",
    "location": "St._Johns"
  },
  {
    "name": "Xsite Digital, Inc.",
    "description": "Advertising Agencies",
    "phone": "(904) 477-3667",
    "address": "549 Dandelion Dr  Saint Johns, FL 32259",
    "location": "St._Johns"
  },
  {
    "name": "Social Butterfly",
    "description": "Marketing Consultants",
    "phone": "(904) 654-1624",
    "address": "257 Bell Branch Ln  Saint Johns, FL 32259",
    "location": "St._Johns"
  },
  {
    "name": "Strong Thrift Marketing",
    "description": "Marketing Consultants",
    "phone": "(904) 342-2528",
    "address": "616 State Road 13 N  Saint Johns, FL 32259",
    "location": "St._Johns"
  },
  {
    "name": "Industry Newsletters",
    "description": "Marketing Programs & Services",
    "phone": "(240) 252-2077",
    "address": "411 Walnut St  Green Cove Springs, FL 32043",
    "location": "St._Johns"
  },
  {
    "name": "Renaissance Digital Marketing",
    "description": "Marketing Consultants",
    "phone": "(904) 844-9426",
    "address": "109 Nature Walk Pkwy Unit 104  Saint Augustine, FL 32092",
    "location": "St._Johns"
  },
  {
    "name": "enCode",
    "description": "Incentive Programs",
    "phone": "(904) 501-3042",
    "address": "Po Box 600534  Jacksonville, FL 32260",
    "location": "St._Johns"
  },
  {
    "name": "Legacy Marketing",
    "description": "Marketing Consultants",
    "phone": "(904) 493-2000",
    "address": "6501 Arlington Expy  Jacksonville, FL 32211",
    "location": "St._Johns"
  },
  {
    "name": "Liquid Creative - Marketing Agency Jacksonville",
    "description": "Marketing Programs & Services",
    "phone": "(352) 600-5050",
    "address": "12574 Flagler Center Blvd Ste 101  Jacksonville, FL 32258",
    "location": "St._Johns"
  },
  {
    "name": "Dagmar Marketing",
    "description": "Marketing Programs & Services",
    "phone": "(904) 270-9778",
    "address": "12574 Flagler Center Blvd Ste 101  Jacksonville, FL 32258",
    "location": "St._Johns"
  },
  {
    "name": "PVF Marketing Inc",
    "description": "Marketing Programs & Services",
    "phone": "(904) 262-0804",
    "address": "12627 San Jose Blvd  Jacksonville, FL 32223",
    "location": "St._Johns"
  },
  {
    "name": "Success Marketing Services",
    "description": "Marketing Programs & Services",
    "phone": "(704) 452-7650",
    "address": "13504 Citicards Way  Jacksonville, FL 32258",
    "location": "St._Johns"
  },
  {
    "name": "Driven 2",
    "description": "Marketing Programs & Services",
    "phone": "(904) 638-7200",
    "address": "5285 Shad Rd  Jacksonville, FL 32257",
    "location": "St._Johns"
  },
  {
    "name": "The Publicity Queen",
    "description": "Marketing Programs & Services",
    "phone": "(904) 940-9140",
    "address": "2033 Crown Dr  Saint Augustine, FL 32092",
    "location": "St._Johns"
  },
  {
    "name": "The $avings & $uccess Center",
    "description": "Marketing Programs & Services",
    "phone": "(904) 614-5449",
    "address": "2105 Park Ave Ste 30  Orange Park, FL 32073",
    "location": "St._Johns"
  },
  {
    "name": "Live Well Marketing",
    "description": "Marketing Programs & Services",
    "phone": "(904) 272-2100",
    "address": "2561 County Road 220  Middleburg, FL 32068",
    "location": "St._Johns"
  },
  {
    "name": "Kessler Creative",
    "description": "Marketing Programs & Services",
    "phone": "(904) 346-3898",
    "address": "12276 San Jose Blvd  Jacksonville, FL 32223",
    "location": "St._Johns"
  },
  {
    "name": "Jedi Marketing Concepts",
    "description": "Marketing Programs & Services",
    "phone": "(904) 229-5217",
    "address": "517 Scrub Jay Rd  Jacksonville, FL 32257",
    "location": "St._Johns"
  },
  {
    "name": "Trendsetters Marketing",
    "description": "Marketing Programs & Services",
    "phone": "(904) 262-7077",
    "address": "12025 San Jose Blvd  Jacksonville, FL 32223",
    "location": "St._Johns"
  },
  {
    "name": "Network Solutions",
    "description": "Marketing Programs & Services",
    "phone": "(855) 834-8495",
    "address": "12808 Gran Bay Pkwy W  Jacksonville, FL 32258",
    "location": "St._Johns"
  },
  {
    "name": "Confluency Solutions",
    "description": "Marketing Programs & Services",
    "phone": "(904) 807-4766",
    "address": "11250 Old Saint Augustine Rd  Jacksonville, FL 32257",
    "location": "St._Johns"
  },
  {
    "name": "Renegade Agent Marketing",
    "description": "Marketing Programs & Services",
    "phone": "(904) 337-1677",
    "address": "3020 Hartley Rd  Jacksonville, FL 32257",
    "location": "St._Johns"
  },
  {
    "name": "A & B Marketing Inc",
    "description": "Marketing Programs & Services",
    "phone": "(904) 277-8229",
    "address": "9450 Philips Hwy  Jacksonville, FL 32256",
    "location": "St._Johns"
  },
  {
    "name": "Marketing Armor",
    "description": "Marketing Programs & Services",
    "phone": "(904) 900-5812",
    "address": "4726 Us Highway 17  Fleming Island, FL 32003",
    "location": "St._Johns"
  },
  {
    "name": "Bizooma Inc",
    "description": "Marketing Programs & Services",
    "phone": "(904) 327-3311",
    "address": "884 Creighton Rd  Fleming Island, FL 32003",
    "location": "St._Johns"
  },
  {
    "name": "Power Marketing Group Inc",
    "description": "Marketing Programs & Services",
    "phone": "(904) 272-9799",
    "address": "2068 Pimlico Pl  Orange Park, FL 32073",
    "location": "St._Johns"
  },
  {
    "name": "Real Legal Marketing",
    "description": "Marketing Programs & Services",
    "phone": "(904) 495-0612",
    "address": "52 Tuscan Way Ste 202  St Augustine, FL 32092",
    "location": "St._Johns"
  },
  {
    "name": "Rainbow Energy Marketing",
    "description": "Marketing Programs & Services",
    "phone": "(904) 342-5548",
    "address": "101 E Town Pl  Saint Augustine, FL 32092",
    "location": "St._Johns"
  },
  {
    "name": "Concepts In Focus",
    "description": "Marketing Programs & Services",
    "phone": "(800) 685-7424",
    "address": "1329 Kingsley Ave Ste A  Orange Park, FL 32073",
    "location": "St._Johns"
  },
  {
    "name": "Avtez Corporation",
    "description": "Marketing Programs & Services",
    "phone": "(904) 352-8754",
    "address": "10819 Birchard Ln  Jacksonville, FL 32257",
    "location": "St._Johns"
  },
  {
    "name": "Review Branding TV",
    "description": "Marketing Programs & Services",
    "phone": "(904) 222-8925",
    "address": "6684 Columbia Park Dr S Ste 7  Jacksonville, FL 32258",
    "location": "St._Johns"
  },
  {
    "name": "Marketing Edge LLC",
    "description": "Marketing Programs & Services",
    "phone": "(904) 363-9895",
    "address": "11223 Chester Lake Rd W  Jacksonville, FL 32256",
    "location": "St._Johns"
  },
  {
    "name": "Consult PR, Inc.",
    "description": "Marketing Programs & Services",
    "phone": "(561) 444-7265",
    "address": "12724 Gran Bay Pkwy W  Jacksonville, FL 32258",
    "location": "St._Johns"
  },
  {
    "name": "Kesarlong.Com",
    "description": "Marketing Programs & Services",
    "phone": "(904) 600-3004",
    "address": "12574 Flagler Center Blvd Ste 101  Jacksonville, FL 32258",
    "location": "St._Johns"
  },
  {
    "name": "Ulrich Research Services Inc",
    "description": "Marketing Programs & Services",
    "phone": "(904) 264-3282",
    "address": "1329 Kingsley Ave  Orange Park, FL 32073",
    "location": "St._Johns"
  },
  {
    "name": "Wealthinary Marketing",
    "description": "Marketing Programs & Services",
    "phone": "(904) 990-3331",
    "address": "3390 Kori Rd Ste 4b  Jacksonville, FL 32257",
    "location": "St._Johns"
  },
  {
    "name": "BrainSell Media, Inc.",
    "description": "Marketing Programs & Services",
    "phone": "(248) 672-8812",
    "address": "4656 Tuscan Wood Ct  Saint Augustine, FL 32092",
    "location": "St._Johns"
  },
  {
    "name": "web904.com, LLC",
    "description": "Marketing Programs & Services",
    "phone": "(904) 375-0194",
    "address": "1850 Park Ave. #2  Orange Park, FL 32073",
    "location": "St._Johns"
  },
  {
    "name": "Eccentriq Development Solutions LLC",
    "description": "Marketing Programs & Services",
    "phone": "(800) 432-0197",
    "address": "13720 Old Saint Augustine Rd  Jacksonville, FL 32258",
    "location": "St._Johns"
  },
  {
    "name": "PNK Video Productions",
    "description": "Marketing Programs & Services",
    "phone": "(904) 515-7534",
    "address": "11259 Spurline Dr  Jacksonville, FL 32257",
    "location": "St._Johns"
  },
  {
    "name": "The Brand Smart Group",
    "description": "Marketing Programs & Services",
    "phone": "(904) 221-7300",
    "address": "10300 Southside Blvd  Jacksonville, FL 32256",
    "location": "St._Johns"
  },
  {
    "name": "Local Insite Media & Publications",
    "description": "Marketing Programs & Services",
    "phone": "(904) 900-7718",
    "address": "Po Box 32471  Jacksonville, FL 32237",
    "location": "St._Johns"
  },
  {
    "name": "Kwik Kopy",
    "description": "Marketing Programs & Services",
    "phone": "(904) 880-0309",
    "address": "9446 Philips Hwy  Jacksonville, FL 32256",
    "location": "St._Johns"
  },
  {
    "name": "Wild River Digital",
    "description": "Marketing Programs & Services",
    "phone": "(800) 273-7655",
    "address": "52 Tuscan Way  Saint Augustine, FL 32092",
    "location": "St._Johns"
  },
  {
    "name": "Early Bird Solutions, LLC",
    "description": "Internet Marketing & Advertising",
    "phone": "(904) 527-3224",
    "address": "13820 Old Saint Augustine Rd  Jacksonville, FL 32258",
    "location": "St._Johns"
  },
  {
    "name": "Catalavro Concepts, Inc",
    "description": "Computer Network Design & Systems",
    "phone": "(561) 372-1123",
    "address": "115 Legendary Dr  Saint Augustine, FL 32092",
    "location": "St._Johns"
  },
  {
    "name": "Taphouse Graphics",
    "description": "Communications Services",
    "phone": "(949) 412-2278",
    "address": "356 Stonehurst Pkwy  Saint Augustine, FL 32092",
    "location": "St._Johns"
  },
  {
    "name": "SumitSEO",
    "description": "Internet Marketing & Advertising",
    "phone": "(904) 345-0944",
    "address": "10503 San Jose Blvd Ste 4  Jacksonville, FL 32257",
    "location": "St._Johns"
  },
  {
    "name": "It Started In Prison (I.S.I.P.)",
    "description": "Direct Marketing Services",
    "phone": "(831) 392-7594",
    "address": "52 Tuscan Way apt 202-217  St. Augustine, FL 32092",
    "location": "St._Johns"
  },
  {
    "name": "RNR Inc.",
    "description": "Internet Marketing & Advertising",
    "phone": "(904) 541-6675",
    "address": "11995 Marldon Ln  Jacksonville, FL 32258",
    "location": "St._Johns"
  },
  {
    "name": "Motionbuzz Web Design and Marketing",
    "description": "Web Site Design & Services",
    "phone": "(904) 213-9415",
    "address": "752 Blanding Blvd Ste 105  Orange Park, FL 32065",
    "location": "St._Johns"
  },
  {
    "name": "LocalizeMe, LLC",
    "description": "Marketing Consultants",
    "phone": "(904) 289-1533",
    "address": "14809 Falling Waters Dr  jacksonville, FL 32258",
    "location": "St._Johns"
  },
  {
    "name": "Orions Online",
    "description": "Marketing Consultants",
    "phone": "(904) 554-0336",
    "address": "200 Evergreen Ln  Lakeside, FL 32068",
    "location": "St._Johns"
  },
  {
    "name": "Vizzitopia",
    "description": "Internet Marketing & Advertising",
    "phone": "(907) 217-3749",
    "address": "12421 San Jose Blvd Ste 200g  Jacksonville, FL 32223",
    "location": "St._Johns"
  },
  {
    "name": "Sigma Marketing",
    "description": "Marketing Consultants",
    "phone": "(904) 264-6006",
    "address": "1543 Kingsley Ave  Orange Park, FL 32073",
    "location": "St._Johns"
  },
  {
    "name": "DarttSpark Marketing",
    "description": "Internet Marketing & Advertising",
    "phone": "(904) 567-7977",
    "address": "12330 Valpariso Trl  Jacksonville, FL 32223",
    "location": "St._Johns"
  },
  {
    "name": "ISIP Marketing LLC",
    "description": "Direct Marketing Services",
    "phone": "(831) 392-7594",
    "address": "52 Tuscan Way apt 202-217  St. Augustine, FL 32092",
    "location": "St._Johns"
  },
  {
    "name": "Solutions Through Advanced Research",
    "description": "Market Research & Analysis",
    "phone": "(904) 619-8157",
    "address": "14545 Old Saint Augustine Rd  Jacksonville, FL 32258",
    "location": "St._Johns"
  },
  {
    "name": "Irwin Investors",
    "description": "Market Research & Analysis",
    "phone": "(904) 292-1818",
    "address": "9965 San Jose Blvd  Jacksonville, FL 32257",
    "location": "St._Johns"
  },
  {
    "name": "Quick Test/Heakin Research Inc",
    "description": "Market Research & Analysis",
    "phone": "(904) 363-2281",
    "address": "10300 Southside Blvd  Jacksonville, FL 32256",
    "location": "St._Johns"
  },
  {
    "name": "Solutions Thru Advanced",
    "description": "Market Research & Analysis",
    "phone": "(904) 619-8157",
    "address": "10175 Fortune Pkwy  Jacksonville, FL 32256",
    "location": "St._Johns"
  },
  {
    "name": "Port Research",
    "description": "Market Research & Analysis",
    "phone": "(904) 217-8628",
    "address": "1213 Belhaven Ln  Ponte Vedra Beach, FL 32081",
    "location": "St._Johns"
  },
  {
    "name": "HFI Web Design",
    "description": "Internet Marketing & Advertising",
    "phone": "(904) 699-3429",
    "address": "4514 Julington Creek Rd  Jacksonville, FL 32258",
    "location": "St._Johns"
  },
  {
    "name": "Search Seek Destroy",
    "description": "Internet Marketing & Advertising",
    "phone": "(904) 469-7335",
    "address": "11979 Colby Creek Dr  Jacksonville, FL 32258",
    "location": "St._Johns"
  },
  {
    "name": "Daily Net Pay",
    "description": "Internet Marketing & Advertising",
    "phone": "(904) 887-8478",
    "address": "3355 Claire Ln  Jacksonville, FL 32223",
    "location": "St._Johns"
  },
  {
    "name": "Fragcatering.com",
    "description": "Internet Marketing & Advertising",
    "phone": "(904) 888-2982",
    "address": "11459 Earline Cir W  Jacksonville, FL 32258",
    "location": "St._Johns"
  },
  {
    "name": "Design Right 4 U",
    "description": "Web Site Design & Services",
    "phone": "(904) 314-4057",
    "address": "3712 Buffalo Landing Ct  Jacksonville, FL 32257",
    "location": "St._Johns"
  },
  {
    "name": "SearchXcel",
    "description": "Internet Marketing & Advertising",
    "phone": "(877) 400-0252",
    "address": "1778 Fiddlers Ridge Dr  Fleming Island, FL 32003",
    "location": "St._Johns"
  },
  {
    "name": "Betacom Inc",
    "description": "Internet Marketing & Advertising",
    "phone": "(904) 827-0580",
    "address": "125 Cumberland Park Dr  Saint Augustine, FL 32095",
    "location": "St._Johns"
  },
  {
    "name": "Cool Foods of North Florida",
    "description": "Marketing Consultants",
    "phone": "(877) 755-7276",
    "address": "2719 Brandybuck Trl  Jacksonville, FL 32223",
    "location": "St._Johns"
  },
  {
    "name": "C2 Marketing Inc",
    "description": "Marketing Consultants",
    "phone": "(904) 683-6688",
    "address": "13241 Bartram Park Blvd Unit 221  Jacksonville, FL 32258",
    "location": "St._Johns"
  },
  {
    "name": "Olpbettertest",
    "description": "Marketing Consultants",
    "phone": "(904) 680-6988",
    "address": "12808B Gran Bay Pkwy W  Jacksonville, FL 32258",
    "location": "St._Johns"
  },
  {
    "name": "Smart Works Marketing Communications",
    "description": "Marketing Consultants",
    "phone": "(904) 288-6600",
    "address": "11247 San Jose Blvd  Jacksonville, FL 32223",
    "location": "St._Johns"
  },
  {
    "name": "Majority Strategies",
    "description": "Marketing Consultants",
    "phone": "(904) 567-2008",
    "address": "12854 Kenan Dr  Jacksonville, FL 32258",
    "location": "St._Johns"
  },
  {
    "name": "Amy W Pritchett Creative Advertising Services",
    "description": "Marketing Consultants",
    "phone": "(904) 527-3664",
    "address": "11239 Losco Junction Dr S  Jacksonville, FL 32257",
    "location": "St._Johns"
  },
  {
    "name": "Taking Cash Back",
    "description": "Sales Promotion Service",
    "phone": "(904) 662-4261",
    "address": "11250 Old Saint Augustine Rd  Jacksonville, FL 32257",
    "location": "St._Johns"
  },
  {
    "name": "W.O.K. Marketing, Inc.",
    "description": "Marketing Consultants",
    "phone": "(904) 634-7188",
    "address": "2970 Hartley Rd  Jacksonville, FL 32257",
    "location": "St._Johns"
  },
  {
    "name": "Vector Marketing",
    "description": "Marketing Consultants",
    "phone": "(904) 647-5517",
    "address": "10450 San Jose Blvd  Jacksonville, FL 32257",
    "location": "St._Johns"
  },
  {
    "name": "Venture Management",
    "description": "Marketing Consultants",
    "phone": "(904) 270-8800",
    "address": "7035 Phillips Parkway Dr S  Jacksonville, FL 32256",
    "location": "St._Johns"
  },
  {
    "name": "Accord Marketing and Management",
    "description": "Marketing Consultants",
    "phone": "(904) 503-7698",
    "address": "5783 Mining Ter  Jacksonville, FL 32257",
    "location": "St._Johns"
  },
  {
    "name": "Motor Vehicle Marketing",
    "description": "Marketing Consultants",
    "phone": "(904) 730-8561",
    "address": "5535 Shad Rd  Jacksonville, FL 32257",
    "location": "St._Johns"
  },
  {
    "name": "Advantage Sales",
    "description": "Food Products-Wholesale",
    "phone": "(904) 292-9009",
    "address": "7411 Fullerton St  Jacksonville, FL 32256",
    "location": "St._Johns"
  },
  {
    "name": "Harte-Hanks Direct Marketing/Florida",
    "description": "Marketing Consultants",
    "phone": "(904) 363-6313",
    "address": "7498 Fullerton St  Jacksonville, FL 32256",
    "location": "St._Johns"
  },
  {
    "name": "Ezy Marketing",
    "description": "Marketing Consultants",
    "phone": "(904) 269-8630",
    "address": "1845 Town Center Blvd  Fleming Island, FL 32003",
    "location": "St._Johns"
  },
  {
    "name": "S & S Alliance Partners Corp",
    "description": "Marketing Consultants",
    "phone": "(904) 602-5551",
    "address": "1575 Sailmaker Ln  Fleming Island, FL 32003",
    "location": "St._Johns"
  },
  {
    "name": "Hydra Thur Better Test",
    "description": "Marketing Consultants",
    "phone": "(904) 409-0404",
    "address": "2480G Den St  St Augustine, FL 32092",
    "location": "St._Johns"
  },
  {
    "name": "H Better Test",
    "description": "Marketing Consultants",
    "phone": "(904) 409-0494",
    "address": "2480C Den St  St Augustine, FL 32092",
    "location": "St._Johns"
  },
  {
    "name": "Hydra Wed Better Test",
    "description": "Marketing Consultants",
    "phone": "(904) 403-9403",
    "address": "2480F Den St  St Augustine, FL 32092",
    "location": "St._Johns"
  },
  {
    "name": "Hydra Better Test",
    "description": "Marketing Consultants",
    "phone": "(904) 680-6984",
    "address": "2480A Den St  St Augustine, FL 32092",
    "location": "St._Johns"
  },
  {
    "name": "2 Hydra Better Test",
    "description": "Marketing Consultants",
    "phone": "(904) 904-0945",
    "address": "2480E Den St  St Augustine, FL 32092",
    "location": "St._Johns"
  },
  {
    "name": "Performance Sales & Marketing",
    "description": "Marketing Consultants",
    "phone": "(904) 264-5593",
    "address": "2791 Forest Oaks Dr  Orange Park, FL 32073",
    "location": "St._Johns"
  },
  {
    "name": "Lead Quest International Inc",
    "description": "Telemarketing Services",
    "phone": "(904) 644-7969",
    "address": "752 Blanding Blvd  Orange Park, FL 32065",
    "location": "St._Johns"
  },
  {
    "name": "Daniel Marketing Services Inc",
    "description": "Marketing Consultants",
    "phone": "(904) 217-0477",
    "address": "152 River Plantation Rd N  Saint Augustine, FL 32092",
    "location": "St._Johns"
  },
  {
    "name": "Americas Call Center",
    "description": "Marketing Programs & Services",
    "phone": "(844) 364-8923",
    "address": "7901 Baymeadows Way  Jacksonville, FL 32256",
    "location": "St._Johns"
  },
  {
    "name": "Exigo Sales and Marketing",
    "description": "Marketing Programs & Services",
    "phone": "(904) 479-6080",
    "address": "8777 San Jose Blvd  Jacksonville, FL 32217",
    "location": "St._Johns"
  },
  {
    "name": "NightWish Media",
    "description": "Marketing Programs & Services",
    "phone": "(904) 605-5011",
    "address": "10151 Deerwood Park Blvd Ste 250  Jacksonville, FL 32256",
    "location": "St._Johns"
  },
  {
    "name": "Bill Gates Marketing",
    "description": "Marketing Programs & Services",
    "phone": "(904) 635-6200",
    "address": "4150 Belfort Rd  Jacksonville, FL 32255",
    "location": "St._Johns"
  },
  {
    "name": "The Legal Marketing Company",
    "description": "Marketing Programs & Services",
    "phone": "(904) 385-9124",
    "address": "5011 Gate Pkwy  Jacksonville, FL 32256",
    "location": "St._Johns"
  },
  {
    "name": "Market Data Retrieval",
    "description": "Marketing Programs & Services",
    "phone": "(203) 926-4800",
    "address": "5335 Gate Pkwy  Jacksonville, FL 32256",
    "location": "St._Johns"
  },
  {
    "name": "Business Builders",
    "description": "Marketing Programs & Services",
    "phone": "(877) 378-6101",
    "address": "701 Market St Ste 101  St Augustine, FL 32095",
    "location": "St._Johns"
  },
  {
    "name": "Vanessa Barthelmes",
    "description": "Marketing Programs & Services",
    "phone": "(904) 999-7698",
    "address": "8787 Southside Blvd  Jacksonville, FL 32256",
    "location": "St._Johns"
  },
  {
    "name": "Gee Group Inc",
    "description": "Marketing Programs & Services",
    "phone": "(630) 954-0400",
    "address": "7751 Belfort Pkwy  Jacksonville, FL 32256",
    "location": "St._Johns"
  },
  {
    "name": "Herrera Digital Agency",
    "description": "Marketing Programs & Services",
    "phone": "(904) 416-5138",
    "address": "9366 Daniel's Mill Dr  Jacksonville, FL 32244",
    "location": "St._Johns"
  },
  {
    "name": "RMI Florida",
    "description": "Marketing Programs & Services",
    "phone": "(904) 432-5701",
    "address": "4500 Salisbury Rd Ste 310  Jacksonville, FL 32216",
    "location": "St._Johns"
  },
  {
    "name": "Blue Pearl Fox",
    "description": "Marketing Programs & Services",
    "phone": "(904) 420-7031",
    "address": "6271 Saint Augustine Rd  Jacksonville, FL 32217",
    "location": "St._Johns"
  },
  {
    "name": "Acosta, Inc",
    "description": "Marketing Programs & Services",
    "phone": "(904) 281-9800",
    "address": "6600 Corporate Center Pkwy  Jacksonville, FL 32216",
    "location": "St._Johns"
  },
  {
    "name": "Florida Blue",
    "description": "Marketing Programs & Services",
    "phone": "(904) 791-6111",
    "address": "4800 Deerwood Campus Pkwy  Jacksonville, FL 32246",
    "location": "St._Johns"
  },
  {
    "name": "PassiveonlineIncome!",
    "description": "Marketing Programs & Services",
    "phone": "(904) 210-5059",
    "address": "10000 Gate Pkwy N  Jacksonville, FL 32246",
    "location": "St._Johns"
  },
  {
    "name": "Submit Local Reviews",
    "description": "Marketing Programs & Services",
    "phone": "(888) 560-5579",
    "address": "908 Weybridge Ln  Ponte Vedra, FL 32081",
    "location": "St._Johns"
  },
  {
    "name": "New Virtual Marketing",
    "description": "Marketing Programs & Services",
    "phone": "(904) 434-1171",
    "address": "5447 Shady Pine St S  Jacksonville, FL 32244",
    "location": "St._Johns"
  },
  {
    "name": "Absolute Marketing",
    "description": "Marketing Programs & Services",
    "phone": "(904) 374-5352",
    "address": "9250 Baymeadows Rd  Jacksonville, FL 32256",
    "location": "St._Johns"
  },
  {
    "name": "Horizon Innovations",
    "description": "Marketing Programs & Services",
    "phone": "(904) 503-2815",
    "address": "9432 Baymeadows Rd  Jacksonville, FL 32256",
    "location": "St._Johns"
  },
  {
    "name": "Sellethics Marketing Group Inc",
    "description": "Marketing Programs & Services",
    "phone": "(904) 423-2070",
    "address": "7807 Baymeadows Rd E  Jacksonville, FL 32256",
    "location": "St._Johns"
  },
  {
    "name": "Revision Marketing LLC",
    "description": "Marketing Programs & Services",
    "phone": "(904) 214-4929",
    "address": "4058 Everett Ave  Middleburg, FL 32068",
    "location": "St._Johns"
  },
  {
    "name": "In A Word Communications",
    "description": "Marketing Programs & Services",
    "phone": "(904) 654-7334",
    "address": "8992 Timberjack Ln  Jacksonville, FL 32256",
    "location": "St._Johns"
  },
  {
    "name": "Veritec Solutions",
    "description": "Marketing Programs & Services",
    "phone": "(904) 421-7220",
    "address": "9428 Baymeadows Rd Ste 600  Jacksonville, FL 32256",
    "location": "St._Johns"
  },
  {
    "name": "A O Marketing Group",
    "description": "Marketing Programs & Services",
    "phone": "(904) 647-7532",
    "address": "8130 Baymeadows Cir W  Jacksonville, FL 32256",
    "location": "St._Johns"
  },
  {
    "name": "Evergreen Sales and Marketing Services, Inc.",
    "description": "Marketing Programs & Services",
    "phone": "(904) 296-0550",
    "address": "8120 Nations Way Bldg 200  Jacksonville, FL 32256",
    "location": "St._Johns"
  },
  {
    "name": "Craimark Studios, Inc",
    "description": "Marketing Programs & Services",
    "phone": "(904) 265-8122",
    "address": "6950 Philips Hwy – Suite 38  Jacksonville, FL 32256",
    "location": "St._Johns"
  },
  {
    "name": "Second Floor Marketing",
    "description": "Marketing Programs & Services",
    "phone": "(904) 551-1459",
    "address": "6736 La Loma Dr  Jacksonville, FL 32217",
    "location": "St._Johns"
  },
  {
    "name": "Vizergy- Digital Travel Marketing",
    "description": "Marketing Programs & Services",
    "phone": "(904) 389-1130",
    "address": "4237 Salisbury Rd Ste 205  Jacksonville, FL 32216",
    "location": "St._Johns"
  },
  {
    "name": "Teleconnect Marketing Inc",
    "description": "Marketing Programs & Services",
    "phone": "(904) 619-9448",
    "address": "6120 Powers Ave  Jacksonville, FL 32217",
    "location": "St._Johns"
  },
  {
    "name": "Norman Golf Marketing",
    "description": "Marketing Programs & Services",
    "phone": "(904) 534-5310",
    "address": "10739 Deerwood Park Blvd  Jacksonville, FL 32256",
    "location": "St._Johns"
  },
  {
    "name": "Brand Marketing Agency",
    "description": "Marketing Programs & Services",
    "phone": "(888) 818-9264",
    "address": "5510 Philips Hwy  Jacksonville, FL 32207",
    "location": "St._Johns"
  },
  {
    "name": "Lisa Cotter Marketing Communications",
    "description": "Marketing Programs & Services",
    "phone": "(904) 446-8739",
    "address": "10000 Gate Pkwy N Apt 1613  Jacksonville, FL 32246",
    "location": "St._Johns"
  },
  {
    "name": "Marketing Concepts Inc",
    "description": "Marketing Programs & Services",
    "phone": "(904) 398-0999",
    "address": "2302-1 Vinson Ln  Jacksonville, FL 32207",
    "location": "St._Johns"
  },
  {
    "name": "Inherent Knowledge, LLC",
    "description": "Marketing Programs & Services",
    "phone": "(419) 466-1234",
    "address": "9727 Touchton Rd Apt 1019  Jacksonville, FL 32246",
    "location": "St._Johns"
  },
  {
    "name": "S C MKTNG Solutions",
    "description": "Marketing Programs & Services",
    "phone": "(904) 375-8441",
    "address": "74 Blanding Blvd  Orange Park, FL 32073",
    "location": "St._Johns"
  },
  {
    "name": "XJOSE",
    "description": "Marketing Programs & Services",
    "phone": "(877) 869-5673",
    "address": "10151 Deerwood Park Blvd #200  Jacksonville, FL 32256",
    "location": "St._Johns"
  },
  {
    "name": "Fisher Agency",
    "description": "Marketing Programs & Services",
    "phone": "(904) 398-3699",
    "address": "4540 Southside Blvd Ste 902  Jacksonville, FL 32216",
    "location": "St._Johns"
  },
  {
    "name": "The Victory Agency",
    "description": "Marketing Programs & Services",
    "phone": "(904) 274-0732",
    "address": "6034 Chester Ave Ste 107a  Jacksonville, FL 32217",
    "location": "St._Johns"
  },
  {
    "name": "Cheetah Agency",
    "description": "Marketing Programs & Services",
    "phone": "(904) 544-6020",
    "address": "10151 Deerwood Park Blvd  Jacksonville, FL 32256",
    "location": "St._Johns"
  },
  {
    "name": "CTRL+ALT Digital",
    "description": "Marketing Programs & Services",
    "phone": "(904) 878-2875",
    "address": "5011 Gate Pkwy Bldg 100  Jacksonville, FL 32256",
    "location": "St._Johns"
  },
  {
    "name": "Savvy Partner - Franchise Marketing",
    "description": "Marketing Programs & Services",
    "phone": "(904) 372-8891",
    "address": "4540 Southside Blvd Ste 902  Jacksonville, FL 32216",
    "location": "St._Johns"
  },
  {
    "name": "Vizergy",
    "description": "Marketing Programs & Services",
    "phone": "(904) 389-1130",
    "address": "4601 Touchton Rd E Bldg 300  Jacksonville, FL 32246",
    "location": "St._Johns"
  },
  {
    "name": "Inspark Digital",
    "description": "Marketing Programs & Services",
    "phone": "(314) 456-6448",
    "address": "31 Park Lake Dr  Ponte Vedra, FL 32081",
    "location": "St._Johns"
  },
  {
    "name": "Minuteman Press",
    "description": "Marketing Programs & Services",
    "phone": "(904) 733-5578",
    "address": "4185 Sunbeam Rd Ste 100  Jacksonville, FL 32257",
    "location": "St._Johns"
  },
  {
    "name": "Aspyra, LLC",
    "description": "Marketing Programs & Services",
    "phone": "(888) 731-0731",
    "address": "7400 Baymeadows Way Ste 101  Jacksonville, FL 32256",
    "location": "St._Johns"
  },
  {
    "name": "Citywide Advantage",
    "description": "Marketing Programs & Services",
    "phone": "(904) 404-8628",
    "address": "10752 Deerwood Park Blvd  Jacksonville, FL 32256",
    "location": "St._Johns"
  },
  {
    "name": "EverLogic",
    "description": "Marketing Programs & Services",
    "phone": "(904) 998-4066",
    "address": "6620 Southpoint Dr S Ste 505  Jacksonville, FL 32216",
    "location": "St._Johns"
  },
  {
    "name": "SFI",
    "description": "Marketing Programs & Services",
    "phone": "(912) 464-9679",
    "address": "8787 Southside Blvd  Jacksonville, FL 32256",
    "location": "St._Johns"
  },
  {
    "name": "SearchLites",
    "description": "Marketing Programs & Services",
    "phone": "(904) 395-2539",
    "address": "6620 Southpoint Dr S  Jacksonville, FL 32216",
    "location": "St._Johns"
  },
  {
    "name": "First Element",
    "description": "Marketing Programs & Services",
    "phone": "(904) 860-8245",
    "address": "9770 Old Baymeadows Rd  Jacksonville, FL 32256",
    "location": "St._Johns"
  },
  {
    "name": "Accelerated.Sale",
    "description": "Marketing Programs & Services",
    "phone": "(561) 345-8500",
    "address": "5400 Collins Lakes Dr  Jacksonville, FL 32244",
    "location": "St._Johns"
  },
  {
    "name": "​Sunshine State Endless Possibilities",
    "description": "Marketing Programs & Services",
    "phone": "(904) 566-1949",
    "address": "7055 Blanding Blvd Unit 442075  Jacksonville, FL 32222",
    "location": "St._Johns"
  },
  {
    "name": "Media Mix",
    "description": "Marketing Programs & Services",
    "phone": "(904) 294-6962",
    "address": "9822 Tapestry Park Cir  Jacksonville, FL 32246",
    "location": "St._Johns"
  },
  {
    "name": "Creative One Media",
    "description": "Internet Marketing & Advertising",
    "phone": "(904) 394-2909",
    "address": "10752 Deerwood Park Blvd Ste 100  Jacksonville, FL 32256",
    "location": "St._Johns"
  },
  {
    "name": "CREFMedia.com",
    "description": "Internet Marketing & Advertising",
    "phone": "(904) 222-8392",
    "address": "701 Market St  Saint Augustine, FL 32095",
    "location": "St._Johns"
  },
  {
    "name": "The Montello Agency",
    "description": "Advertising Agencies",
    "phone": "(904) 737-0012",
    "address": "9310 Old Kings Rd S  Jacksonville, FL 32257",
    "location": "St._Johns"
  },
  {
    "name": "Dxm Marketing Group",
    "description": "Internet Marketing & Advertising",
    "phone": "(904) 332-6489",
    "address": "7900 Belfort Pkwy  Jacksonville, FL 32256",
    "location": "St._Johns"
  },
  {
    "name": "YP Marketing Solutions",
    "description": "Directory & Guide Advertising",
    "phone": "(904) 288-2957",
    "address": "4651 Salisbury Rd Ste 300  Jacksonville, FL 32256",
    "location": "St._Johns"
  },
  {
    "name": "Money Pages",
    "description": "Directory & Guide Advertising",
    "phone": "(904) 306-0086",
    "address": "7892 Baymeadows Way  Jacksonville, FL 32256",
    "location": "St._Johns"
  },
  {
    "name": "JaxSmallBiz SEO Services Jacksonville Florida",
    "description": "Internet Consultants",
    "phone": "(904) 437-0888",
    "address": "8238 Pineverde Ln  jacksonville, FL 32244",
    "location": "St._Johns"
  },
  {
    "name": "Wăvvo",
    "description": "Internet Marketing & Advertising",
    "phone": "(904) 862-2250",
    "address": "8505 Baycenter Rd  Jacksonville, FL 32256",
    "location": "St._Johns"
  },
  {
    "name": "904SEO",
    "description": "Internet Marketing & Advertising",
    "phone": "(904) 514-6457",
    "address": "10151 Deerwood Park Blvd  Jacksonville, FL 32256",
    "location": "St._Johns"
  },
  {
    "name": "Business Network Designs - Jacksonville",
    "description": "Internet Consultants",
    "phone": "(904) 236-5878",
    "address": "4651 Salisbury Rd Ste 400  Jacksonville, FL 32256",
    "location": "St._Johns"
  },
  {
    "name": "NRW Marketing",
    "description": "Internet Marketing & Advertising",
    "phone": "(904) 204-4640",
    "address": "6260-D2 Dupont Station Ct  Jacksonville, FL 32217",
    "location": "St._Johns"
  },
  {
    "name": "Jax Beach Websites",
    "description": "Web Site Design & Services",
    "phone": "(904) 802-1211",
    "address": "4540 Southside Blvd  Jacksonville, FL 32216",
    "location": "St._Johns"
  },
  {
    "name": "BoomBoom Designs",
    "description": "Internet Marketing & Advertising",
    "phone": "(215) 410-9009",
    "address": "550 casa sevilla ave  Saint Augustine, FL 32092",
    "location": "St._Johns"
  },
  {
    "name": "Thomas Marketing Consulting",
    "description": "Advertising Agencies",
    "phone": "(904) 651-7976",
    "address": "9250 Baymeadows Rd Ste 450  Jacksonville, FL 32256",
    "location": "St._Johns"
  },
  {
    "name": "iHeartMedia",
    "description": "Advertising Agencies",
    "phone": "(904) 636-0507",
    "address": "8000 Belfort Pkwy  Jacksonville, FL 32256",
    "location": "St._Johns"
  },
  {
    "name": "Meclabs",
    "description": "Advertising Agencies",
    "phone": "(904) 813-7000",
    "address": "4651 Salisbury Rd  Jacksonville, FL 32256",
    "location": "St._Johns"
  },
  {
    "name": "Digital Edge Marketing",
    "description": "Marketing Consultants",
    "phone": "(904) 982-4915",
    "address": "10161 Centurion Pkwy N #170  Jacksonville, FL 32256",
    "location": "St._Johns"
  },
  {
    "name": "Acosta Sales And Marketing Company",
    "description": "Marketing Consultants",
    "phone": "(904) 281-9800",
    "address": "6600 Corporate Center Pkwy  Jacksonville, FL 32216",
    "location": "St._Johns"
  },
  {
    "name": "Effectv",
    "description": "Advertising Agencies",
    "phone": "(888) 877-9799",
    "address": "10751 Deerwood Park Blvd Ste 301  Jacksonville, FL 32256",
    "location": "St._Johns"
  },
  {
    "name": "Advantage Design Group",
    "description": "Marketing Consultants",
    "phone": "(904) 722-8200",
    "address": "141 Hilden Rd  Ponte Vedra, FL 32081",
    "location": "St._Johns"
  },
  {
    "name": "XL22 MEDIA & PROMOTIONS",
    "description": "Marketing Consultants",
    "phone": "(904) 321-9759",
    "address": "3690 Creswick Cir  Orange Park, FL 32065",
    "location": "St._Johns"
  },
  {
    "name": "Ego Digital Agency",
    "description": "Internet Marketing & Advertising",
    "phone": "(904) 544-6276",
    "address": "6271 St. Augustine Road  Jacksonville, FL 32217",
    "location": "St._Johns"
  },
  {
    "name": "Image Media & Marketing Inc",
    "description": "Internet Marketing & Advertising",
    "phone": "(904) 367-0803",
    "address": "3390 Kori Rd  Jacksonville, FL 32257",
    "location": "St._Johns"
  },
  {
    "name": "Crissien Online",
    "description": "Internet Marketing & Advertising",
    "phone": "(904) 214-1100",
    "address": "3956 Sunbeam Rd Ste 1  Jacksonville, FL 32257",
    "location": "St._Johns"
  },
  {
    "name": "Maxclix",
    "description": "Internet Marketing & Advertising",
    "phone": "(844) 629-2549",
    "address": "4656 Collins Rd  Jacksonville, FL 32244",
    "location": "St._Johns"
  },
  {
    "name": "Pageoneplease",
    "description": "Internet Marketing & Advertising",
    "phone": "(904) 701-3096",
    "address": "9536 Princeton Square Blvd S  Jacksonville, FL 32256",
    "location": "St._Johns"
  },
  {
    "name": "NightWish Media LLC",
    "description": "Internet Marketing & Advertising",
    "phone": "(904) 605-5011",
    "address": "7900 Baymeadows Circle East  Jacksonville, FL 32256",
    "location": "St._Johns"
  },
  {
    "name": "Ledpetsaccessories.com",
    "description": "Internet Marketing & Advertising",
    "phone": "(904) 982-6062",
    "address": "5623 Ortega Park Blvd  Jacksonville, FL 32244",
    "location": "St._Johns"
  },
  {
    "name": "Teeone Net Inc",
    "description": "Internet Marketing & Advertising",
    "phone": "(904) 425-0183",
    "address": "4905 Belfort Rd  Jacksonville, FL 32256",
    "location": "St._Johns"
  },
  {
    "name": "My Optimization Experts",
    "description": "Internet Marketing & Advertising",
    "phone": "(904) 955-1807",
    "address": "10151 Deerwood Park Blvd  Jacksonville, FL 32256",
    "location": "St._Johns"
  },
  {
    "name": "HomeASAP",
    "description": "Internet Marketing & Advertising",
    "phone": "(904) 549-7600",
    "address": "4887 Belfort Rd Ste 400  Jacksonville, FL 32256",
    "location": "St._Johns"
  },
  {
    "name": "SeoServices4SmallBusiness",
    "description": "Internet Marketing & Advertising",
    "phone": "(855) 684-9999",
    "address": "4651 Salisbury Rd Ste 4010  Jacksonville, FL 32256",
    "location": "St._Johns"
  },
  {
    "name": "Revlocal",
    "description": "Internet Marketing & Advertising",
    "phone": "(904) 900-7510",
    "address": "4651 Salisbury Rd  Jacksonville, FL 32256",
    "location": "St._Johns"
  },
  {
    "name": "Brainiac Web Solutions LLC",
    "description": "Internet Marketing & Advertising",
    "phone": "(904) 510-6665",
    "address": "5513 Roosevelt Blvd # 133  Jacksonville, FL 32244",
    "location": "St._Johns"
  },
  {
    "name": "Web.com",
    "description": "Web Site Design & Services",
    "phone": "(866) 655-7679",
    "address": "5335 Gate Pkwy  Jacksonville, FL 32256",
    "location": "St._Johns"
  },
  {
    "name": "Bluehost.com",
    "description": "Web Site Hosting",
    "phone": "(801) 765-9400",
    "address": "5335 Gate Pkwy  Jacksonville, FL 32256",
    "location": "St._Johns"
  },
  {
    "name": "1stOpresidentialcleaning.com",
    "description": "Internet Marketing & Advertising",
    "phone": "(904) 738-7260",
    "address": "9526 Argyle Forest Blvd  Jacksonville, FL 32222",
    "location": "St._Johns"
  },
  {
    "name": "The Baer Edge Inc.",
    "description": "Print Advertising",
    "phone": "(904) 982-1734",
    "address": "4320 Deerwood Lake Pkwy Ste 101-222  Jacksonville, FL 32216",
    "location": "St._Johns"
  },
  {
    "name": "Brainspires, Inc.",
    "description": "Internet Marketing & Advertising",
    "phone": "(707) 363-4674",
    "address": "553 E Silverthorn Ln  Ponte Vedra Beach, FL 32081",
    "location": "St._Johns"
  },
  {
    "name": "Image Media & Marketing",
    "description": "Marketing Consultants",
    "phone": "(904) 367-0803",
    "address": "9482 Wexford Rd  Jacksonville, FL 32257",
    "location": "St._Johns"
  },
  {
    "name": "Planogramming Solutions Inc",
    "description": "Marketing Consultants",
    "phone": "(904) 448-0834",
    "address": "7934 Mc Laurin Rd N  Jacksonville, FL 32256",
    "location": "St._Johns"
  },
  {
    "name": "Acosta",
    "description": "Marketing Consultants",
    "phone": "(904) 519-8014",
    "address": "8952 Western Way  Jacksonville, FL 32256",
    "location": "St._Johns"
  },
  {
    "name": "American Database Marketing Inc",
    "description": "Direct Mail Advertising",
    "phone": "(904) 828-0060",
    "address": "8857 Shining Oak Ct  Jacksonville, FL 32217",
    "location": "St._Johns"
  },
  {
    "name": "Sirsha And Associates",
    "description": "Marketing Consultants",
    "phone": "(904) 619-3613",
    "address": "8431 Baymeadows Way Ste 2  Jacksonville, FL 32256",
    "location": "St._Johns"
  },
  {
    "name": "Island Marketing Services",
    "description": "Marketing Consultants",
    "phone": "(904) 551-1317",
    "address": "8493 Baymeadows Way  Jacksonville, FL 32256",
    "location": "St._Johns"
  },
  {
    "name": "Global Face",
    "description": "Marketing Consultants",
    "phone": "(904) 683-5987",
    "address": "9424 Baymeadows Rd  Jacksonville, FL 32256",
    "location": "St._Johns"
  },
  {
    "name": "Blue Water Design Studio",
    "description": "Marketing Consultants",
    "phone": "(904) 322-7625",
    "address": "7341 Hennessy Rd  Jacksonville, FL 32244",
    "location": "St._Johns"
  },
  {
    "name": "Demps",
    "description": "Marketing Consultants",
    "phone": "(904) 739-8033",
    "address": "3809 Lavista Cir Apt 225  Jacksonville, FL 32217",
    "location": "St._Johns"
  },
  {
    "name": "Damarka Enterprises",
    "description": "Marketing Consultants",
    "phone": "(904) 733-0881",
    "address": "8215 Sutton Pl N  Jacksonville, FL 32217",
    "location": "St._Johns"
  },
  {
    "name": "Marketing 2 Win",
    "description": "Marketing Consultants",
    "phone": "(904) 733-0881",
    "address": "8215 Sutton Pl N  Jacksonville, FL 32217",
    "location": "St._Johns"
  },
  {
    "name": "Acosta Inc",
    "description": "Food Products-Wholesale",
    "phone": "(904) 772-1200",
    "address": "6255 Lake Gray Blvd  Jacksonville, FL 32244",
    "location": "St._Johns"
  },
  {
    "name": "Intensive Marketing",
    "description": "Marketing Consultants",
    "phone": "(904) 379-9958",
    "address": "8130 Baymeadows Way W  Jacksonville, FL 32256",
    "location": "St._Johns"
  },
  {
    "name": "High Line Leads",
    "description": "Advertising Agencies",
    "phone": "(904) 236-6160",
    "address": "5724 Gasparilla Park Ct  Jacksonville, FL 32244",
    "location": "St._Johns"
  },
  {
    "name": "Pcr Agency",
    "description": "Advertising Agencies",
    "phone": "(904) 923-2062",
    "address": "7235 Bentley Rd  Jacksonville, FL 32256",
    "location": "St._Johns"
  },
  {
    "name": "Advantage Sales & Marketing",
    "description": "Marketing Consultants",
    "phone": "(904) 332-4064",
    "address": "7900 Belfort Pkwy Ste 100  Jacksonville, FL 32256",
    "location": "St._Johns"
  },
  {
    "name": "Blackhat Media",
    "description": "Marketing Consultants",
    "phone": "(904) 379-4669",
    "address": "4905 Belfort Rd  Jacksonville, FL 32256",
    "location": "St._Johns"
  },
  {
    "name": "Ruby Solomon Solutions",
    "description": "Marketing Consultants",
    "phone": "(800) 521-4881",
    "address": "4720 Salisbury Rd  Jacksonville, FL 32256",
    "location": "St._Johns"
  },
  {
    "name": "Boomclient",
    "description": "Marketing Consultants",
    "phone": "(904) 482-0246",
    "address": "6622 Southpoint Dr S Ste 220  Jacksonville, FL 32216",
    "location": "St._Johns"
  },
  {
    "name": "Ocean Front Events",
    "description": "Marketing Consultants",
    "phone": "(904) 503-7681",
    "address": "6550 Saint Augustine Rd  Jacksonville, FL 32217",
    "location": "St._Johns"
  },
  {
    "name": "Flip Flop Media",
    "description": "Marketing Consultants",
    "phone": "(904) 551-2409",
    "address": "4237 Salisbury Rd Ste 209  Jacksonville, FL 32216",
    "location": "St._Johns"
  },
  {
    "name": "Smith & Surrency Digital Marketing",
    "description": "Advertising Agencies",
    "phone": "(904) 982-4915",
    "address": "10161 Centurion Pkwy N  Jacksonville, FL 32256",
    "location": "St._Johns"
  },
  {
    "name": "Jax Marketing Solutions",
    "description": "Marketing Consultants",
    "phone": "(904) 619-0227",
    "address": "6821 Southpoint Dr N  Jacksonville, FL 32216",
    "location": "St._Johns"
  },
  {
    "name": "Pippin Design",
    "description": "Web Site Design & Services",
    "phone": "(904) 383-7477",
    "address": "4215 Southpoint Blvd Ste 250  Jacksonville, FL 32216",
    "location": "St._Johns"
  },
  {
    "name": "Neptune Marketing & Assoc Inc",
    "description": "Marketing Consultants",
    "phone": "(904) 281-0571",
    "address": "4110 Southpoint Blvd  Jacksonville, FL 32216",
    "location": "St._Johns"
  },
  {
    "name": "Trb Marketing Inc",
    "description": "Marketing Consultants",
    "phone": "(904) 733-9993",
    "address": "6299 Powers Ave  Jacksonville, FL 32217",
    "location": "St._Johns"
  },
  {
    "name": "Lead Source",
    "description": "Marketing Consultants",
    "phone": "(904) 329-2134",
    "address": "6015 Morrow St E  Jacksonville, FL 32217",
    "location": "St._Johns"
  },
  {
    "name": "Rite Way Sales and Marketing",
    "description": "Marketing Consultants",
    "phone": "(904) 296-2016",
    "address": "6817 Southpoint Pkwy  Jacksonville, FL 32216",
    "location": "St._Johns"
  },
  {
    "name": "Pm2 Digital",
    "description": "Advertising Agencies",
    "phone": "(904) 385-9124",
    "address": "5011 Gate Pkwy  Jacksonville, FL 32256",
    "location": "St._Johns"
  },
  {
    "name": "The Integrity Solutions",
    "description": "Marketing Consultants",
    "phone": "(904) 772-1490",
    "address": "9025 Bridgecreek Dr  Jacksonville, FL 32244",
    "location": "St._Johns"
  },
  {
    "name": "Barrios Marketing",
    "description": "Marketing Consultants",
    "phone": "(904) 514-4765",
    "address": "5895 Saint Augustine Rd Ste 8  Jacksonville, FL 32207",
    "location": "St._Johns"
  },
  {
    "name": "Enhanced Advertising",
    "description": "Marketing Consultants",
    "phone": "(904) 316-0345",
    "address": "5627 Bishop Ln  Jacksonville, FL 32207",
    "location": "St._Johns"
  },
  {
    "name": "Marketing Inc",
    "description": "Marketing Consultants",
    "phone": "(904) 399-5782",
    "address": "4149 Saint Augustine Rd  Jacksonville, FL 32207",
    "location": "St._Johns"
  },
  {
    "name": "Sonafide Digital Marketing",
    "description": "Marketing Consultants",
    "phone": "(904) 415-4270",
    "address": "1822 Sheraton Lakes Cir  Middleburg, FL 32068",
    "location": "St._Johns"
  },
  {
    "name": "Digital Solution Partners Inc",
    "description": "Marketing Consultants",
    "phone": "(904) 834-8072",
    "address": "137 Old Bluff Dr  Ponte Vedra Beach, FL 32081",
    "location": "St._Johns"
  },
  {
    "name": "Gilmore Graphics, Inc.",
    "description": "Business Coaches & Consultants",
    "phone": "(315) 263-7060",
    "address": "11 Big Island Trl  Ponte Vedra, FL 32081",
    "location": "St._Johns"
  },
  {
    "name": "MarketJax.com",
    "description": "Marketing Consultants",
    "phone": "(904) 415-8537",
    "address": "301 Sawmill Ln  Ponte Vedra Beach, FL 32082",
    "location": "St._Johns"
  },
  {
    "name": "Government Marketing Associates",
    "description": "Marketing Programs & Services",
    "phone": "(904) 992-4141",
    "address": "12964 Biggin Church Rd S  Jacksonville, FL 32224",
    "location": "St._Johns"
  },
  {
    "name": "Blueblack Group",
    "description": "Marketing Programs & Services",
    "phone": "(904) 543-2762",
    "address": "8018 Pebble Creek Ln E  Ponte Vedra Beach, FL 32082",
    "location": "St._Johns"
  },
  {
    "name": "Insignia Marketing Co Inc",
    "description": "Marketing Programs & Services",
    "phone": "(281) 465-0040",
    "address": "109 Greencrest Dr  Ponte Vedra Beach, FL 32082",
    "location": "St._Johns"
  },
  {
    "name": "Tactive Digital - Jacksonville",
    "description": "Internet Marketing & Advertising",
    "phone": "(904) 536-1868",
    "address": "9117 Hogan Rd  Jacksonville, FL 32216",
    "location": "St._Johns"
  },
  {
    "name": "Internet Marketing Ventures Inc",
    "description": "Internet Marketing & Advertising",
    "phone": "(904) 385-8126",
    "address": "3963 Confederate Point Rd Ste 4  Jacksonville, FL 32210",
    "location": "St._Johns"
  },
  {
    "name": "Johnsati.com",
    "description": "Internet Marketing & Advertising",
    "phone": "(310) 299-0932",
    "address": "4650 Javeline St  Middleburg, FL 32068",
    "location": "St._Johns"
  },
  {
    "name": "Jacksonville SEO",
    "description": "Internet Consultants",
    "phone": "(904) 513-0183",
    "address": "162 Barberry Ln  Ponte Vedra Beach, FL 32082",
    "location": "St._Johns"
  },
  {
    "name": "American Future Tech Corp",
    "description": "Marketing Consultants",
    "phone": "(904) 256-0004",
    "address": "12890 Kelsey Island Dr  Jacksonville, FL 32224",
    "location": "St._Johns"
  },
  {
    "name": "Prestige Marketing",
    "description": "Marketing Consultants",
    "phone": "(904) 280-0565",
    "address": "5150 Palm Valley Rd Ste 102  Ponte Vedra Beach, FL 32082",
    "location": "St._Johns"
  }
]
