[
  {
    "name": "Idea Design Network",
    "description": "Marketing Programs & Services",
    "phone": "(352) 551-7100",
    "address": "543 W Minneola Ave  Clermont, FL 34711",
    "location": "Sumter"
  },
  {
    "name": "Metrovista Inc",
    "description": "Marketing Programs & Services",
    "phone": "(352) 536-9207",
    "address": "717 Skyridge Rd  Clermont, FL 34711",
    "location": "Sumter"
  },
  {
    "name": "Mclean Marketing Inc",
    "description": "Marketing Programs & Services",
    "phone": "(352) 242-1414",
    "address": "1380 S Grand Hwy Ste 200  Clermont, FL 34711",
    "location": "Sumter"
  },
  {
    "name": "List First Marketing",
    "description": "Marketing Programs & Services",
    "phone": "(352) 800-9510",
    "address": "922 Cork Oak Ln  Minneola, FL 34715",
    "location": "Sumter"
  },
  {
    "name": "Sales Bait - Print, Promotion, Marketing",
    "description": "Marketing Programs & Services",
    "phone": "(321) 356-5471",
    "address": "We ship EVERYWHERE  Longwood, FL 32750",
    "location": "Sumter"
  },
  {
    "name": "Nia Riddle",
    "description": "Marketing Programs & Services",
    "phone": "(407) 283-7805",
    "address": "3518 W Bind St.  Kissimmee, FL 34741",
    "location": "Sumter"
  },
  {
    "name": "Busy Brain Inc",
    "description": "Marketing Programs & Services",
    "phone": "(352) 243-2879",
    "address": "10609 Masters Dr  Clermont, FL 34711",
    "location": "Sumter"
  },
  {
    "name": "Within Marketing",
    "description": "Marketing Programs & Services",
    "phone": "(813) 614-7170",
    "address": "1795 E Highway 50 Ste B  Clermont, FL 34711",
    "location": "Sumter"
  },
  {
    "name": "M & M Marketing",
    "description": "Marketing Programs & Services",
    "phone": "(727) 412-4458",
    "address": "12579 Nicolette Ct  Clermont, FL 34711",
    "location": "Sumter"
  },
  {
    "name": "Tulumi Digital Marketing",
    "description": "Marketing Programs & Services",
    "phone": "(800) 481-1720",
    "address": "16215 State Road 50 Ste 204  Clermont, FL 34711",
    "location": "Sumter"
  },
  {
    "name": "Market VINE inc",
    "description": "Marketing Programs & Services",
    "phone": "(352) 708-4922",
    "address": "1502 Max Hooks Rd Ste C  Groveland, FL 34736",
    "location": "Sumter"
  },
  {
    "name": "Commerce V3 Inc",
    "description": "Marketing Programs & Services",
    "phone": "(888) 544-2211",
    "address": "13045 Mountain Trl  Clermont, FL 34715",
    "location": "Sumter"
  },
  {
    "name": "Marketing Solutions",
    "description": "Marketing Programs & Services",
    "phone": "(703) 934-5490",
    "address": "3500 Windansea Ct  Clermont, FL 34711",
    "location": "Sumter"
  },
  {
    "name": "Incity Marketing & Consulting",
    "description": "Marketing Programs & Services",
    "phone": "(407) 695-4600",
    "address": "200 Countyline Ct  Oakland, FL 34787",
    "location": "Sumter"
  },
  {
    "name": "Design Marketing",
    "description": "Marketing Programs & Services",
    "phone": "(407) 600-4707",
    "address": "8044 Lake Nellie Rd  Clermont, FL 34714",
    "location": "Sumter"
  },
  {
    "name": "Creative Marketing Intl",
    "description": "Marketing Programs & Services",
    "phone": "(352) 429-7834",
    "address": "PO Box 254  Groveland, FL 34736",
    "location": "Sumter"
  },
  {
    "name": "SEO Marketing Media Elite Inc",
    "description": "Marketing Programs & Services",
    "phone": "(877) 736-0876",
    "address": "PO Box 741  Oakland, FL 34760",
    "location": "Sumter"
  },
  {
    "name": "Imagine Marketing",
    "description": "Marketing Programs & Services",
    "phone": "(321) 236-0240",
    "address": "15155 W Colonial Dr  Winter Garden, FL 34787",
    "location": "Sumter"
  },
  {
    "name": "Plant Street Studios",
    "description": "Marketing Programs & Services",
    "phone": "(407) 278-6464",
    "address": "446 W Plant St  Winter Garden, FL 34787",
    "location": "Sumter"
  },
  {
    "name": "Proforma COVEDATA",
    "description": "Marketing Programs & Services",
    "phone": "(201) 226-0607",
    "address": "2205 Black Lake Blvd  Winter Garden, FL 34787",
    "location": "Sumter"
  },
  {
    "name": "Boost Marketing",
    "description": "Marketing Programs & Services",
    "phone": "(321) 236-0240",
    "address": "13750 W Colonial Dr  Winter Garden, FL 34787",
    "location": "Sumter"
  },
  {
    "name": "B 2B Sumo",
    "description": "Marketing Programs & Services",
    "phone": "(866) 591-7528",
    "address": "13340 W Colonial Dr  Winter Garden, FL 34787",
    "location": "Sumter"
  },
  {
    "name": "DMT Investments",
    "description": "Marketing Programs & Services",
    "phone": "(407) 230-2033",
    "address": "325 Duff Dr  Winter Garden, FL 34787",
    "location": "Sumter"
  },
  {
    "name": "Vaccaro Marketing Group",
    "description": "Marketing Programs & Services",
    "phone": "(407) 718-3199",
    "address": "3320 Callerton Rd  Clermont, FL 34714",
    "location": "Sumter"
  },
  {
    "name": "Premier Marketing Group",
    "description": "Marketing Programs & Services",
    "phone": "(352) 404-9884",
    "address": "2110 US Highway 27  Clermont, FL 34714",
    "location": "Sumter"
  },
  {
    "name": "Blue Berg Marketing",
    "description": "Marketing Programs & Services",
    "phone": "(850) 774-2218",
    "address": "16340 Cagan Oaks  Clermont, FL 34714",
    "location": "Sumter"
  },
  {
    "name": "You Win",
    "description": "Marketing Programs & Services",
    "phone": "(407) 287-1001",
    "address": "12315 W Colonial Dr  Winter Garden, FL 34787",
    "location": "Sumter"
  },
  {
    "name": "Simms Motorsports Group Inc",
    "description": "Marketing Programs & Services",
    "phone": "(608) 347-3963",
    "address": "13842 Bridgewater Crossings Blvd  Windermere, FL 34786",
    "location": "Sumter"
  },
  {
    "name": "Casey Marketing Service",
    "description": "Marketing Programs & Services",
    "phone": "(407) 654-1410",
    "address": "5117 Autumn Ridge Ln  Windermere, FL 34786",
    "location": "Sumter"
  },
  {
    "name": "Creative Spaces Consulting LLC",
    "description": "Marketing Programs & Services",
    "phone": "(407) 574-8060",
    "address": "7040 Pasturelands Pl  Winter Garden, FL 34787",
    "location": "Sumter"
  },
  {
    "name": "Visioncom Marketing",
    "description": "Marketing Programs & Services",
    "phone": "(407) 654-3463",
    "address": "433 W Silver Star Rd  Ocoee, FL 34761",
    "location": "Sumter"
  },
  {
    "name": "The Walt Disney Company",
    "description": "Marketing Programs & Services",
    "phone": "(818) 567-5389",
    "address": "13259 Vennetta Way  Windermere, FL 34786",
    "location": "Sumter"
  },
  {
    "name": "Xcel Media Group",
    "description": "Marketing Programs & Services",
    "phone": "(352) 508-9796",
    "address": "2125 Tealwood Cir  Tavares, FL 32778",
    "location": "Sumter"
  },
  {
    "name": "RGI Marketing Group",
    "description": "Marketing Programs & Services",
    "phone": "(407) 339-7111",
    "address": "2900 Orange Ave Ste 100  Apopka, FL 32703",
    "location": "Sumter"
  },
  {
    "name": "Golf Marketing Service Inc",
    "description": "Marketing Programs & Services",
    "phone": "(321) 303-9684",
    "address": "5231 Palm Ln  Mount Dora, FL 32757",
    "location": "Sumter"
  },
  {
    "name": "Proforma Denali Marketing",
    "description": "Marketing Programs & Services",
    "phone": "(888) 681-7153",
    "address": "1316 Westmeath Ct  Apopka, FL 32703",
    "location": "Sumter"
  },
  {
    "name": "Meta Marketing",
    "description": "Marketing Programs & Services",
    "phone": "(407) 876-4014",
    "address": "9370 Palm Tree Dr  Windermere, FL 34786",
    "location": "Sumter"
  },
  {
    "name": "Windermere Chamber Of Commerce",
    "description": "Marketing Programs & Services",
    "phone": "(321) 689-6347",
    "address": "Po Box 382  Windermere, FL 34786",
    "location": "Sumter"
  },
  {
    "name": "Lobo Marketing Group",
    "description": "Marketing Programs & Services",
    "phone": "(407) 464-0999",
    "address": "3000 Clarcona Rd Lot 546  Apopka, FL 32703",
    "location": "Sumter"
  },
  {
    "name": "TAG Digital Marketing",
    "description": "Marketing Programs & Services",
    "phone": "(407) 398-6629",
    "address": "4705 S Apopka Vineland Rd Ste 130  Orlando, FL 32819",
    "location": "Sumter"
  },
  {
    "name": "Marketing Intelligent Automotive",
    "description": "Marketing Programs & Services",
    "phone": "(407) 704-3966",
    "address": "8450 Oak Park Rd  Orlando, FL 32819",
    "location": "Sumter"
  },
  {
    "name": "Kennemer Marketing Group",
    "description": "Marketing Programs & Services",
    "phone": "(813) 854-3544",
    "address": "8316 Wilson Ter  Orlando, FL 32819",
    "location": "Sumter"
  },
  {
    "name": "Marketing Technology Group",
    "description": "Marketing Programs & Services",
    "phone": "(603) 279-1330",
    "address": "5223 Royce Dr  Mount Dora, FL 32757",
    "location": "Sumter"
  },
  {
    "name": "Rob June Marketing & Consultants",
    "description": "Marketing Programs & Services",
    "phone": "(407) 947-7069",
    "address": "581 N Park Ave  Apopka, FL 32704",
    "location": "Sumter"
  },
  {
    "name": "Wat's Real TV",
    "description": "Marketing Programs & Services",
    "phone": "(407) 745-5500",
    "address": "581 N Park Ave Unit 435  Apopka, FL 32704",
    "location": "Sumter"
  },
  {
    "name": "Brilliant Brands Media",
    "description": "Marketing Programs & Services",
    "phone": "(407) 461-9443",
    "address": "184 Bay St  Apopka, FL 32712",
    "location": "Sumter"
  },
  {
    "name": "Viva Hispanic! Consulting",
    "description": "Marketing Programs & Services",
    "phone": "(813) 957-5406",
    "address": "4300 Winnipeg Ct  Orlando, FL 32835",
    "location": "Sumter"
  },
  {
    "name": "HG Brokerage Services, Inc.",
    "description": "Marketing Programs & Services",
    "phone": "(407) 294-3507",
    "address": "2813 S Hiawassee Rd Ste 301  Orlando, FL 32835",
    "location": "Sumter"
  },
  {
    "name": "watergraphics",
    "description": "Marketing Programs & Services",
    "phone": "(407) 913-6379",
    "address": "5036 Dr Phillips Blvd  Orlando, FL 32819",
    "location": "Sumter"
  },
  {
    "name": "Healthorlando.com",
    "description": "Marketing Programs & Services",
    "phone": "(407) 963-6485",
    "address": "6996 Piazza Grande Ave  Orlando, FL 32835",
    "location": "Sumter"
  },
  {
    "name": "Prestige Marketing Group",
    "description": "Marketing Programs & Services",
    "phone": "(888) 621-4435",
    "address": "2295 S Hiawassee Rd Ste 104  Orlando, FL 32835",
    "location": "Sumter"
  },
  {
    "name": "Kennedy Marketing LLC",
    "description": "Marketing Programs & Services",
    "phone": "(321) 446-8263",
    "address": "8118 Chianti Dr.  Orlando, FL 32836",
    "location": "Sumter"
  },
  {
    "name": "Marketing Assistance Inc",
    "description": "Marketing Programs & Services",
    "phone": "(407) 928-3713",
    "address": "6264 Dowdy Ct  Orlando, FL 32819",
    "location": "Sumter"
  },
  {
    "name": "Eclipse Marketing",
    "description": "Marketing Programs & Services",
    "phone": "(407) 730-7990",
    "address": "7512 Dr Phillips Blvd  Orlando, FL 32819",
    "location": "Sumter"
  },
  {
    "name": "Diversified Investment Services Inc",
    "description": "Marketing Programs & Services",
    "phone": "(407) 909-0825",
    "address": "7512 Dr. Phillips Blvd., #50-250  Orlando, FL 32819",
    "location": "Sumter"
  },
  {
    "name": "EproDirect",
    "description": "Marketing Programs & Services",
    "phone": "(407) 903-1646",
    "address": "7800 W Sand Lake Rd  Orlando, FL 32819",
    "location": "Sumter"
  },
  {
    "name": "Iam",
    "description": "Marketing Programs & Services",
    "phone": "(407) 203-0500",
    "address": "7598 W Sand Lake Rd  Orlando, FL 32819",
    "location": "Sumter"
  },
  {
    "name": "Assistematic",
    "description": "Marketing Programs & Services",
    "phone": "(689) 220-5960",
    "address": "7345 W Sand Lake Rd Ste 210  Orlando, FL 32819",
    "location": "Sumter"
  },
  {
    "name": "Intercos Marketing",
    "description": "Marketing Programs & Services",
    "phone": "(407) 354-5355",
    "address": "7345 W Sand Lake Rd  Orlando, FL 32819",
    "location": "Sumter"
  },
  {
    "name": "Ooh Marketing Inc",
    "description": "Marketing Programs & Services",
    "phone": "(407) 574-3870",
    "address": "7208 W Sand Lake Rd  Orlando, FL 32819",
    "location": "Sumter"
  },
  {
    "name": "DAY Consultancy",
    "description": "Marketing Programs & Services",
    "phone": "(727) 235-6321",
    "address": "660 S Grand Hwy  Clermont, FL 34711",
    "location": "Sumter"
  },
  {
    "name": "Skillful Antics",
    "description": "Marketing Programs & Services",
    "phone": "(407) 545-4649",
    "address": "PO Box 120698  Clermont, FL 34712",
    "location": "Sumter"
  },
  {
    "name": "Minuteman Press",
    "description": "Marketing Programs & Services",
    "phone": "(352) 394-7770",
    "address": "304 Mohawk Rd  Minneola, FL 34715",
    "location": "Sumter"
  },
  {
    "name": "Kdab, Inc",
    "description": "Marketing Programs & Services",
    "phone": "(407) 331-8001",
    "address": "6869 Stapoint Ct suite 111  Winter Park, FL 32792",
    "location": "Sumter"
  },
  {
    "name": "Busy Be Social",
    "description": "Marketing Programs & Services",
    "phone": "(352) 459-1900",
    "address": "492 Timber Village Rd  Groveland, FL 34736",
    "location": "Sumter"
  },
  {
    "name": "ESCsmartbuy",
    "description": "Marketing Programs & Services",
    "phone": "(407) 271-5954",
    "address": "733 Magnolia Ave  Winter Garden, FL 34787",
    "location": "Sumter"
  },
  {
    "name": "Set-Apart Marketing",
    "description": "Marketing Programs & Services",
    "phone": "(407) 734-0158",
    "address": "16401 Nelson Park DR  Clermont, FL 34714",
    "location": "Sumter"
  },
  {
    "name": "Trighton Interactive",
    "description": "Marketing Programs & Services",
    "phone": "(407) 440-2972",
    "address": "10125 W Colonial Dr Ste 203  Ocoee, FL 34761",
    "location": "Sumter"
  },
  {
    "name": "Efficient Shift",
    "description": "Marketing Programs & Services",
    "phone": "(407) 233-3997",
    "address": "369 Lake Amberleigh Dr  Winter Garden, FL 34787",
    "location": "Sumter"
  },
  {
    "name": "BC Media Sales",
    "description": "Marketing Programs & Services",
    "phone": "(708) 250-3471",
    "address": "6452 Cropping St  Winter Garden, FL 34787",
    "location": "Sumter"
  },
  {
    "name": "PROforma Platinum Impressions",
    "description": "Marketing Programs & Services",
    "phone": "(407) 877-9186",
    "address": "13506 Summerport Village Pkwy # 393  Windermere, FL 34786",
    "location": "Sumter"
  },
  {
    "name": "Raptor Ink Web Design",
    "description": "Marketing Programs & Services",
    "phone": "(407) 590-3730",
    "address": "10619 Oakview Pointe Ter  Gotha, FL 34734",
    "location": "Sumter"
  },
  {
    "name": "Dark Lake Software, Inc.",
    "description": "Marketing Programs & Services",
    "phone": "(407) 602-8046",
    "address": "2069 Edmands Pl  Apopka, FL 32703",
    "location": "Sumter"
  },
  {
    "name": "Prodigy Launch",
    "description": "Marketing Programs & Services",
    "phone": "(540) 404-1572",
    "address": "10631 Village Lake Rd  Windermere, FL 34786",
    "location": "Sumter"
  },
  {
    "name": "Brad Kuhn & Assoc",
    "description": "Marketing Programs & Services",
    "phone": "(407) 412-5980",
    "address": "9138 Queen Elizabeth Ct  Orlando, FL 32818",
    "location": "Sumter"
  },
  {
    "name": "Nationwide Marketing and Advertising",
    "description": "Marketing Programs & Services",
    "phone": "(407) 814-3929",
    "address": "1077 W Orange Blossom Trl  Apopka, FL 32712",
    "location": "Sumter"
  },
  {
    "name": "TodaysLocalBusiness.com",
    "description": "Marketing Programs & Services",
    "phone": "(386) 337-2816",
    "address": "9311 Woodbreeze Blvd  Windermere, FL 34786",
    "location": "Sumter"
  },
  {
    "name": "T.Marlowe (iNtrinsic).",
    "description": "Marketing Programs & Services",
    "phone": "(321) 320-4202",
    "address": "Po Box 690404  Orlando, FL 32869",
    "location": "Sumter"
  },
  {
    "name": "Iquarius Media, Inc",
    "description": "Marketing Programs & Services",
    "phone": "(407) 362-6503",
    "address": "150 Dempsey Way  Orlando, FL 32835",
    "location": "Sumter"
  },
  {
    "name": "Lion King Marketing",
    "description": "Marketing Programs & Services",
    "phone": "(407) 902-7081",
    "address": "9050 Classic Ct  Orlando, FL 32819",
    "location": "Sumter"
  },
  {
    "name": "Aox Leads",
    "description": "Marketing Programs & Services",
    "phone": "(854) 269-5323",
    "address": "7651 Ashley Park Ct  Orlando, FL 32835",
    "location": "Sumter"
  },
  {
    "name": "Bruce Sereta Illustration",
    "description": "Marketing Programs & Services",
    "phone": "(407) 217-6565",
    "address": "7913 Lost Cove Ct  Orlando, FL 32819",
    "location": "Sumter"
  },
  {
    "name": "Uniquecreationsonline.com",
    "description": "Internet Marketing & Advertising",
    "phone": "(352) 404-4838",
    "address": "260 Citrus Tower Blvd  Clermont, FL 34711",
    "location": "Sumter"
  },
  {
    "name": "South Lake Karate Academy",
    "description": "Internet Marketing & Advertising",
    "phone": "(352) 717-2928",
    "address": "245 Citrus Tower Blvd  Clermont, FL 34711",
    "location": "Sumter"
  },
  {
    "name": "Vector Marketing",
    "description": "Marketing Consultants",
    "phone": "(352) 600-5461",
    "address": "210 E Washington St Apt B  Minneola, FL 34715",
    "location": "Sumter"
  },
  {
    "name": "Mainsource Marketing",
    "description": "Marketing Consultants",
    "phone": "(321) 947-1197",
    "address": "109 N Galena Ave  Minneola, FL 34715",
    "location": "Sumter"
  },
  {
    "name": "Orlando Web Solutions",
    "description": "Web Site Design & Services",
    "phone": "(321) 689-6976",
    "address": "1005 N. Ridge Blvd  Clermont, FL 34711",
    "location": "Sumter"
  },
  {
    "name": "American VIP",
    "description": "Marketing Consultants",
    "phone": "(352) 241-0291",
    "address": "1801 Valley Ridge Loop  Clermont, FL 34711",
    "location": "Sumter"
  },
  {
    "name": "K & M Marketing Service",
    "description": "Marketing Consultants",
    "phone": "(352) 404-7942",
    "address": "1211 Bowman St  Clermont, FL 34711",
    "location": "Sumter"
  },
  {
    "name": "McLean Citrus Marketing",
    "description": "Marketing Consultants",
    "phone": "(352) 394-8737",
    "address": "1000 E Highway 50 Ste B  Clermont, FL 34711",
    "location": "Sumter"
  },
  {
    "name": "DB Tech Design",
    "description": "Internet Marketing & Advertising",
    "phone": "(407) 572-5026",
    "address": "DB Tech Design LLC P.O Box 233  Plymouth, FL 32768",
    "location": "Sumter"
  },
  {
    "name": "Foxy Games Inc",
    "description": "Computer Software & Services",
    "phone": "(888) 666-2083",
    "address": "P.O.Box 941013  Maitland, FL 32794",
    "location": "Sumter"
  },
  {
    "name": "Trimark Gill Marketing",
    "description": "Marketing Consultants",
    "phone": "(407) 798-0210",
    "address": "530 S Main St  Winter Garden, FL 34787",
    "location": "Sumter"
  },
  {
    "name": "Atco Parts",
    "description": "Marketing Consultants",
    "phone": "(352) 243-7275",
    "address": "698 W Highway 50 Ste D  Clermont, FL 34711",
    "location": "Sumter"
  },
  {
    "name": "Rack-A-Tack",
    "description": "Marketing Consultants",
    "phone": "(352) 241-0932",
    "address": "14716 Green Valley Blvd  Clermont, FL 34711",
    "location": "Sumter"
  },
  {
    "name": "Paradigm Marketing Group Inc",
    "description": "Marketing Consultants",
    "phone": "(352) 394-0288",
    "address": "11446 Lake Katherine Cir  Clermont, FL 34711",
    "location": "Sumter"
  },
  {
    "name": "Threadlink",
    "description": "Marketing Consultants",
    "phone": "(407) 664-1287",
    "address": "17011 SR 50 Ste 201  Clermont, FL 34711",
    "location": "Sumter"
  },
  {
    "name": "Incity Marketing",
    "description": "Marketing Consultants",
    "phone": "(352) 988-5146",
    "address": "10234 Cayo Costa Ct  Clermont, FL 34711",
    "location": "Sumter"
  },
  {
    "name": "Burnt Toast Productions",
    "description": "Sales Promotion Service",
    "phone": "(208) 477-6667",
    "address": "4548 Barrister Dr  Clermont, FL 34711",
    "location": "Sumter"
  },
  {
    "name": "TNT Marketing Solutions",
    "description": "Marketing Consultants",
    "phone": "(407) 544-2145",
    "address": "16913 Lakeside Dr  Montverde, FL 34756",
    "location": "Sumter"
  },
  {
    "name": "Aeos Web Design",
    "description": "Web Site Design & Services",
    "phone": "(407) 395-2432",
    "address": "301 South Tubbs Street Suite D1  Oakland, FL 34760",
    "location": "Sumter"
  },
  {
    "name": "Cathy's Cuillo Marketing",
    "description": "Marketing Consultants",
    "phone": "(407) 850-2111",
    "address": "16006 Johns Lake Overlook Dr  Winter Garden, FL 34787",
    "location": "Sumter"
  },
  {
    "name": "Penny Pros",
    "description": "Internet Consultants",
    "phone": "(407) 564-6663",
    "address": "918 Kershaw Dr  Winter Garden, FL 34787",
    "location": "Sumter"
  },
  {
    "name": "Foxbrim",
    "description": "Internet Consultants",
    "phone": "(407) 706-5565",
    "address": "918 Kershaw Dr  Winter Garden, FL 34787",
    "location": "Sumter"
  },
  {
    "name": "Linda Ogata Enterprises",
    "description": "Market Research & Analysis",
    "phone": "(407) 654-2733",
    "address": "1346 Portmoor Way  Winter Garden, FL 34787",
    "location": "Sumter"
  },
  {
    "name": "Van Norman Media",
    "description": "Marketing Consultants",
    "phone": "(510) 372-7873",
    "address": "1106 Brick Rd  Winter Garden, FL 34787",
    "location": "Sumter"
  },
  {
    "name": "How 2 Media",
    "description": "Internet Marketing & Advertising",
    "phone": "(561) 364-2653",
    "address": "15210 Starleigh Rd  Winter Garden, FL 34787",
    "location": "Sumter"
  },
  {
    "name": "Brand Catalyst Partners",
    "description": "Marketing Consultants",
    "phone": "(407) 654-7008",
    "address": "2006 Sailborough Ct  Winter Garden, FL 34787",
    "location": "Sumter"
  },
  {
    "name": "My Website Spot - Winter Garden Web Design & SEO",
    "description": "Web Site Design & Services",
    "phone": "(407) 499-4008",
    "address": "2968 Irish Peach Dr  Winter Garden, FL 34787",
    "location": "Sumter"
  },
  {
    "name": "Plan A Pr Marketing Inc",
    "description": "Marketing Consultants",
    "phone": "(407) 905-0608",
    "address": "132 W Plant St  Winter Garden, FL 34787",
    "location": "Sumter"
  },
  {
    "name": "Zentila",
    "description": "Internet Marketing & Advertising",
    "phone": "(407) 656-5683",
    "address": "100 W Plant St  Winter Garden, FL 34787",
    "location": "Sumter"
  },
  {
    "name": "B2 Internet Marketing",
    "description": "Marketing Consultants",
    "phone": "(407) 287-6500",
    "address": "13750 W Colonial Dr  Winter Garden, FL 34787",
    "location": "Sumter"
  },
  {
    "name": "Lamoray Larry",
    "description": "Marketing Consultants",
    "phone": "(407) 905-6984",
    "address": "33 N Main St  Winter Garden, FL 34787",
    "location": "Sumter"
  },
  {
    "name": "Em Agency",
    "description": "Advertising Agencies",
    "phone": "(407) 573-6061",
    "address": "855 E Plant St  Winter Garden, FL 34787",
    "location": "Sumter"
  },
  {
    "name": "More Dough Consulting",
    "description": "Market Research & Analysis",
    "phone": "(407) 347-7122",
    "address": "5033 Cape Hatteras Dr  Clermont, FL 34714",
    "location": "Sumter"
  },
  {
    "name": "RCG of Florida",
    "description": "Marketing Consultants",
    "phone": "(407) 395-2055",
    "address": "4417 Erie St  Clermont, FL 34714",
    "location": "Sumter"
  },
  {
    "name": "Cove Concepts",
    "description": "Data Processing Service",
    "phone": "(321) 200-3311",
    "address": "1507 Blue Horizon Dr  Clermont, FL 34714",
    "location": "Sumter"
  },
  {
    "name": "B & B Marketing",
    "description": "Marketing Consultants",
    "phone": "(352) 394-1161",
    "address": "1011 US Highway 27  Clermont, FL 34714",
    "location": "Sumter"
  },
  {
    "name": "Spectra Marketing",
    "description": "Marketing Consultants",
    "phone": "(407) 877-1616",
    "address": "2502 Prairie View Dr  Winter Garden, FL 34787",
    "location": "Sumter"
  },
  {
    "name": "Sebring Russell",
    "description": "Marketing Consultants",
    "phone": "(407) 877-1616",
    "address": "2502 Prairie View Dr  Winter Garden, FL 34787",
    "location": "Sumter"
  },
  {
    "name": "Work At Home Club",
    "description": "Marketing Consultants",
    "phone": "(800) 535-8356",
    "address": "14615 Whittridge Dr  Winter Garden, FL 34787",
    "location": "Sumter"
  },
  {
    "name": "Igenti, Inc.",
    "description": "Internet Marketing & Advertising",
    "phone": "(407) 877-5992",
    "address": "12200 W Colonial Dr Ste 302  Winter Garden, FL 34787",
    "location": "Sumter"
  },
  {
    "name": "Robert J. Smith Productions",
    "description": "Marketing Consultants",
    "phone": "(407) 508-0200",
    "address": "13506 Summerport Village Pkwy  Windermere, FL 34786",
    "location": "Sumter"
  },
  {
    "name": "GlobalOne SEO",
    "description": "Internet Marketing & Advertising",
    "phone": "(732) 406-1806",
    "address": "656 Cimarosa Ct  Ocoee, FL 34761",
    "location": "Sumter"
  },
  {
    "name": "Millennium Promotions Group",
    "description": "Marketing Consultants",
    "phone": "(407) 814-4725",
    "address": "365 Merlot Dr  Ocoee, FL 34761",
    "location": "Sumter"
  },
  {
    "name": "Ldesine Marketing",
    "description": "Marketing Consultants",
    "phone": "(407) 258-8338",
    "address": "11738 Delwick Dr  Windermere, FL 34786",
    "location": "Sumter"
  },
  {
    "name": "Demosthene Enterprises",
    "description": "Internet Marketing & Advertising",
    "phone": "(305) 349-3452",
    "address": "2240 Section Dr  Apopka, FL 32703",
    "location": "Sumter"
  },
  {
    "name": "The Wyman Company",
    "description": "Marketing Consultants",
    "phone": "(352) 219-3752",
    "address": "1437 Glenheather Dr  Windermere, FL 34786",
    "location": "Sumter"
  },
  {
    "name": "DIGITTO Media",
    "description": "Internet Marketing & Advertising",
    "phone": "(407) 577-3038",
    "address": "9313 Mira Valle Ln  Winter Garden, FL 34787",
    "location": "Sumter"
  },
  {
    "name": "Bws Microwave Marketing",
    "description": "Marketing Consultants",
    "phone": "(407) 614-3843",
    "address": "2741 Maguire Rd  Ocoee, FL 34761",
    "location": "Sumter"
  },
  {
    "name": "Watsonink",
    "description": "Marketing Consultants",
    "phone": "(954) 298-8027",
    "address": "13308 Fernow St  Windermere, FL 34786",
    "location": "Sumter"
  },
  {
    "name": "Findmynewhomeez.com",
    "description": "Internet Marketing & Advertising",
    "phone": "(321) 396-2726",
    "address": "2457 Verde View Dr  Apopka, FL 32703",
    "location": "Sumter"
  },
  {
    "name": "Phoenix Healthcare Consultants",
    "description": "Marketing Consultants",
    "phone": "(407) 703-2721",
    "address": "256 Wallrock Ct  Ocoee, FL 34761",
    "location": "Sumter"
  },
  {
    "name": "Magic Marketing Inc",
    "description": "Marketing Consultants",
    "phone": "(352) 253-9270",
    "address": "1069 Lake Idamere Blvd  Tavares, FL 32778",
    "location": "Sumter"
  },
  {
    "name": "Proforma Platinum Impressions",
    "description": "Advertising-Promotional Products",
    "phone": "(407) 877-9186",
    "address": "6982 Swinscoe Ln  Windermere, FL 34786",
    "location": "Sumter"
  },
  {
    "name": "eMarketing Guru",
    "description": "Internet Consultants",
    "phone": "(305) 338-7736",
    "address": "7966 Brofield Ave  Windermere, FL 34786",
    "location": "Sumter"
  },
  {
    "name": "The Mid-Atlantic East Group Inc",
    "description": "Marketing Consultants",
    "phone": "(407) 876-0055",
    "address": "10905 Bayshore Dr  Windermere, FL 34786",
    "location": "Sumter"
  },
  {
    "name": "Pirates Cove Marketing Services",
    "description": "Marketing Consultants",
    "phone": "(407) 909-1414",
    "address": "4 1st Ct  Windermere, FL 34786",
    "location": "Sumter"
  },
  {
    "name": "Infinitywaves.com",
    "description": "Internet Marketing & Advertising",
    "phone": "(201) 830-1918",
    "address": "6342 Swanson St  Windermere, FL 34786",
    "location": "Sumter"
  },
  {
    "name": "Seehire.com",
    "description": "Internet Marketing & Advertising",
    "phone": "(754) 307-7366",
    "address": "1746 E Silver Star Rd  Ocoee, FL 34761",
    "location": "Sumter"
  },
  {
    "name": "Asi",
    "description": "Marketing Consultants",
    "phone": "(407) 889-7053",
    "address": "531 Drage Dr  Apopka, FL 32703",
    "location": "Sumter"
  },
  {
    "name": "Provident Enterprises LLC",
    "description": "Marketing Consultants",
    "phone": "(321) 320-5830",
    "address": "9000 New Orleans Ct  Orlando, FL 32818",
    "location": "Sumter"
  },
  {
    "name": "Bingham Consulting Professionals",
    "description": "Business Coaches & Consultants",
    "phone": "(407) 292-6280",
    "address": "1932 Reed Hill Dr  Windermere, FL 34786",
    "location": "Sumter"
  },
  {
    "name": "Yarnell Steven",
    "description": "Market Research & Analysis",
    "phone": "(407) 876-8549",
    "address": "8142 Tibet Butler Dr  Windermere, FL 34786",
    "location": "Sumter"
  },
  {
    "name": "GSK Consulting",
    "description": "Directory & Guide Advertising",
    "phone": "(813) 431-1278",
    "address": "1713 Westover Reserve Blvd  Windermere, FL 34786",
    "location": "Sumter"
  },
  {
    "name": "A & D Marketing",
    "description": "Marketing Consultants",
    "phone": "(407) 814-1918",
    "address": "319 Apopka Hills Cir  Apopka, FL 32703",
    "location": "Sumter"
  },
  {
    "name": "Hgprke.com",
    "description": "Internet Marketing & Advertising",
    "phone": "(234) 249-4338",
    "address": "9350 Conroy Windermere Rd  Windermere, FL 34786",
    "location": "Sumter"
  },
  {
    "name": "More Commerce, Inc.",
    "description": "Marketing Consultants",
    "phone": "(407) 505-5588",
    "address": "1168 Woodman Way  Orlando, FL 32818",
    "location": "Sumter"
  },
  {
    "name": "All Stars Reviews",
    "description": "Marketing Consultants",
    "phone": "(321) 348-0170",
    "address": "1168 Woodman Way  Orlando, FL 32818",
    "location": "Sumter"
  },
  {
    "name": "2MG Web Solutions",
    "description": "Internet Consultants",
    "phone": "(407) 766-5952",
    "address": "615 Hiawatha Overlook Dr  Apopka, FL 32712",
    "location": "Sumter"
  },
  {
    "name": "Prince Marketing Institute",
    "description": "Internet Marketing & Advertising",
    "phone": "(407) 340-2162",
    "address": "7839 Saint Giles Pl  orlando, FL 32835",
    "location": "Sumter"
  },
  {
    "name": "Business Development Inc",
    "description": "Marketing Consultants",
    "phone": "(618) 830-4376",
    "address": "3438 King George Dr  Orlando, FL 32835",
    "location": "Sumter"
  },
  {
    "name": "Momentum Creative",
    "description": "Marketing Consultants",
    "phone": "(407) 258-3776",
    "address": "9100 Conroy Windermere Rd Ste 200  Windermere, FL 34786",
    "location": "Sumter"
  },
  {
    "name": "Tavistock Group Marketing",
    "description": "Marketing Consultants",
    "phone": "(407) 876-2431",
    "address": "4870 S Apopka Vineland Rd  Orlando, FL 32819",
    "location": "Sumter"
  },
  {
    "name": "Kr2h Marketing & Media",
    "description": "Marketing Consultants",
    "phone": "(407) 880-4488",
    "address": "PO Box 1070  Apopka, FL 32704",
    "location": "Sumter"
  },
  {
    "name": "SEO Orlando",
    "description": "Internet Consultants",
    "phone": "(407) 536-8852",
    "address": "8815 Conroy Windermere Rd # 230  Orlando, FL 32835",
    "location": "Sumter"
  },
  {
    "name": "Kems & Marketing",
    "description": "Marketing Consultants",
    "phone": "(407) 600-7214",
    "address": "7714 Riffle Ln  Orlando, FL 32818",
    "location": "Sumter"
  },
  {
    "name": "Cash Trottle",
    "description": "Internet Marketing & Advertising",
    "phone": "(407) 247-1916",
    "address": "7132 Country Run Pkwy  Orlando, FL 32818",
    "location": "Sumter"
  },
  {
    "name": "Web Science",
    "description": "Internet Marketing & Advertising",
    "phone": "(407) 473-4039",
    "address": "509 S Park Ave  Apopka, FL 32703",
    "location": "Sumter"
  },
  {
    "name": "Shopwouj.com",
    "description": "Internet Marketing & Advertising",
    "phone": "(352) 321-5294",
    "address": "1992 1217 N Hart Blvd 267  Orlando, FL 32818",
    "location": "Sumter"
  },
  {
    "name": "Marketing Concepts Unlimited",
    "description": "Marketing Consultants",
    "phone": "(407) 880-5090",
    "address": "2086 Cranberry Isles Way  Apopka, FL 32712",
    "location": "Sumter"
  },
  {
    "name": "Apuzzo Internet Marketing",
    "description": "Internet Consultants",
    "phone": "(407) 299-0085",
    "address": "4802 Washington Ave  Orlando, FL 32819",
    "location": "Sumter"
  },
  {
    "name": "Work at Home",
    "description": "Internet Marketing & Advertising",
    "phone": "(216) 551-1442",
    "address": "7438 Beacon Hill Loop  Orlando, FL 32818",
    "location": "Sumter"
  },
  {
    "name": "Kas Marketing Group",
    "description": "Marketing Consultants",
    "phone": "(407) 257-0825",
    "address": "7037 Cardinalwood St  Orlando, FL 32818",
    "location": "Sumter"
  },
  {
    "name": "Island One Resorts",
    "description": "Marketing Consultants",
    "phone": "(407) 239-8811",
    "address": "17777 Bali Blvd  Winter Garden, FL 34787",
    "location": "Sumter"
  },
  {
    "name": "National Communications Corp",
    "description": "Marketing Consultants",
    "phone": "(407) 876-3110",
    "address": "6115 Tarawood Dr  Orlando, FL 32819",
    "location": "Sumter"
  },
  {
    "name": "Trump Auto Promotions",
    "description": "Advertising-Promotional Products",
    "phone": "(407) 203-0854",
    "address": "7065 Westpointe Blvd Ste 319  Orlando, FL 32835",
    "location": "Sumter"
  },
  {
    "name": "US TIMESHARE SERVICES",
    "description": "Marketing Consultants",
    "phone": "(407) 574-2782",
    "address": "5036 Dr Phillips Blvd  Orlando, FL 32819",
    "location": "Sumter"
  },
  {
    "name": "Wildly Different",
    "description": "Marketing Consultants",
    "phone": "(407) 654-7447",
    "address": "5036 Dr Phillips Blvd  Orlando, FL 32819",
    "location": "Sumter"
  },
  {
    "name": "Justairticket.com",
    "description": "Internet Marketing & Advertising",
    "phone": "(201) 942-1029",
    "address": "5036 Dr Phillips Blvd  Orlando, FL 32819",
    "location": "Sumter"
  },
  {
    "name": "C4 Connections",
    "description": "Direct Marketing Services",
    "phone": "(407) 295-2003",
    "address": "2295 S Hiawassee Rd  Orlando, FL 32835",
    "location": "Sumter"
  },
  {
    "name": "Wsms",
    "description": "Market Research & Analysis",
    "phone": "(407) 440-2827",
    "address": "6965 Piazza Grande Ave Ste 311  Orlando, FL 32835",
    "location": "Sumter"
  },
  {
    "name": "Book Rix",
    "description": "Internet Marketing & Advertising",
    "phone": "(407) 217-5953",
    "address": "9155 Ridge Pine Trl  Orlando, FL 32819",
    "location": "Sumter"
  },
  {
    "name": "SMB Marketing Solutions",
    "description": "Internet Marketing & Advertising",
    "phone": "(407) 413-9043",
    "address": "7557 W Sand Lake Rd  Orlando, FL 32819",
    "location": "Sumter"
  },
  {
    "name": "Premium Success Ventures",
    "description": "Marketing Consultants",
    "phone": "(800) 303-5676",
    "address": "1631 Rock Springs Rd Unit 153  Apopka, FL 32712",
    "location": "Sumter"
  },
  {
    "name": "Charter Marketing",
    "description": "Marketing Consultants",
    "phone": "(407) 351-8860",
    "address": "5836 Pitch Pine Dr  Orlando, FL 32819",
    "location": "Sumter"
  },
  {
    "name": "Finest Care LLC",
    "description": "Direct Marketing Services",
    "phone": "(407) 451-5894",
    "address": "8017 Chianti Dr  Orlando, FL 32836",
    "location": "Sumter"
  },
  {
    "name": "When Pigs Fly",
    "description": "Marketing Consultants",
    "phone": "(407) 720-8331",
    "address": "7488 Lake Marsha Dr  Orlando, FL 32819",
    "location": "Sumter"
  },
  {
    "name": "The Coe Group",
    "description": "Marketing Consultants",
    "phone": "(619) 884-7695",
    "address": "7486 Lake Marsha Dr  Orlando, FL 32819",
    "location": "Sumter"
  },
  {
    "name": "Social Rock Fish",
    "description": "Marketing Consultants",
    "phone": "(407) 464-0955",
    "address": "620 Robin E Ln  Apopka, FL 32712",
    "location": "Sumter"
  },
  {
    "name": "Liu Laura W",
    "description": "Marketing Consultants",
    "phone": "(321) 277-6888",
    "address": "418 Pomona Dr  Apopka, FL 32712",
    "location": "Sumter"
  },
  {
    "name": "Try Foods International Inc",
    "description": "Marketing Consultants",
    "phone": "(407) 884-8011",
    "address": "207 Semoran Commerce Pl  Apopka, FL 32703",
    "location": "Sumter"
  },
  {
    "name": "Bolt Signs and Marketing",
    "description": "Marketing Consultants",
    "phone": "(407) 865-7446",
    "address": "151 Semoran Commerce Pl Ste A  Apopka, FL 32703",
    "location": "Sumter"
  },
  {
    "name": "Reputation Savior Inc",
    "description": "Advertising Agencies",
    "phone": "(800) 826-1372",
    "address": "1706 E Semoran Blvd Ste 112  Apopka, FL 32703",
    "location": "Sumter"
  },
  {
    "name": "florida travel llc",
    "description": "Marketing Consultants",
    "phone": "(407) 279-1034",
    "address": "7512 dr phillips blvd ste 50  orlando, FL 32819",
    "location": "Sumter"
  },
  {
    "name": "Lewis SEO",
    "description": "Internet Marketing & Advertising",
    "phone": "(321) 424-6035",
    "address": "7932 W. Sand Lake Road  Orlando, FL 32819",
    "location": "Sumter"
  },
  {
    "name": "Photo Active",
    "description": "Marketing Consultants",
    "phone": "(407) 447-9586",
    "address": "7575 Dr Phillips Blvd  Orlando, FL 32819",
    "location": "Sumter"
  },
  {
    "name": "Patterson Bach Communications",
    "description": "Public Relations Counselors",
    "phone": "(407) 645-1880",
    "address": "450 Faye St  Apopka, FL 32712",
    "location": "Sumter"
  },
  {
    "name": "Your Brand Voice",
    "description": "Internet Marketing & Advertising",
    "phone": "(407) 243-8707",
    "address": "7800 W Sand Lake Rd Ste 211  Orlando, FL 32819",
    "location": "Sumter"
  },
  {
    "name": "Nubian Creations Marketing and Distributing Co",
    "description": "Marketing Consultants",
    "phone": "(407) 886-6637",
    "address": "514 Cheetah Trl  Apopka, FL 32712",
    "location": "Sumter"
  },
  {
    "name": "Tttyrt.com",
    "description": "Internet Marketing & Advertising",
    "phone": "(662) 350-0579",
    "address": "3655 Lomond Ct  Apopka, FL 32712",
    "location": "Sumter"
  },
  {
    "name": "Extrememakeovers.com",
    "description": "Internet Marketing & Advertising",
    "phone": "(407) 399-8074",
    "address": "7557 W Sand Lake Rd  Orlando, FL 32819",
    "location": "Sumter"
  },
  {
    "name": "Stylenet.com",
    "description": "Internet Marketing & Advertising",
    "phone": "(407) 363-5103",
    "address": "7519 W Sand Lake Rd  Orlando, FL 32819",
    "location": "Sumter"
  },
  {
    "name": "Trident Marketing Group",
    "description": "Internet Marketing & Advertising",
    "phone": "(863) 899-3703",
    "address": "7380 W Sand Lake Rd Ste 500  Orlando, FL 32819",
    "location": "Sumter"
  },
  {
    "name": "Booking.com",
    "description": "Internet Marketing & Advertising",
    "phone": "(407) 352-3215",
    "address": "7380 W Sand Lake Rd  Orlando, FL 32819",
    "location": "Sumter"
  },
  {
    "name": "Complete Developer",
    "description": "Web Site Design & Services",
    "phone": "(407) 992-2303",
    "address": "7380 W Sand Lake Rd Ste 500  Orlando, FL 32819",
    "location": "Sumter"
  },
  {
    "name": "Net Marketing Consulting",
    "description": "Marketing Consultants",
    "phone": "(407) 352-3238",
    "address": "7380 W Sand Lake Rd  Orlando, FL 32819",
    "location": "Sumter"
  },
  {
    "name": "Shackboost",
    "description": "Advertising Agencies",
    "phone": "(978) 480-0943",
    "address": "7345 W Sand Lake Rd Ste 210  Orlando, FL 32819",
    "location": "Sumter"
  },
  {
    "name": "Resulta Global Corporation",
    "description": "Marketing Consultants",
    "phone": "(407) 730-3590",
    "address": "7345 W Sand Lake Rd Ste 402  Orlando, FL 32819",
    "location": "Sumter"
  },
  {
    "name": "R4Digital",
    "description": "Web Site Hosting",
    "phone": "(321) 946-0666",
    "address": "803 Trailwood Dr  Apopka, FL 32712",
    "location": "Sumter"
  },
  {
    "name": "Kempf; Affordable Advertising",
    "description": "Marketing Consultants",
    "phone": "(407) 390-0690",
    "address": "7208 W Sand Lake Rd Ste 305  Orlando, FL 32819",
    "location": "Sumter"
  },
  {
    "name": "2 Woops Global",
    "description": "Entertainment Agencies & Bureaus",
    "phone": "(407) 316-7077",
    "address": "7208 West Sand Lake Road, Suite 305  Orlando, FL 32819",
    "location": "Sumter"
  }
]
