[
  {
    "name": "Cns Marketing Advertising Promotion",
    "description": "Marketing Programs & Services",
    "phone": "(786) 312-1067",
    "address": "13051 NW 7th Ave  North Miami, FL 33168",
    "location": "Taylor"
  },
  {
    "name": "Advertise In Miami For Free",
    "description": "Marketing Programs & Services",
    "phone": "(305) 654-9370",
    "address": "192 NE 111th St  Miami, FL 33161",
    "location": "Taylor"
  },
  {
    "name": "C N S Marketing",
    "description": "Marketing Programs & Services",
    "phone": "(305) 685-0091",
    "address": "14815 NW 11th Ave  Miami, FL 33168",
    "location": "Taylor"
  },
  {
    "name": "Ultimate Software Solution",
    "description": "Marketing Programs & Services",
    "phone": "(305) 688-6258",
    "address": "745 NW 107th St  Miami, FL 33168",
    "location": "Taylor"
  },
  {
    "name": "Usg International",
    "description": "Marketing Programs & Services",
    "phone": "(305) 688-5228",
    "address": "3001 NW 125th St  Miami, FL 33167",
    "location": "Taylor"
  },
  {
    "name": "Remarketing Solutions International",
    "description": "Marketing Programs & Services",
    "phone": "(305) 623-1188",
    "address": "1098 NW 159th Dr  Miami, FL 33169",
    "location": "Taylor"
  },
  {
    "name": "Document Imaging in Miami",
    "description": "Marketing Programs & Services",
    "phone": "(954) 858-5752",
    "address": "Miami FL  Miami, FL 33173",
    "location": "Taylor"
  },
  {
    "name": "Circle of One Marketing",
    "description": "Marketing Programs & Services",
    "phone": "(305) 576-3790",
    "address": "38 NW 105th St  Miami Shores, FL 33150",
    "location": "Taylor"
  },
  {
    "name": "Wise Pro Solutions",
    "description": "Marketing Programs & Services",
    "phone": "(305) 340-4970",
    "address": "2467 NW 102nd St  Miami, FL 33147",
    "location": "Taylor"
  },
  {
    "name": "United International Marketing",
    "description": "Marketing Programs & Services",
    "phone": "(305) 620-9597",
    "address": "1405 NW 167th St  Miami, FL 33169",
    "location": "Taylor"
  },
  {
    "name": "Marketing Global Brand Corp",
    "description": "Marketing Programs & Services",
    "phone": "(786) 802-3159",
    "address": "16717 Park Centre Blvd  Miami, FL 33169",
    "location": "Taylor"
  },
  {
    "name": "MGB Corp",
    "description": "Marketing Programs & Services",
    "phone": "(305) 620-2810",
    "address": "1015 Park Centre Blvd  Miami, FL 33169",
    "location": "Taylor"
  },
  {
    "name": "Marketing Global",
    "description": "Marketing Programs & Services",
    "phone": "(305) 620-2810",
    "address": "1015 Park Centre Blvd  Miami, FL 33169",
    "location": "Taylor"
  },
  {
    "name": "Meel Corp",
    "description": "Marketing Programs & Services",
    "phone": "(305) 688-9199",
    "address": "11151 NW 36th Ave  Miami, FL 33167",
    "location": "Taylor"
  },
  {
    "name": "Demir Group International, Inc",
    "description": "Marketing Programs & Services",
    "phone": "(305) 456-7585",
    "address": "10800 Biscayne Blvd  Miami, FL 33161",
    "location": "Taylor"
  },
  {
    "name": "Mrkt",
    "description": "Marketing Programs & Services",
    "phone": "(305) 572-1800",
    "address": "8325 NE 2nd Ave  Miami, FL 33138",
    "location": "Taylor"
  },
  {
    "name": "OptFirst Internet Marketing",
    "description": "Marketing Programs & Services",
    "phone": "(305) 428-2539",
    "address": "620-1 Northeast 126th Street  North Miami, FL 33161",
    "location": "Taylor"
  },
  {
    "name": "Bioquina Corp",
    "description": "Marketing Programs & Services",
    "phone": "(305) 893-2303",
    "address": "1073 NE 125th St  North Miami, FL 33161",
    "location": "Taylor"
  },
  {
    "name": "Nomi",
    "description": "Marketing Programs & Services",
    "phone": "(305) 892-7938",
    "address": "1125 NE 125th St  North Miami, FL 33161",
    "location": "Taylor"
  },
  {
    "name": "Mastermind Marketing Inc",
    "description": "Marketing Programs & Services",
    "phone": "(954) 274-3204",
    "address": "12355 NE 13th Ave  North Miami, FL 33161",
    "location": "Taylor"
  },
  {
    "name": "MCF Management",
    "description": "Marketing Programs & Services",
    "phone": "(305) 396-3936",
    "address": "237 NE 168th Ter  North Miami Beach, FL 33162",
    "location": "Taylor"
  },
  {
    "name": "Modern Ways Marketing Inc",
    "description": "Marketing Programs & Services",
    "phone": "(305) 300-9798",
    "address": "16721 NE 6th Ave  North Miami Beach, FL 33162",
    "location": "Taylor"
  },
  {
    "name": "Profitable Promotions from Home.",
    "description": "Marketing Programs & Services",
    "phone": "(404) 838-6848",
    "address": "18035 NW 8th Pl  Miami, FL 33169",
    "location": "Taylor"
  },
  {
    "name": "Tortuga Leads",
    "description": "Marketing Programs & Services",
    "phone": "(305) 607-5404",
    "address": "4000 Towerside Terrace  Miami, FL 33138",
    "location": "Taylor"
  },
  {
    "name": "BBM Marketing",
    "description": "Marketing Programs & Services",
    "phone": "(786) 553-8828",
    "address": "8101 Biscayne Blvd  Miami, FL 33138",
    "location": "Taylor"
  },
  {
    "name": "Bosseo",
    "description": "Marketing Programs & Services",
    "phone": "(786) 244-2544",
    "address": "754 NE 81st St  Miami, FL 33138",
    "location": "Taylor"
  },
  {
    "name": "Extreme Advertising",
    "description": "Marketing Programs & Services",
    "phone": "(305) 761-1434",
    "address": "18730 NW 8th Ave  Miami, FL 33169",
    "location": "Taylor"
  },
  {
    "name": "Gregory St. Fort",
    "description": "Marketing Programs & Services",
    "phone": "(754) 801-0361",
    "address": "1648 NE 158 St  Miami, FL 33162",
    "location": "Taylor"
  },
  {
    "name": "Happy Head Marketing",
    "description": "Marketing Programs & Services",
    "phone": "(305) 981-0439",
    "address": "360 NE 75th St  Miami, FL 33138",
    "location": "Taylor"
  },
  {
    "name": "T3 - Global LLC",
    "description": "Marketing Programs & Services",
    "phone": "(305) 733-4206",
    "address": "19542 NW 7th Ct  Miami, FL 33169",
    "location": "Taylor"
  },
  {
    "name": "Dimark Solutions LLC",
    "description": "Marketing Programs & Services",
    "phone": "(305) 469-9392",
    "address": "12550 Biscayne Blvd Ste 409  North Miami, FL 33181",
    "location": "Taylor"
  },
  {
    "name": "M J M Global Service",
    "description": "Marketing Programs & Services",
    "phone": "(786) 362-5075",
    "address": "12550 Biscayne Blvd  North Miami, FL 33181",
    "location": "Taylor"
  },
  {
    "name": "Unique Marketing & Signage Corporation",
    "description": "Marketing Programs & Services",
    "phone": "(786) 539-8444",
    "address": "660 E 58th St  Hialeah, FL 33013",
    "location": "Taylor"
  },
  {
    "name": "Yuka Group Inc",
    "description": "Marketing Programs & Services",
    "phone": "(786) 657-2446",
    "address": "1815 NE 144th St  North Miami, FL 33181",
    "location": "Taylor"
  },
  {
    "name": "Diverse Holdings Marketing & Medical",
    "description": "Marketing Programs & Services",
    "phone": "(786) 303-5065",
    "address": "13899 Biscayne Blvd  North Miami Beach, FL 33181",
    "location": "Taylor"
  },
  {
    "name": "Shemorbent Enterprise",
    "description": "Marketing Programs & Services",
    "phone": "(305) 354-9023",
    "address": "1767 NE 162nd St  North Miami Beach, FL 33162",
    "location": "Taylor"
  },
  {
    "name": "Dpc Marketing Department",
    "description": "Marketing Programs & Services",
    "phone": "(305) 691-5963",
    "address": "1074 E 27th St  Hialeah, FL 33013",
    "location": "Taylor"
  },
  {
    "name": "CitizenUSA",
    "description": "Marketing Programs & Services",
    "phone": "(305) 895-8975",
    "address": "2350 Arch Creek Dr  North Miami, FL 33181",
    "location": "Taylor"
  },
  {
    "name": "Happy Days Tours",
    "description": "Marketing Programs & Services",
    "phone": "(305) 384-6110",
    "address": "16300 NE 19th Ave  North Miami Beach, FL 33162",
    "location": "Taylor"
  },
  {
    "name": "BNG BRANDING",
    "description": "Marketing Programs & Services",
    "phone": "(954) 734-4139",
    "address": "18725 NW 32nd Pl  Miami Gardens, FL 33056",
    "location": "Taylor"
  },
  {
    "name": "Milestones Marketing",
    "description": "Marketing Programs & Services",
    "phone": "(305) 459-3320",
    "address": "1990 NE 163rd St  North Miami Beach, FL 33162",
    "location": "Taylor"
  },
  {
    "name": "Lightning Marketing",
    "description": "Marketing Programs & Services",
    "phone": "(786) 657-2953",
    "address": "2040 NE 163rd St  North Miami Beach, FL 33162",
    "location": "Taylor"
  },
  {
    "name": "Dauerflora Usa Inc.",
    "description": "Marketing Programs & Services",
    "phone": "(305) 654-0703",
    "address": "20725 NE 16th Ave  Miami, FL 33179",
    "location": "Taylor"
  },
  {
    "name": "TropicExposure,LLC",
    "description": "Marketing Programs & Services",
    "phone": "(754) 300-0799",
    "address": "1301 NE Miami Gardens Dr Ph 1  Miami, FL 33179",
    "location": "Taylor"
  },
  {
    "name": "Lex Promotions & Mktng Group",
    "description": "Marketing Programs & Services",
    "phone": "(305) 974-4568",
    "address": "190 NE 199th St  Miami, FL 33179",
    "location": "Taylor"
  },
  {
    "name": "Rethinken",
    "description": "Marketing Programs & Services",
    "phone": "(646) 564-1503",
    "address": "294 NW 54th St  Miami, FL 33127",
    "location": "Taylor"
  },
  {
    "name": "Mauluna Total Marketing Solution",
    "description": "Marketing Programs & Services",
    "phone": "(954) 857-1314",
    "address": "5600 NE 4th Ave  Miami, FL 33137",
    "location": "Taylor"
  },
  {
    "name": "Screen Media Group | Digital Marketing Agency",
    "description": "Marketing Programs & Services",
    "phone": "(754) 300-0366",
    "address": "1835 NE Miami Gardens Dr # 299  Miami, FL 33179",
    "location": "Taylor"
  },
  {
    "name": "C M Global Marketing Consultants",
    "description": "Marketing Programs & Services",
    "phone": "(888) 860-7620",
    "address": "1835 NE Miami Gardens Dr  Miami, FL 33179",
    "location": "Taylor"
  },
  {
    "name": "Wrell Inc. - Website Design & Marketing Services",
    "description": "Marketing Programs & Services",
    "phone": "(305) 458-2459",
    "address": "1750 NE 191st St  Miami, FL 33179",
    "location": "Taylor"
  },
  {
    "name": "Instant Win Sweepstakes",
    "description": "Marketing Programs & Services",
    "phone": "(786) 348-1674",
    "address": "470 NE 210th Circle Ter  Miami, FL 33179",
    "location": "Taylor"
  },
  {
    "name": "Capture Times",
    "description": "Marketing Programs & Services",
    "phone": "(833) 318-1940",
    "address": "2492 NW 44th St  Miami, FL 33142",
    "location": "Taylor"
  },
  {
    "name": "Ai Disruptive Marketing",
    "description": "Marketing Programs & Services",
    "phone": "(404) 454-2697",
    "address": "4120 NW 3rd Ave  Miami, FL 33127",
    "location": "Taylor"
  },
  {
    "name": "Momentum Marketing Group",
    "description": "Marketing Programs & Services",
    "phone": "(305) 757-5894",
    "address": "1031 Ives Dairy Rd  Miami, FL 33179",
    "location": "Taylor"
  },
  {
    "name": "Sci E-Marketing Inc",
    "description": "Marketing Programs & Services",
    "phone": "(305) 651-9311",
    "address": "200 NE 212th St  Miami, FL 33179",
    "location": "Taylor"
  },
  {
    "name": "Supermarket Creative",
    "description": "Marketing Programs & Services",
    "phone": "(305) 420-5110",
    "address": "45 NE 41st St  Miami, FL 33137",
    "location": "Taylor"
  },
  {
    "name": "Prestige Promotions",
    "description": "Marketing Programs & Services",
    "phone": "(305) 956-5974",
    "address": "20259 NE 15th Ct  Miami, FL 33179",
    "location": "Taylor"
  },
  {
    "name": "Seiko Coporation of America",
    "description": "Marketing Programs & Services",
    "phone": "(786) 360-6869",
    "address": "130 NE 40th St  Miami, FL 33137",
    "location": "Taylor"
  },
  {
    "name": "Convierte Mas",
    "description": "Marketing Programs & Services",
    "phone": "(757) 908-6472",
    "address": "3933 Biscayne Blvd  Miami, FL 33137",
    "location": "Taylor"
  },
  {
    "name": "International Marketing Group",
    "description": "Marketing Programs & Services",
    "phone": "(786) 584-0090",
    "address": "3635 NE 1st Ave  Miami, FL 33137",
    "location": "Taylor"
  },
  {
    "name": "Estrategia Hispana",
    "description": "Marketing Programs & Services",
    "phone": "(786) 320-6877",
    "address": "20725 NE 16th Ave  Miami, FL 33179",
    "location": "Taylor"
  },
  {
    "name": "Mattyofit",
    "description": "Marketing Programs & Services",
    "phone": "(786) 882-3821",
    "address": "601 NE 36th St  Miami, FL 33137",
    "location": "Taylor"
  },
  {
    "name": "Imagine 360 Marketing",
    "description": "Marketing Programs & Services",
    "phone": "(212) 313-9616",
    "address": "3301 NE 1st Ave  Miami, FL 33137",
    "location": "Taylor"
  },
  {
    "name": "Kad Marketing Corp",
    "description": "Marketing Programs & Services",
    "phone": "(888) 312-4994",
    "address": "18851 NE 29th Ave Ste 700  Miami, FL 33180",
    "location": "Taylor"
  },
  {
    "name": "Sell A Boat.com Inc",
    "description": "Marketing Programs & Services",
    "phone": "(305) 936-2489",
    "address": "2125 NE 204th St  Miami, FL 33179",
    "location": "Taylor"
  },
  {
    "name": "Veritas Marketing and Distribution",
    "description": "Marketing Programs & Services",
    "phone": "(305) 636-5454",
    "address": "1561 NW 28th St  Miami, FL 33142",
    "location": "Taylor"
  },
  {
    "name": "Agency Marketing Machine",
    "description": "Marketing Programs & Services",
    "phone": "(786) 322-4999",
    "address": "3050 Biscayne Blvd  Miami, FL 33137",
    "location": "Taylor"
  },
  {
    "name": "Corpocall",
    "description": "Marketing Programs & Services",
    "phone": "(786) 427-6666",
    "address": "2999 NE 191st St  Miami, FL 33180",
    "location": "Taylor"
  }
]
