[
  {
    "name": "Ettsi",
    "description": "Marketing Programs & Services",
    "phone": "(386) 255-3393",
    "address": "301 Indigo Dr  Daytona Beach, FL 32114",
    "location": "Volusia"
  },
  {
    "name": "Pevonia International",
    "description": "Marketing Programs & Services",
    "phone": "(386) 254-1967",
    "address": "280 Fentress Blvd  Daytona Beach, FL 32114",
    "location": "Volusia"
  },
  {
    "name": "DME Marketing",
    "description": "Marketing Programs & Services",
    "phone": "(386) 271-3000",
    "address": "2441 Bellevue Ave  Daytona Beach, FL 32114",
    "location": "Volusia"
  },
  {
    "name": "Artyst Tyrant - Affordable Premium Website Design and Graphic Design",
    "description": "Marketing Programs & Services",
    "phone": "(386) 366-0431",
    "address": "125 Powell Blvd Apt 12102  Daytona Beach, FL 32114",
    "location": "Volusia"
  },
  {
    "name": "Mesio Public Relations",
    "description": "Marketing Programs & Services",
    "phone": "(386) 226-9963",
    "address": "Po Box 265791  Daytona Beach, FL 32126",
    "location": "Volusia"
  },
  {
    "name": "Midlantic Marketing Solutions",
    "description": "Marketing Programs & Services",
    "phone": "(386) 274-1227",
    "address": "750 Fentress Blvd  Daytona Beach, FL 32114",
    "location": "Volusia"
  },
  {
    "name": "J L Thornton Marketing Corp",
    "description": "Marketing Programs & Services",
    "phone": "(386) 295-8893",
    "address": "180 Big Ben Dr  Daytona Beach, FL 32117",
    "location": "Volusia"
  },
  {
    "name": "N J Direct Marketing",
    "description": "Marketing Programs & Services",
    "phone": "(386) 681-2524",
    "address": "901 6th St  Daytona Beach, FL 32117",
    "location": "Volusia"
  },
  {
    "name": "Worldwide Marketing",
    "description": "Marketing Programs & Services",
    "phone": "(386) 760-7169",
    "address": "1014 Reed Canal Rd  Daytona Beach, FL 32119",
    "location": "Volusia"
  },
  {
    "name": "Mastando Media & Marketing",
    "description": "Marketing Programs & Services",
    "phone": "(386) 846-4292",
    "address": "212 S Beach St  Daytona Beach, FL 32114",
    "location": "Volusia"
  },
  {
    "name": "Bullseye Direct Marketing",
    "description": "Marketing Programs & Services",
    "phone": "(386) 238-4001",
    "address": "140 S Beach St  Daytona Beach, FL 32114",
    "location": "Volusia"
  },
  {
    "name": "Coastal Marketing",
    "description": "Marketing Programs & Services",
    "phone": "(386) 238-9156",
    "address": "661 Beville Rd  South Daytona, FL 32119",
    "location": "Volusia"
  },
  {
    "name": "Daytona PoS (Point of Sales) Solutions",
    "description": "Marketing Programs & Services",
    "phone": "(386) 214-4334",
    "address": "460 Zelda Blvd  Daytona Beach, FL 32118",
    "location": "Volusia"
  },
  {
    "name": "Ufo Marketing",
    "description": "Marketing Programs & Services",
    "phone": "(386) 255-6777",
    "address": "825 N Ridgewood Ave  Daytona Beach, FL 32114",
    "location": "Volusia"
  },
  {
    "name": "Zgraph Design & Marketing",
    "description": "Marketing Programs & Services",
    "phone": "(386) 255-5556",
    "address": "125 Basin St Ste 203  Daytona Beach, FL 32114",
    "location": "Volusia"
  },
  {
    "name": "Allamosa Jungle",
    "description": "Marketing Programs & Services",
    "phone": "(386) 214-7019",
    "address": "125 Burleigh Ave  Daytona Beach, FL 32117",
    "location": "Volusia"
  },
  {
    "name": "SML Marketing",
    "description": "Marketing Programs & Services",
    "phone": "(386) 265-4975",
    "address": "162 S Peninsula Dr  Daytona Beach, FL 32118",
    "location": "Volusia"
  },
  {
    "name": "Total Marketing Strategies",
    "description": "Marketing Programs & Services",
    "phone": "(386) 238-9406",
    "address": "501 N Grandview Ave  Daytona Beach, FL 32118",
    "location": "Volusia"
  },
  {
    "name": "Tourist Information & Welcome Center",
    "description": "Marketing Programs & Services",
    "phone": "(386) 257-5735",
    "address": "1260 N Atlantic Ave  Daytona Beach, FL 32118",
    "location": "Volusia"
  },
  {
    "name": "Always Open Commerce",
    "description": "Marketing Programs & Services",
    "phone": "(888) 535-5212",
    "address": "1979 Yellowfin Dr  Port Orange, FL 32128",
    "location": "Volusia"
  },
  {
    "name": "Jerico Marketing",
    "description": "Marketing Programs & Services",
    "phone": "(386) 761-5840",
    "address": "2763 S Ridgewood Ave  South Daytona, FL 32119",
    "location": "Volusia"
  },
  {
    "name": "Kickstand Johny Marketing and Engeering",
    "description": "Marketing Programs & Services",
    "phone": "(386) 767-6993",
    "address": "5476 Red Wing Cir  Port Orange, FL 32128",
    "location": "Volusia"
  },
  {
    "name": "Cheryl's Creative Services",
    "description": "Marketing Programs & Services",
    "phone": "(386) 233-9982",
    "address": "923 Chickadee Dr  Port Orange, FL 32127",
    "location": "Volusia"
  },
  {
    "name": "Direct Marketing Lead Source",
    "description": "Marketing Programs & Services",
    "phone": "(386) 761-4840",
    "address": "750 Oak Heights Ct  Port Orange, FL 32127",
    "location": "Volusia"
  },
  {
    "name": "Little Blog Dress Media",
    "description": "Marketing Programs & Services",
    "phone": "(386) 299-8973",
    "address": "84 Sylvania Pl  Ormond Beach, FL 32174",
    "location": "Volusia"
  },
  {
    "name": "Smart Choice Marketing",
    "description": "Marketing Programs & Services",
    "phone": "(386) 265-1539",
    "address": "3959 S Nova Rd  Port Orange, FL 32127",
    "location": "Volusia"
  },
  {
    "name": "Smart Marketing",
    "description": "Marketing Programs & Services",
    "phone": "(386) 265-9469",
    "address": "40 Soco Trl  Ormond Beach, FL 32174",
    "location": "Volusia"
  },
  {
    "name": "Hamlin & Associates",
    "description": "Marketing Programs & Services",
    "phone": "(888) 600-8608",
    "address": "801 W Granada Blvd  Ormond Beach, FL 32174",
    "location": "Volusia"
  },
  {
    "name": "DataZapp.com",
    "description": "Marketing Programs & Services",
    "phone": "(386) 262-1448",
    "address": "555 W Granada Blvd Ste G6  Ormond Beach, FL 32174",
    "location": "Volusia"
  },
  {
    "name": "Sunny Coast Marketing",
    "description": "Marketing Programs & Services",
    "phone": "(386) 675-6973",
    "address": "374 S Atlantic Ave  Ormond Beach, FL 32176",
    "location": "Volusia"
  },
  {
    "name": "Ap Marketing Solutions Inc",
    "description": "Marketing Programs & Services",
    "phone": "(386) 673-2359",
    "address": "37 Talaquah Blvd  Ormond Beach, FL 32174",
    "location": "Volusia"
  },
  {
    "name": "Social Butterfly Online",
    "description": "Marketing Programs & Services",
    "phone": "(386) 310-2283",
    "address": "55 E Granada Blvd Unit 2537  Ormond Beach, FL 32175",
    "location": "Volusia"
  },
  {
    "name": "Surrette Associate",
    "description": "Marketing Programs & Services",
    "phone": "(386) 679-9559",
    "address": "415 Palm Ave  Ormond Beach, FL 32174",
    "location": "Volusia"
  },
  {
    "name": "Axiom Internet Marketing",
    "description": "Marketing Programs & Services",
    "phone": "(800) 888-6348",
    "address": "69 Appaloosa Ln  Ormond Beach, FL 32174",
    "location": "Volusia"
  },
  {
    "name": "Solutions-N-Print",
    "description": "Marketing Programs & Services",
    "phone": "(407) 247-0327",
    "address": "4650 Links Village Dr  Ponce Inlet, FL 32127",
    "location": "Volusia"
  },
  {
    "name": "Vacation Tours USA",
    "description": "Marketing Programs & Services",
    "phone": "(386) 323-1644",
    "address": "424 Luna Bella Ln  New Smyrna Beach, FL 32168",
    "location": "Volusia"
  },
  {
    "name": "F5 Vortex",
    "description": "Marketing Programs & Services",
    "phone": "(386) 414-0278",
    "address": "3045 Turnbull Bay Rd  New Smyrna Beach, FL 32168",
    "location": "Volusia"
  },
  {
    "name": "Ascendia Digital Marketing Design",
    "description": "Marketing Programs & Services",
    "phone": "(203) 731-9024",
    "address": "2034 5th Ave  Deland, FL 32724",
    "location": "Volusia"
  },
  {
    "name": "Made to Order Marketing",
    "description": "Marketing Programs & Services",
    "phone": "(386) 717-1433",
    "address": "1884 Talmadge St  Deland, FL 32724",
    "location": "Volusia"
  },
  {
    "name": "LLD Unlimited/The Lady Grey Co",
    "description": "Marketing Programs & Services",
    "phone": "(407) 522-3712",
    "address": "3138 Deer Trl  Deland, FL 32724",
    "location": "Volusia"
  },
  {
    "name": "Linda Glover & Associates",
    "description": "Marketing Programs & Services",
    "phone": "(386) 738-4938",
    "address": "631 N Arlington Ave  Deland, FL 32724",
    "location": "Volusia"
  },
  {
    "name": "Jr Thompson Company",
    "description": "Marketing Programs & Services",
    "phone": "(386) 255-0591",
    "address": "1801 W International Speedway Blvd  Daytona Beach, FL 32114",
    "location": "Volusia"
  },
  {
    "name": "King Direct Marketing",
    "description": "Marketing Programs & Services",
    "phone": "(386) 788-8925",
    "address": "1184 Pelican Bay Dr  Daytona Beach, FL 32119",
    "location": "Volusia"
  },
  {
    "name": "Blue Feather Web",
    "description": "Marketing Programs & Services",
    "phone": "(386) 299-4014",
    "address": "PMB 149 226 N Nova Rd  Ormond Beach, FL 32174",
    "location": "Volusia"
  },
  {
    "name": "Sunshine Multimedia Solutions",
    "description": "Marketing Programs & Services",
    "phone": "(386) 866-0070",
    "address": "1301 Beville Road Suite 7  Daytona Beach, FL 32119",
    "location": "Volusia"
  },
  {
    "name": "The Brichard Group",
    "description": "Marketing Programs & Services",
    "phone": "(253) 237-4774",
    "address": "1600 Big Tree Rd  South Daytona, FL 32119",
    "location": "Volusia"
  },
  {
    "name": "Nerve Marketing",
    "description": "Marketing Programs & Services",
    "phone": "(386) 257-3030",
    "address": "600 Mason Ave  Daytona Beach, FL 32117",
    "location": "Volusia"
  },
  {
    "name": "Web Daytona",
    "description": "Marketing Programs & Services",
    "phone": "(386) 405-4281",
    "address": "115 S Palmetto Ave  Daytona Beach, FL 32114",
    "location": "Volusia"
  },
  {
    "name": "CRAVE Marketing & Social Media Solutions - $99 Website*",
    "description": "Marketing Programs & Services",
    "phone": "(386) 746-7578",
    "address": "US Hwy 1  South Daytona, FL 32119",
    "location": "Volusia"
  },
  {
    "name": "Benedict Advertising",
    "description": "Marketing Programs & Services",
    "phone": "(386) 255-1222",
    "address": "640 N Peninsula Dr  Daytona Beach, FL 32118",
    "location": "Volusia"
  },
  {
    "name": "Missing Link Communications INC",
    "description": "Marketing Programs & Services",
    "phone": "(386) 297-6500",
    "address": "1840 S Palmetto Ave  South Daytona, FL 32119",
    "location": "Volusia"
  },
  {
    "name": "Social Media Power Consulting",
    "description": "Marketing Programs & Services",
    "phone": "(386) 643-4414",
    "address": "126 Brandy Hills Dr  Port Orange, FL 32129",
    "location": "Volusia"
  },
  {
    "name": "First Priority Travel",
    "description": "Marketing Programs & Services",
    "phone": "(800) 404-0177",
    "address": "209 Dunlawton Ave  Port Orange, FL 32127",
    "location": "Volusia"
  },
  {
    "name": "Kerbox Media",
    "description": "Marketing Programs & Services",
    "phone": "(310) 600-4484",
    "address": "762 S Beach St  Ormond Beach, FL 32174",
    "location": "Volusia"
  },
  {
    "name": "Drive Group",
    "description": "Marketing Programs & Services",
    "phone": "(386) 677-3519",
    "address": "79 Reynolds Ave  Ormond Beach, FL 32174",
    "location": "Volusia"
  },
  {
    "name": "Daytona Scene",
    "description": "Marketing Programs & Services",
    "phone": "(321) 430-8236",
    "address": "271 S Orchard St  Ormond Beach, FL 32174",
    "location": "Volusia"
  },
  {
    "name": "Mid-Florida Marketing & Research Inc",
    "description": "Marketing Programs & Services",
    "phone": "(386) 253-0809",
    "address": "2665 N Atlantic Ave # 410  Daytona Beach, FL 32118",
    "location": "Volusia"
  },
  {
    "name": "D L Marketing Concepts",
    "description": "Marketing Programs & Services",
    "phone": "(386) 310-8701",
    "address": "555 W Granada Blvd  Ormond Beach, FL 32174",
    "location": "Volusia"
  },
  {
    "name": "D2 Advertising",
    "description": "Marketing Programs & Services",
    "phone": "(866) 275-5108",
    "address": "307 W Granada Blvd  Ormond Beach, FL 32174",
    "location": "Volusia"
  },
  {
    "name": "Pirata Group",
    "description": "Marketing Programs & Services",
    "phone": "(877) 366-0616",
    "address": "100 E Granada Blvd Ste 204  Ormond Beach, FL 32176",
    "location": "Volusia"
  },
  {
    "name": "CRG Global, Inc.",
    "description": "Marketing Programs & Services",
    "phone": "(386) 677-5644",
    "address": "3 Signal Ave  Ormond Beach, FL 32174",
    "location": "Volusia"
  },
  {
    "name": "Full Run",
    "description": "Marketing Programs & Services",
    "phone": "(386) 290-8087",
    "address": "6544 Shahab Ln  Port Orange, FL 32128",
    "location": "Volusia"
  },
  {
    "name": "Helo Payment Service",
    "description": "Marketing Programs & Services",
    "phone": "(855) 699-1151",
    "address": "6274 Palm Vista st  Port Orange, FL 32128",
    "location": "Volusia"
  },
  {
    "name": "Best Marketing Systems Inc",
    "description": "Marketing Programs & Services",
    "phone": "(386) 676-0007",
    "address": "1096 N Us Highway 1  Ormond Beach, FL 32174",
    "location": "Volusia"
  },
  {
    "name": "Aerographics",
    "description": "Marketing Programs & Services",
    "phone": "(386) 736-9779",
    "address": "1725 Lexington Ave  Deland, FL 32724",
    "location": "Volusia"
  },
  {
    "name": "Markentum",
    "description": "Marketing Consultants",
    "phone": "(386) 868-5513",
    "address": "2570 W International Speedway Blvd Ste 110  Daytona Beach, FL 32114",
    "location": "Volusia"
  },
  {
    "name": "Sullivan Worldwide Marketing Group",
    "description": "Marketing Consultants",
    "phone": "(386) 248-0999",
    "address": "139 Executive Cir  Daytona Beach, FL 32114",
    "location": "Volusia"
  },
  {
    "name": "Smartguests.com",
    "description": "Internet Marketing & Advertising",
    "phone": "(888) 800-7779",
    "address": "2250 W International Speedway Blvd  Daytona Beach, FL 32114",
    "location": "Volusia"
  },
  {
    "name": "Cunningham Field & Research",
    "description": "Market Research & Analysis",
    "phone": "(386) 226-1461",
    "address": "1700 W International Speedway Blvd  Daytona Beach, FL 32114",
    "location": "Volusia"
  },
  {
    "name": "Direct Mail Express, Inc",
    "description": "Mail & Shipping Services",
    "phone": "(386) 257-2500",
    "address": "2441 Bellevue Ave  Daytona Beach, FL 32114",
    "location": "Volusia"
  },
  {
    "name": "Bold Task",
    "description": "Web Site Design & Services",
    "phone": "(386) 316-8125",
    "address": "601 Bill France Blvd Apt 1304  Daytona Beach, FL 32114",
    "location": "Volusia"
  },
  {
    "name": "Brochure Displays, Inc.",
    "description": "Advertising Agencies",
    "phone": "(386) 271-5500",
    "address": "1808 Concept Ct  Daytona Beach, FL 32114",
    "location": "Volusia"
  },
  {
    "name": "Flagler Media",
    "description": "Web Site Hosting",
    "phone": "(386) 227-6477",
    "address": "728 Fentress Blvd  Daytona Beach, FL 32114",
    "location": "Volusia"
  },
  {
    "name": "Skip'sboots.com",
    "description": "Internet Marketing & Advertising",
    "phone": "(386) 255-0455",
    "address": "1320 W International Speedway Blvd  Daytona Beach, FL 32114",
    "location": "Volusia"
  },
  {
    "name": "YELLOW PAGES CUTTER",
    "description": "Directory & Guide Advertising",
    "phone": "(386) 438-7325",
    "address": "Atlantic Ave  Daytona Beach, FL 32118",
    "location": "Volusia"
  },
  {
    "name": "Car People Marketing Inc",
    "description": "Marketing Consultants",
    "phone": "(386) 761-3131",
    "address": "1020 W International Speedway Blvd Ste 200  Daytona Beach, FL 32114",
    "location": "Volusia"
  },
  {
    "name": "Vector Marketing",
    "description": "Marketing Consultants",
    "phone": "(386) 868-5150",
    "address": "1124 Beville Rd Ste E  Daytona Beach, FL 32114",
    "location": "Volusia"
  },
  {
    "name": "Lott's Productions",
    "description": "Internet Marketing & Advertising",
    "phone": "(386) 255-8282",
    "address": "1413 Golfview Dr  Daytona Beach, FL 32114",
    "location": "Volusia"
  },
  {
    "name": "Associated Marketing",
    "description": "Marketing Consultants",
    "phone": "(386) 323-3838",
    "address": "211 Live Oak Ave  Daytona Beach, FL 32114",
    "location": "Volusia"
  },
  {
    "name": "54 Bells., Inc.",
    "description": "Internet Marketing & Advertising",
    "phone": "(800) 385-7404",
    "address": "852 S Palmetto Ave  Daytona Beach, FL 32114",
    "location": "Volusia"
  },
  {
    "name": "Backstage Pass Magazine",
    "description": "Publishers-Periodical",
    "phone": "(386) 323-7777",
    "address": "110 Orange Ave  Daytona Beach, FL 32114",
    "location": "Volusia"
  },
  {
    "name": "Click Geeks",
    "description": "Advertising Agencies",
    "phone": "(800) 988-7579",
    "address": "250 S Beach St Ste 20A  Daytona Beach, FL 32114",
    "location": "Volusia"
  },
  {
    "name": "Experts Digital Solutions, LLC",
    "description": "Print Advertising",
    "phone": "(386) 868-3365",
    "address": "140 S Beach St Ste 200  Daytona Beach, FL 32114",
    "location": "Volusia"
  },
  {
    "name": "Getyouranked.com",
    "description": "Internet Marketing & Advertising",
    "phone": "(386) 259-8715",
    "address": "140 S Beach St  Daytona Beach, FL 32114",
    "location": "Volusia"
  },
  {
    "name": "Awesome Sauce Media, Corp.",
    "description": "Marketing Consultants",
    "phone": "(386) 868-5588",
    "address": "140 S Beach St Ste 310  Daytona Beach, FL 32114",
    "location": "Volusia"
  },
  {
    "name": "Coast 2 Coast Promotional Marketing",
    "description": "Direct Marketing Services",
    "phone": "(386) 248-3118",
    "address": "1440 N Nova Rd  Holly Hill, FL 32117",
    "location": "Volusia"
  },
  {
    "name": "Telcom Enterprises Inc",
    "description": "Marketing Consultants",
    "phone": "(386) 310-7837",
    "address": "681 Beville Rd  South Daytona, FL 32119",
    "location": "Volusia"
  },
  {
    "name": "Your Web Programming Department Inc.",
    "description": "Internet Marketing & Advertising",
    "phone": "(386) 868-2965",
    "address": "939 Ridgewood Ave  Daytona beach, FL 32117",
    "location": "Volusia"
  },
  {
    "name": "Acn",
    "description": "Direct Marketing Services",
    "phone": "(704) 260-3000",
    "address": "1006 Indian Oaks E  Daytona Beach, FL 32117",
    "location": "Volusia"
  },
  {
    "name": "GS Business Resources",
    "description": "Marketing Consultants",
    "phone": "(901) 647-6163",
    "address": "450 Basin St  Daytona Beach, FL 32114",
    "location": "Volusia"
  },
  {
    "name": "e-Quality Web Solutions",
    "description": "Web Site Hosting",
    "phone": "(386) 295-5213",
    "address": "225 Anita Ave  Daytona Beach, FL 32114",
    "location": "Volusia"
  },
  {
    "name": "Quadaces",
    "description": "Internet Marketing & Advertising",
    "phone": "(386) 492-1880",
    "address": "943 Ridgewood Ave  Daytona Beach, FL 32117",
    "location": "Volusia"
  },
  {
    "name": "Link Avengers",
    "description": "Internet Marketing & Advertising",
    "phone": "(386) 453-1473",
    "address": "30 S Peninsula Dr Apt 1  Daytona Beach, FL 32118",
    "location": "Volusia"
  },
  {
    "name": "Mad Macs Custom",
    "description": "Graphic Designers",
    "phone": "(386) 202-4185",
    "address": "636 Lenox Ave  Daytona Beach, FL 32118",
    "location": "Volusia"
  },
  {
    "name": "Mydaytonadeals.Com",
    "description": "Internet Marketing & Advertising",
    "phone": "(386) 256-4875",
    "address": "240 Seabreeze Blvd  Daytona Beach, FL 32118",
    "location": "Volusia"
  },
  {
    "name": "Revdup",
    "description": "Marketing Consultants",
    "phone": "(386) 310-7669",
    "address": "556 N Oleander Ave  Daytona Beach, FL 32118",
    "location": "Volusia"
  },
  {
    "name": "Khan's T.S Consultation Services Inc",
    "description": "Marketing Consultants",
    "phone": "(386) 307-5968",
    "address": "2725 Dach Ave  Daytona Beach, FL 32118",
    "location": "Volusia"
  },
  {
    "name": "Accumen Sales & Marketing",
    "description": "Marketing Consultants",
    "phone": "(386) 257-2026",
    "address": "100 Granada St  Daytona Beach, FL 32117",
    "location": "Volusia"
  },
  {
    "name": "Myvenuenow.com",
    "description": "Internet Marketing & Advertising",
    "phone": "(772) 201-4885",
    "address": "2711 N Halifax Ave  Daytona Beach, FL 32118",
    "location": "Volusia"
  },
  {
    "name": "Growrestaurantprofits.com",
    "description": "Internet Marketing & Advertising",
    "phone": "(615) 619-0099",
    "address": "410 Auburn Dr  Daytona Beach, FL 32118",
    "location": "Volusia"
  },
  {
    "name": "Operation SLOB",
    "description": "Internet Consultants",
    "phone": "(386) 530-4052",
    "address": "725 Dunlawton Ave Unit 291874  Port Orange, FL 32129",
    "location": "Volusia"
  },
  {
    "name": "Choice Marketing and Consulting",
    "description": "Marketing Consultants",
    "phone": "(904) 844-0432",
    "address": "1757 N Nova Rd  Holly Hill, FL 32117",
    "location": "Volusia"
  },
  {
    "name": "SEODesignLab",
    "description": "Web Site Design & Services",
    "phone": "(929) 503-5224",
    "address": "2324 Oriole Ln  South Daytona, FL 32119",
    "location": "Volusia"
  },
  {
    "name": "Maxton Marketing",
    "description": "Marketing Consultants",
    "phone": "(386) 761-9439",
    "address": "1960 S Segrave St  South Daytona, FL 32119",
    "location": "Volusia"
  },
  {
    "name": "Align Concepts LLC",
    "description": "Internet Marketing & Advertising",
    "phone": "(386) 334-7185",
    "address": "5327 Peach Blossom Blvd  Port Orange, FL 32128",
    "location": "Volusia"
  },
  {
    "name": "mikemarket",
    "description": "Internet Marketing & Advertising",
    "phone": "(386) 383-4115",
    "address": "63 Golden gate cir  Port Orange, FL 32129",
    "location": "Volusia"
  },
  {
    "name": "Andrew Stoeckel Marketing",
    "description": "Marketing Consultants",
    "phone": "(386) 898-6478",
    "address": "737 Little Creek Ct  Port Orange, FL 32129",
    "location": "Volusia"
  },
  {
    "name": "Smart Blondes Marketing",
    "description": "Marketing Consultants",
    "phone": "(561) 324-7076",
    "address": "125 Cypress Grove Ln  Ormond Beach, FL 32174",
    "location": "Volusia"
  },
  {
    "name": "Rev Up Digital Media A Division of Ricky Bobby Usa",
    "description": "Marketing Consultants",
    "phone": "(317) 590-6767",
    "address": "2041 Halifax Dr  Port Orange, FL 32128",
    "location": "Volusia"
  },
  {
    "name": "Www.seanbreeden.com",
    "description": "Internet Marketing & Advertising",
    "phone": "(386) 589-5085",
    "address": "1010 N Swallow Tail Dr  Port Orange, FL 32129",
    "location": "Volusia"
  },
  {
    "name": "Peninsula Research Inc",
    "description": "Market Research & Analysis",
    "phone": "(386) 677-0525",
    "address": "305 Clyde Morris Blvd  Ormond Beach, FL 32174",
    "location": "Volusia"
  },
  {
    "name": "American Image Marketing",
    "description": "Advertising-Promotional Products",
    "phone": "(386) 492-5945",
    "address": "705 Samms Ave  Port Orange, FL 32129",
    "location": "Volusia"
  },
  {
    "name": "Spectrum Research Group",
    "description": "Research Services",
    "phone": "(386) 957-5600",
    "address": "413 Oak Pl  Port Orange, FL 32127",
    "location": "Volusia"
  },
  {
    "name": "Sml Marketing",
    "description": "Marketing Consultants",
    "phone": "(386) 265-4975",
    "address": "3306 S Atlantic Ave  Daytona Beach, FL 32118",
    "location": "Volusia"
  },
  {
    "name": "My Advertising Pays",
    "description": "Internet Marketing & Advertising",
    "phone": "(386) 523-6650",
    "address": "3721 S Atlantic Ave  Daytona Beach, FL 32118",
    "location": "Volusia"
  },
  {
    "name": "Hayworth Creative",
    "description": "Advertising Agencies",
    "phone": "(386) 677-7000",
    "address": "700 W Granada Blvd  Ormond Beach, FL 32174",
    "location": "Volusia"
  },
  {
    "name": "Technology Industries",
    "description": "Internet Marketing & Advertising",
    "phone": "(386) 846-1591",
    "address": "450 Tomoka Ave  Ormond Beach, FL 32174",
    "location": "Volusia"
  },
  {
    "name": "Rooms101.com",
    "description": "Internet Marketing & Advertising",
    "phone": "(800) 749-4045",
    "address": "801 W Granada Blvd Ste 303  Ormond Beach, FL 32174",
    "location": "Volusia"
  },
  {
    "name": "Customwovenblankets.com",
    "description": "Internet Marketing & Advertising",
    "phone": "(386) 320-6448",
    "address": "2610 Spruce Creek Blvd  Port Orange, FL 32128",
    "location": "Volusia"
  },
  {
    "name": "Eat Leasing LLC",
    "description": "Directory & Guide Advertising",
    "phone": "(386) 237-0446",
    "address": "232 River Beach Dr  Ormond Beach, FL 32176",
    "location": "Volusia"
  },
  {
    "name": "Next-Level Alliance LLC",
    "description": "Marketing Consultants",
    "phone": "(386) 562-1465",
    "address": "8 Crooked Tree Trl  Ormond Beach, FL 32174",
    "location": "Volusia"
  },
  {
    "name": "My-Home-Watch.com",
    "description": "Internet Marketing & Advertising",
    "phone": "(386) 682-3883",
    "address": "100 Cessna Blvd  Port Orange, FL 32128",
    "location": "Volusia"
  },
  {
    "name": "Trip 2 Earth",
    "description": "Marketing Consultants",
    "phone": "(386) 672-5304",
    "address": "114 N Yonge St  Ormond Beach, FL 32174",
    "location": "Volusia"
  },
  {
    "name": "Resorts Solutions of America",
    "description": "Internet Marketing & Advertising",
    "phone": "(386) 317-5969",
    "address": "5243 S Nova Rd  Port Orange, FL 32127",
    "location": "Volusia"
  },
  {
    "name": "Valorbound",
    "description": "Web Site Hosting",
    "phone": "(386) 478-6320",
    "address": "18 Canterbury Woods  Ormond Beach, FL 32174",
    "location": "Volusia"
  },
  {
    "name": "King Direct Marketing Inc",
    "description": "Marketing Consultants",
    "phone": "(386) 788-8925",
    "address": "1916 Bay Lake Way  Port Orange, FL 32128",
    "location": "Volusia"
  },
  {
    "name": "ActionCOACH Daytona Business Coaching",
    "description": "Business Plans Development",
    "phone": "(386) 868-0976",
    "address": "595 N Nova Rd, Suite 113  Ormond Beach, FL 32174",
    "location": "Volusia"
  },
  {
    "name": "Cunningham Research Group Inc",
    "description": "Market Research & Analysis",
    "phone": "(386) 677-5644",
    "address": "3 Signal Ave  Ormond Beach, FL 32174",
    "location": "Volusia"
  },
  {
    "name": "Cunningham Sensory Service Inc",
    "description": "Market Research & Analysis",
    "phone": "(386) 677-5644",
    "address": "3 Signal Ave  Ormond Beach, FL 32174",
    "location": "Volusia"
  },
  {
    "name": "Lifetime Legacies Productions",
    "description": "Internet Marketing & Advertising",
    "phone": "(386) 308-3763",
    "address": "PO Box 731508  Ormond Beach, FL 32173",
    "location": "Volusia"
  },
  {
    "name": "Sprout Media Lab",
    "description": "Web Site Design & Services",
    "phone": "(386) 238-9847",
    "address": "200 E Granada Blvd Ste 207  Ormond Beach, FL 32176",
    "location": "Volusia"
  },
  {
    "name": "Callan Group Communications",
    "description": "Marketing Consultants",
    "phone": "(386) 538-1083",
    "address": "1745 Tributory Ln  Port Orange, FL 32128",
    "location": "Volusia"
  },
  {
    "name": "Cash Cube Money Machine Store â„¢",
    "description": "Party & Event Planners",
    "phone": "(386) 439-3445",
    "address": "880 Airport Rd Ste 111  Ormond Beach, FL 32174",
    "location": "Volusia"
  },
  {
    "name": "Off The Chain Customs By Kev",
    "description": "Internet Marketing & Advertising",
    "phone": "(386) 316-9296",
    "address": "1000 Shockney Dr  Ormond Beach, FL 32174",
    "location": "Volusia"
  },
  {
    "name": "Timeshare Solution",
    "description": "Marketing Consultants",
    "phone": "(877) 235-9969",
    "address": "1548 Ocean Shore Blvd  Ormond Beach, FL 32176",
    "location": "Volusia"
  },
  {
    "name": "Watson Media",
    "description": "Internet Consultants",
    "phone": "(386) 227-7604",
    "address": "1452 N Us Highway 1 Ste 108  Ormond Beach, FL 32174",
    "location": "Volusia"
  },
  {
    "name": "Custom Graphic Designs",
    "description": "Print Advertising",
    "phone": "(386) 985-5909",
    "address": "4462 N Us Highway 17  Deland, FL 32720",
    "location": "Volusia"
  },
  {
    "name": "Florida Markettech Inc",
    "description": "Marketing Consultants",
    "phone": "(386) 441-9691",
    "address": "9 Spanish Waters Dr  Ormond Beach, FL 32176",
    "location": "Volusia"
  },
  {
    "name": "Far Beyond Code",
    "description": "Web Site Design & Services",
    "phone": "(386) 405-4643",
    "address": "113 Mariners Dr  Ormond Beach, FL 32176",
    "location": "Volusia"
  },
  {
    "name": "Wowusarx.com",
    "description": "Internet Marketing & Advertising",
    "phone": "(888) 994-0824",
    "address": "2820 Ocean Shore Blvd  Ormond Beach, FL 32176",
    "location": "Volusia"
  },
  {
    "name": "Headline Surfer",
    "description": "Interactive Media",
    "phone": "(386) 689-2830",
    "address": "168 Turnberry Cir  New Smyrna Beach, FL 32168",
    "location": "Volusia"
  },
  {
    "name": "Great Circle Marketing",
    "description": "Marketing Consultants",
    "phone": "(386) 428-1161",
    "address": "646 N Riverside Dr  New Smyrna Beach, FL 32168",
    "location": "Volusia"
  },
  {
    "name": "Revenue Cycle Resources- RCR|HUB",
    "description": "Directory & Guide Advertising",
    "phone": "(407) 421-4940",
    "address": "538 Canal St  New Smyrna Beach, FL 32168",
    "location": "Volusia"
  },
  {
    "name": "The Small Biz Shop",
    "description": "Internet Marketing & Advertising",
    "phone": "(888) 448-4461",
    "address": "538 Canal St Ste 325  New Smyrna Beach, FL 32168",
    "location": "Volusia"
  },
  {
    "name": "Tropics Digital",
    "description": "Internet Marketing & Advertising",
    "phone": "(321) 222-7612",
    "address": "313 Desoto Dr  New Smyrna Beach, FL 32169",
    "location": "Volusia"
  },
  {
    "name": "Saltyfeet Media LLC",
    "description": "Marketing Consultants",
    "phone": "(386) 410-4761",
    "address": "307 Lytle Ave  New Smyrna Beach, FL 32168",
    "location": "Volusia"
  },
  {
    "name": "Shark Bite Marketing",
    "description": "Internet Marketing & Advertising",
    "phone": "(386) 424-6931",
    "address": "439 Bouchelle Dr Apt 202  New Smyrna Beach, FL 32169",
    "location": "Volusia"
  },
  {
    "name": "New Way Marketing Inc",
    "description": "Marketing Consultants",
    "phone": "(386) 402-7882",
    "address": "612 N Ridgewood Ave Ste G  Edgewater, FL 32132",
    "location": "Volusia"
  },
  {
    "name": "Say IT Big Orlando",
    "description": "Marketing Consultants",
    "phone": "(786) 383-8649",
    "address": "913 Marlboro Dr  Deland, FL 32724",
    "location": "Volusia"
  },
  {
    "name": "Kitching Internet Management Solutions",
    "description": "Internet Marketing & Advertising",
    "phone": "(386) 562-6009",
    "address": "906 E Church St  Deland, FL 32724",
    "location": "Volusia"
  },
  {
    "name": "Greatoceancondos.com",
    "description": "Internet Marketing & Advertising",
    "phone": "(386) 478-7863",
    "address": "2801 Hill St  New Smyrna Beach, FL 32169",
    "location": "Volusia"
  }
]
