[
  {
    "name": "Simply Done Marketing",
    "description": "Internet Marketing & Advertising",
    "phone": "(850) 228-5110",
    "address": "1884 Woodville Hwy  Crawfordville, FL 32327",
    "location": "Wakulla"
  },
  {
    "name": "Corbett's Media llc.",
    "description": "Disc Jockeys",
    "phone": "(850) 294-5897",
    "address": "170 Corbett Ln  Crawfordville, FL 32327",
    "location": "Wakulla"
  },
  {
    "name": "MMCF Marketing",
    "description": "Marketing Programs & Services",
    "phone": "(850) 528-3909",
    "address": "4901 Woodville Hwy  Tallahassee, FL 32305",
    "location": "Wakulla"
  },
  {
    "name": "No Crowd Control",
    "description": "Marketing Programs & Services",
    "phone": "(850) 577-1758",
    "address": "1540 S Adams St  Tallahassee, FL 32301",
    "location": "Wakulla"
  },
  {
    "name": "My-Omni-Shop.com",
    "description": "Internet Marketing & Advertising",
    "phone": "(850) 760-7177",
    "address": "3927 Crawfordville Rd  Tallahassee, FL 32305",
    "location": "Wakulla"
  },
  {
    "name": "Tallahassee SCORE Chapter 712",
    "description": "Business Plans Development",
    "phone": "(850) 241-5376",
    "address": "914 Railroad Ave  Tallahassee, FL 32310",
    "location": "Wakulla"
  },
  {
    "name": "Cjis Group",
    "description": "Market Research & Analysis",
    "phone": "(850) 926-9800",
    "address": "2758 Coastal Hwy  Crawfordville, FL 32327",
    "location": "Wakulla"
  },
  {
    "name": "Maxx & Guinness",
    "description": "Web Site Hosting",
    "phone": "(813) 625-2073",
    "address": "2125 Jackson Bluff Rd  Tallahassee, FL 32304",
    "location": "Wakulla"
  },
  {
    "name": "Work for Home",
    "description": "Market Research & Analysis",
    "phone": "(850) 320-8554",
    "address": "1201 Blairstone Rd  Tallahassee, FL 32301",
    "location": "Wakulla"
  },
  {
    "name": "Myflorida.com",
    "description": "Internet Marketing & Advertising",
    "phone": "(850) 487-4196",
    "address": "4050 Esplanade Way  Tallahassee, FL 32311",
    "location": "Wakulla"
  },
  {
    "name": "Pruitt Humphress Powers & Munroe",
    "description": "Advertising Agencies",
    "phone": "(850) 222-1212",
    "address": "25 Saint Marks Rivers Edge Dr  Crawfordville, FL 32327",
    "location": "Wakulla"
  },
  {
    "name": "Best Home Income 101",
    "description": "Marketing Consultants",
    "phone": "(850) 745-1511",
    "address": "41 Lake Ellen Dr  Crawfordville, FL 32327",
    "location": "Wakulla"
  },
  {
    "name": "Speed Promotions",
    "description": "Sales Promotion Service",
    "phone": "(850) 405-0596",
    "address": "702 Stafford St  Tallahassee, FL 32305",
    "location": "Wakulla"
  },
  {
    "name": "TCB Marketing",
    "description": "Mailing Lists",
    "phone": "(850) 574-6758",
    "address": "2818 S Monroe St  Tallahassee, FL 32301",
    "location": "Wakulla"
  },
  {
    "name": "Top Ranked Marketing",
    "description": "Marketing Consultants",
    "phone": "(850) 765-8810",
    "address": "1725 Capital Cir SE  Tallahassee, FL 32301",
    "location": "Wakulla"
  },
  {
    "name": "Visit Florida",
    "description": "Marketing Consultants",
    "phone": "(850) 488-5607",
    "address": "2540 W Executive Center Cir  Tallahassee, FL 32301",
    "location": "Wakulla"
  },
  {
    "name": "Asset Marketing",
    "description": "Marketing Consultants",
    "phone": "(850) 877-0242",
    "address": "1300 Executive Center Dr  Tallahassee, FL 32301",
    "location": "Wakulla"
  },
  {
    "name": "Sprout Marketing and Graphic Design",
    "description": "Marketing Programs & Services",
    "phone": "(813) 830-2036",
    "address": "420 N Adams St  Tallahassee, FL 32301",
    "location": "Wakulla"
  },
  {
    "name": "Asb Marketing Solutions",
    "description": "Marketing Programs & Services",
    "phone": "(850) 745-4272",
    "address": "300 S Bronough St  Tallahassee, FL 32301",
    "location": "Wakulla"
  },
  {
    "name": "AIA Florida",
    "description": "Marketing Programs & Services",
    "phone": "(850) 222-7590",
    "address": "104 E Jefferson St  Tallahassee, FL 32301",
    "location": "Wakulla"
  },
  {
    "name": "AutoManCars.ws",
    "description": "Marketing Programs & Services",
    "phone": "(850) 597-5416",
    "address": "3539 Apalachee Pkwy Ste 3-115  Tallahassee, FL 32311",
    "location": "Wakulla"
  },
  {
    "name": "Florida Filing & Search Services Inc",
    "description": "Marketing Programs & Services",
    "phone": "(850) 216-0457",
    "address": "155 Office Plaza Dr  Tallahassee, FL 32301",
    "location": "Wakulla"
  },
  {
    "name": "Monsterhouse Marketing",
    "description": "Marketing Programs & Services",
    "phone": "(850) 270-9187",
    "address": "113 S Monroe St 1st Fl  Tallahassee, FL 32301",
    "location": "Wakulla"
  },
  {
    "name": "223 Agency",
    "description": "Marketing Programs & Services",
    "phone": "(833) 850-8324",
    "address": "223 W Carolina St  Tallahassee, FL 32301",
    "location": "Wakulla"
  },
  {
    "name": "GulfStar Innovations, LLC",
    "description": "Marketing Programs & Services",
    "phone": "(352) 587-2940",
    "address": "75 N Woodward Ave # 8000-1738  Tallahassee, FL 32313",
    "location": "Wakulla"
  },
  {
    "name": "Alpha n Omega Marketing Inc",
    "description": "Marketing Consultants",
    "phone": "(229) 848-1340",
    "address": "119 E Georgia St Ste 12  Tallahassee, FL 32301",
    "location": "Wakulla"
  },
  {
    "name": "The Pod Advertising",
    "description": "Internet Marketing & Advertising",
    "phone": "(850) 597-8374",
    "address": "502 E Park Ave  Tallahassee, FL 32301",
    "location": "Wakulla"
  },
  {
    "name": "ROI Town",
    "description": "Internet Marketing & Advertising",
    "phone": "(850) 566-4990",
    "address": "304 N Meridian St Apt 6  Tallahassee, FL 32301",
    "location": "Wakulla"
  },
  {
    "name": "Saltermitchell Inc",
    "description": "Public Relations Counselors",
    "phone": "(850) 681-3200",
    "address": "117 S Gadsden St  Tallahassee, FL 32301",
    "location": "Wakulla"
  },
  {
    "name": "LocaliQ",
    "description": "Advertising Agencies",
    "phone": "(877) 525-6084",
    "address": "277 N Magnolia Dr  Tallahassee, FL 32301",
    "location": "Wakulla"
  },
  {
    "name": "ALCOM, Inc.",
    "description": "Internet Marketing & Advertising",
    "phone": "(850) 385-7762",
    "address": "508 Capital Cir SE Ste D3  Tallahassee, FL 32301",
    "location": "Wakulla"
  },
  {
    "name": "C & C Market Research",
    "description": "Market Research & Analysis",
    "phone": "(850) 329-6673",
    "address": "1500 Apalachee Pkwy  Tallahassee, FL 32301",
    "location": "Wakulla"
  },
  {
    "name": "Lansing Household Suppl",
    "description": "Market Research & Analysis",
    "phone": "(850) 320-6275",
    "address": "937 Briarcliff Rd  Tallahassee, FL 32308",
    "location": "Wakulla"
  },
  {
    "name": "Tallahasseelocals.Com",
    "description": "Internet Marketing & Advertising",
    "phone": "(850) 405-5993",
    "address": "1200 Tampa Dr  Tallahassee, FL 32311",
    "location": "Wakulla"
  },
  {
    "name": "Web Traffic Consultants",
    "description": "Internet Marketing & Advertising",
    "phone": "(850) 325-0791",
    "address": "206 Grace St  Tallahassee, FL 32301",
    "location": "Wakulla"
  },
  {
    "name": "Velocity Online",
    "description": "Internet Marketing & Advertising",
    "phone": "(850) 205-4638",
    "address": "215 W Carolina St  Tallahassee, FL 32301",
    "location": "Wakulla"
  },
  {
    "name": "Bidavilla Com",
    "description": "Internet Marketing & Advertising",
    "phone": "(850) 383-8587",
    "address": "903 N Monroe St  Tallahassee, FL 32303",
    "location": "Wakulla"
  },
  {
    "name": "Hubze Inc",
    "description": "Internet Marketing & Advertising",
    "phone": "(850) 597-8077",
    "address": "1023 Winter Ln  Tallahassee, FL 32311",
    "location": "Wakulla"
  },
  {
    "name": "247 Brand Marketing",
    "description": "Marketing Consultants",
    "phone": "(850) 765-3431",
    "address": "1457 Old Saint Augustine Rd  Tallahassee, FL 32301",
    "location": "Wakulla"
  },
  {
    "name": "Total Event Management",
    "description": "Marketing Consultants",
    "phone": "(850) 577-0300",
    "address": "215 S Monroe St  Tallahassee, FL 32301",
    "location": "Wakulla"
  },
  {
    "name": "Thinkcreative",
    "description": "Advertising Agencies",
    "phone": "(850) 656-7050",
    "address": "304 W College Ave  Tallahassee, FL 32301",
    "location": "Wakulla"
  },
  {
    "name": "Pea Green Solutions, Inc",
    "description": "Product Design, Development & Marketing",
    "phone": "(850) 727-0276",
    "address": "502 E Park Ave  Tallahassee, FL 32301",
    "location": "Wakulla"
  },
  {
    "name": "Arena Public Affairs",
    "description": "Marketing Consultants",
    "phone": "(850) 759-0671",
    "address": "123 N Monroe St  Tallahassee, FL 32301",
    "location": "Wakulla"
  },
  {
    "name": "Esp Media Corp",
    "description": "Marketing Consultants",
    "phone": "(850) 577-0789",
    "address": "1028 E Park Ave  Tallahassee, FL 32301",
    "location": "Wakulla"
  },
  {
    "name": "BAM! Social Media & Promotions",
    "description": "Party & Event Planners",
    "phone": "(305) 834-9159",
    "address": "123 Meeting Street Dr  Tallahassee, FL 32301",
    "location": "Wakulla"
  },
  {
    "name": "Promotional Item For Less",
    "description": "Advertising-Promotional Products",
    "phone": "(850) 224-6819",
    "address": "507 Concord Rd  Tallahassee, FL 32308",
    "location": "Wakulla"
  },
  {
    "name": "Personett And Company Inc",
    "description": "Marketing Consultants",
    "phone": "(850) 412-0072",
    "address": "530 Williams St  Tallahassee, FL 32303",
    "location": "Wakulla"
  },
  {
    "name": "BTM Marketing",
    "description": "Marketing Consultants",
    "phone": "(850) 942-1926",
    "address": "3890 Chaucer Ct  Tallahassee, FL 32311",
    "location": "Wakulla"
  }
]
